loop_index, counter, last_step_ns, T_ref, theta_ref, phi_ref, uwind, vwind, wwind, rho,v_batt,alt,gyro_roll,gyro_pitch,gyro_yaw,accel_X,accel_Y,accel_Z,roll,pitch,yaw,X,Y,Z,Xdot,Ydot,Zdot,x0,y0,z0,e.xbee_time,xbee_time_received_ns,xbee_x,xbee_y,xbee_z,xbee_qw,xbee_qx,xbee_qy,xbee_qz,sp_roll,sp_pitch,sp_yaw,sp_X,sp_Y,sp_Z,sp_Xdot,sp_Ydot,sp_Zdot,u_roll,u_pitch,u_yaw,u_X,u_Y,u_Z,mot_1,mot_2,mot_3,mot_4,flight mode
0,-1,0,-0.0013,NAN,NAN,-0.0490,0.6510,0.3210,0.0000,12.2420,0.0000,0.0000,-0.0610,0.1221,-0.1435,-0.2901,-10.6026,0.0125,-0.0017,-0.0006,0.0000,0.0000,0.0000,0.0000,0.0000,0.0000,0.0000,0.0000,0.0000,0.0000,0.0000,0.0000,0.0000,0.0000,1.0000,0.0000,0.0000,0.0000,0.0000,0.0000,0.0000,0.0000,0.0000,0.0000,0.0000,0.0000,0.0000,0.0000,0.0000,0.0000,0.0000,0.0000,0.0000,-0.1000,-0.1000,-0.1000,-0.1000,4
0,-1,0,-0.0013,NAN,NAN,-0.0490,0.6510,0.3210,0.0000,12.2408,0.0000,-0.0610,-0.1221,0.1221,-0.1698,-0.2757,-10.5429,0.0125,-0.0017,-0.0006,0.0000,0.0000,0.0000,0.0000,0.0000,0.0000,0.0000,0.0000,0.0000,0.0000,0.0000,0.0000,0.0000,0.0000,1.0000,0.0000,0.0000,0.0000,0.0000,0.0000,0.0000,0.0000,0.0000,0.0000,0.0000,0.0000,0.0000,0.0000,0.0000,0.0000,0.0000,0.0000,0.0000,-0.1000,-0.1000,-0.1000,-0.1000,4
0,-1,0,-0.0013,NAN,NAN,-0.0490,0.6510,0.3210,0.0000,12.2404,0.0000,0.0000,-0.1221,-0.0000,-0.1506,-0.2349,-10.5691,0.0125,-0.0017,-0.0006,0.0000,0.0000,0.0000,0.0000,0.0000,0.0000,0.0000,0.0000,0.0000,0.0000,0.0000,0.0000,0.0000,0.0000,1.0000,0.0000,0.0000,0.0000,0.0000,0.0000,0.0000,0.0000,0.0000,0.0000,0.0000,0.0000,0.0000,0.0000,0.0000,0.0000,0.0000,0.0000,0.0000,-0.1000,-0.1000,-0.1000,-0.1000,4
0,-1,0,-0.0013,NAN,NAN,-0.0490,0.6510,0.3210,0.0000,12.2391,0.0000,-0.0610,-0.3052,-0.0610,-0.1554,-0.2925,-10.5859,0.0125,-0.0018,-0.0006,0.0000,0.0000,0.0000,0.0000,0.0000,0.0000,0.0000,0.0000,0.0000,0.0000,0.0000,0.0000,0.0000,0.0000,1.0000,0.0000,0.0000,0.0000,0.0000,0.0000,0.0000,0.0000,0.0000,0.0000,0.0000,0.0000,0.0000,0.0000,0.0000,0.0000,0.0000,0.0000,0.0000,-0.1000,-0.1000,-0.1000,-0.1000,4
0,-1,0,-0.0013,NAN,NAN,0.0310,0.7610,0.3710,0.0000,12.2382,0.0000,0.0000,0.0000,-0.0610,-0.1937,-0.2493,-10.5763,0.0125,-0.0018,-0.0006,0.0000,0.0000,0.0000,0.0000,0.0000,0.0000,0.0000,0.0000,0.0000,0.0000,0.0000,0.0000,0.0000,0.0000,1.0000,0.0000,0.0000,0.0000,0.0000,0.0000,0.0000,0.0000,0.0000,0.0000,0.0000,0.0000,0.0000,0.0000,0.0000,0.0000,0.0000,0.0000,0.0000,-0.1000,-0.1000,-0.1000,-0.1000,4
0,-1,0,-0.0013,NAN,NAN,0.0310,0.7610,0.3710,0.0000,12.2375,0.0000,-0.0610,-0.2441,-0.1221,-0.1721,-0.2781,-10.5620,0.0126,-0.0018,-0.0006,0.0000,0.0000,0.0000,0.0000,0.0000,0.0000,0.0000,0.0000,0.0000,0.0000,0.0000,0.0000,0.0000,0.0000,1.0000,0.0000,0.0000,0.0000,0.0000,0.0000,0.0000,0.0000,0.0000,0.0000,0.0000,0.0000,0.0000,0.0000,0.0000,0.0000,0.0000,0.0000,0.0000,-0.1000,-0.1000,-0.1000,-0.1000,4
0,-1,0,-0.0013,NAN,NAN,0.0310,0.7610,0.3710,0.0000,12.2362,0.0000,0.0000,0.0000,0.1221,-0.1458,-0.2325,-10.5978,0.0126,-0.0018,-0.0006,0.0000,0.0000,0.0000,0.0000,0.0000,0.0000,0.0000,0.0000,0.0000,0.0000,0.0000,0.0000,0.0000,0.0000,1.0000,0.0000,0.0000,0.0000,0.0000,0.0000,0.0000,0.0000,0.0000,0.0000,0.0000,0.0000,0.0000,0.0000,0.0000,0.0000,0.0000,0.0000,0.0000,-0.1000,-0.1000,-0.1000,-0.1000,4
0,-1,0,-0.0013,NAN,NAN,0.0310,0.7610,0.3710,0.0000,12.2360,0.0000,0.0000,-0.1221,0.1221,-0.1554,-0.2541,-10.5596,0.0126,-0.0019,-0.0006,0.0000,0.0000,0.0000,0.0000,0.0000,0.0000,0.0000,0.0000,0.0000,0.0000,0.0000,0.0000,0.0000,0.0000,1.0000,0.0000,0.0000,0.0000,0.0000,0.0000,0.0000,0.0000,0.0000,0.0000,0.0000,0.0000,0.0000,0.0000,0.0000,0.0000,0.0000,0.0000,0.0000,-0.1000,-0.1000,-0.1000,-0.1000,4
0,-1,0,-0.0013,NAN,NAN,0.0310,0.7610,0.3710,0.0000,12.2350,0.0000,0.0000,0.0000,0.1221,-0.1530,-0.3021,-10.5453,0.0126,-0.0019,-0.0006,0.0000,0.0000,0.0000,0.0000,0.0000,0.0000,0.0000,0.0000,0.0000,0.0000,0.0000,0.0000,0.0000,0.0000,1.0000,0.0000,0.0000,0.0000,0.0000,0.0000,0.0000,0.0000,0.0000,0.0000,0.0000,0.0000,0.0000,0.0000,0.0000,0.0000,0.0000,0.0000,0.0000,-0.1000,-0.1000,-0.1000,-0.1000,4
0,-1,0,-0.0013,NAN,NAN,0.0310,0.7610,0.3710,0.0000,12.2341,0.0000,-0.0610,-0.1221,-0.1221,-0.1339,-0.2349,-10.6431,0.0126,-0.0019,-0.0006,0.0000,0.0000,0.0000,0.0000,0.0000,0.0000,0.0000,0.0000,0.0000,0.0000,0.0000,0.0000,0.0000,0.0000,1.0000,0.0000,0.0000,0.0000,0.0000,0.0000,0.0000,0.0000,0.0000,0.0000,0.0000,0.0000,0.0000,0.0000,0.0000,0.0000,0.0000,0.0000,0.0000,-0.1000,-0.1000,-0.1000,-0.1000,4
0,-1,0,-0.0013,NAN,NAN,0.0310,0.7610,0.3710,0.0000,12.2331,0.0000,-0.0610,-0.1831,-0.0000,-0.1745,-0.2517,-10.5715,0.0126,-0.0019,-0.0006,0.0000,0.0000,0.0000,0.0000,0.0000,0.0000,0.0000,0.0000,0.0000,0.0000,0.0000,0.0000,0.0000,0.0000,1.0000,0.0000,0.0000,0.0000,0.0000,0.0000,0.0000,0.0000,0.0000,0.0000,0.0000,0.0000,0.0000,0.0000,0.0000,0.0000,0.0000,0.0000,0.0000,-0.1000,-0.1000,-0.1000,-0.1000,4
0,-1,0,-0.0013,NAN,NAN,0.0310,0.7610,0.3710,0.0000,12.2321,0.0000,-0.1221,-0.0610,0.1221,-0.1961,-0.2325,-10.6145,0.0126,-0.0019,-0.0006,0.0000,0.0000,0.0000,0.0000,0.0000,0.0000,0.0000,0.0000,0.0000,0.0000,0.0000,0.0000,0.0000,0.0000,1.0000,0.0000,0.0000,0.0000,0.0000,0.0000,0.0000,0.0000,0.0000,0.0000,0.0000,0.0000,0.0000,0.0000,0.0000,0.0000,0.0000,0.0000,0.0000,-0.1000,-0.1000,-0.1000,-0.1000,4
0,-1,0,-0.0013,NAN,NAN,0.0310,0.7610,0.3710,0.0000,12.2312,0.0000,-0.0610,-0.1831,-0.0000,-0.1291,-0.2206,-10.5930,0.0127,-0.0019,-0.0006,0.0000,0.0000,0.0000,0.0000,0.0000,0.0000,0.0000,0.0000,0.0000,0.0000,0.0000,0.0000,0.0000,0.0000,1.0000,0.0000,0.0000,0.0000,0.0000,0.0000,0.0000,0.0000,0.0000,0.0000,0.0000,0.0000,0.0000,0.0000,0.0000,0.0000,0.0000,0.0000,0.0000,-0.1000,-0.1000,-0.1000,-0.1000,4
0,-1,0,-0.0013,NAN,NAN,0.0310,0.7610,0.3710,0.0000,12.2300,0.0000,-0.0610,-0.1221,0.1221,-0.1721,-0.2469,-10.6002,0.0127,-0.0020,-0.0006,0.0000,0.0000,0.0000,0.0000,0.0000,0.0000,0.0000,0.0000,0.0000,0.0000,0.0000,0.0000,0.0000,0.0000,1.0000,0.0000,0.0000,0.0000,0.0000,0.0000,0.0000,0.0000,0.0000,0.0000,0.0000,0.0000,0.0000,0.0000,0.0000,0.0000,0.0000,0.0000,0.0000,-0.1000,-0.1000,-0.1000,-0.1000,4
0,-1,0,-0.0013,NAN,NAN,0.0310,0.7610,0.3710,0.0000,12.2292,0.0000,0.0000,-0.1221,-0.0000,-0.1267,-0.2853,-10.6384,0.0127,-0.0020,-0.0007,0.0000,0.0000,0.0000,0.0000,0.0000,0.0000,0.0000,0.0000,0.0000,0.0000,0.0000,0.0000,0.0000,0.0000,1.0000,0.0000,0.0000,0.0000,0.0000,0.0000,0.0000,0.0000,0.0000,0.0000,0.0000,0.0000,0.0000,0.0000,0.0000,0.0000,0.0000,0.0000,0.0000,-0.1000,-0.1000,-0.1000,-0.1000,4
0,-1,0,-0.0013,NAN,NAN,0.0310,0.7610,0.3710,0.0000,12.2283,0.0000,0.0000,0.0000,0.1221,-0.1387,-0.2541,-10.5835,0.0127,-0.0020,-0.0006,0.0000,0.0000,0.0000,0.0000,0.0000,0.0000,0.0000,0.0000,0.0000,0.0000,0.0000,0.0000,0.0000,0.0000,1.0000,0.0000,0.0000,0.0000,0.0000,0.0000,0.0000,0.0000,0.0000,0.0000,0.0000,0.0000,0.0000,0.0000,0.0000,0.0000,0.0000,0.0000,0.0000,-0.1000,-0.1000,-0.1000,-0.1000,4
0,-1,0,-0.0013,NAN,NAN,0.0310,0.7610,0.3710,0.0000,12.2273,0.0000,-0.1221,-0.0610,-0.0000,-0.1435,-0.2253,-10.6026,0.0127,-0.0020,-0.0007,0.0000,0.0000,0.0000,0.0000,0.0000,0.0000,0.0000,0.0000,0.0000,0.0000,0.0000,0.0000,0.0000,0.0000,1.0000,0.0000,0.0000,0.0000,0.0000,0.0000,0.0000,0.0000,0.0000,0.0000,0.0000,0.0000,0.0000,0.0000,0.0000,0.0000,0.0000,0.0000,0.0000,-0.1000,-0.1000,-0.1000,-0.1000,4
0,-1,0,-0.0013,NAN,NAN,0.0310,0.7610,0.3710,0.0000,12.2261,0.0000,0.0610,0.0000,-0.0610,-0.1745,-0.2661,-10.6264,0.0127,-0.0020,-0.0007,0.0000,0.0000,0.0000,0.0000,0.0000,0.0000,0.0000,0.0000,0.0000,0.0000,0.0000,0.0000,0.0000,0.0000,1.0000,0.0000,0.0000,0.0000,0.0000,0.0000,0.0000,0.0000,0.0000,0.0000,0.0000,0.0000,0.0000,0.0000,0.0000,0.0000,0.0000,0.0000,0.0000,-0.1000,-0.1000,-0.1000,-0.1000,4
0,-1,0,-0.0013,NAN,NAN,0.0310,0.7610,0.3710,0.0000,12.2251,0.0000,-0.0610,-0.1221,0.1221,-0.1435,-0.2493,-10.6455,0.0128,-0.0020,-0.0007,0.0000,0.0000,0.0000,0.0000,0.0000,0.0000,0.0000,0.0000,0.0000,0.0000,0.0000,0.0000,0.0000,0.0000,1.0000,0.0000,0.0000,0.0000,0.0000,0.0000,0.0000,0.0000,0.0000,0.0000,0.0000,0.0000,0.0000,0.0000,0.0000,0.0000,0.0000,0.0000,0.0000,-0.1000,-0.1000,-0.1000,-0.1000,4
0,-1,0,-0.0013,NAN,NAN,0.0310,0.7610,0.3710,0.0000,12.2242,0.0000,-0.1831,-0.1221,-0.0610,-0.1435,-0.2685,-10.6002,0.0128,-0.0021,-0.0007,0.0000,0.0000,0.0000,0.0000,0.0000,0.0000,0.0000,0.0000,0.0000,0.0000,0.0000,0.0000,0.0000,0.0000,1.0000,0.0000,0.0000,0.0000,0.0000,0.0000,0.0000,0.0000,0.0000,0.0000,0.0000,0.0000,0.0000,0.0000,0.0000,0.0000,0.0000,0.0000,0.0000,-0.1000,-0.1000,-0.1000,-0.1000,4
0,-1,0,-0.0013,NAN,NAN,0.0310,0.7610,0.3710,0.0000,12.2237,0.0000,-0.1831,-0.0610,0.1831,-0.1506,-0.2373,-10.6050,0.0128,-0.0021,-0.0007,0.0000,0.0000,0.0000,0.0000,0.0000,0.0000,0.0000,0.0000,0.0000,0.0000,0.0000,0.0000,0.0000,0.0000,1.0000,0.0000,0.0000,0.0000,0.0000,0.0000,0.0000,0.0000,0.0000,0.0000,0.0000,0.0000,0.0000,0.0000,0.0000,0.0000,0.0000,0.0000,0.0000,-0.1000,-0.1000,-0.1000,-0.1000,4
0,-1,0,-0.0013,NAN,NAN,0.0310,0.7610,0.3710,0.0000,12.2242,0.0000,0.0000,-0.1831,0.1221,-0.1530,-0.2589,-10.5715,0.0128,-0.0021,-0.0007,0.0000,0.0000,0.0000,0.0000,0.0000,0.0000,0.0000,0.0000,0.0000,0.0000,0.0000,0.0000,0.0000,0.0000,1.0000,0.0000,0.0000,0.0000,0.0000,0.0000,0.0000,0.0000,0.0000,0.0000,0.0000,0.0000,0.0000,0.0000,0.0000,0.0000,0.0000,0.0000,0.0000,-0.1000,-0.1000,-0.1000,-0.1000,4
0,-1,0,-0.0013,NAN,NAN,0.0310,0.7610,0.3710,0.0000,12.2244,0.0000,-0.0610,-0.2441,0.1221,-0.1889,-0.2805,-10.6360,0.0128,-0.0021,-0.0006,0.0000,0.0000,0.0000,0.0000,0.0000,0.0000,0.0000,0.0000,0.0000,0.0000,0.0000,0.0000,0.0000,0.0000,1.0000,0.0000,0.0000,0.0000,0.0000,0.0000,0.0000,0.0000,0.0000,0.0000,0.0000,0.0000,0.0000,0.0000,0.0000,0.0000,0.0000,0.0000,0.0000,-0.1000,-0.1000,-0.1000,-0.1000,4
0,-1,0,-0.0013,NAN,NAN,0.0310,0.7610,0.3710,0.0000,12.2251,0.0000,-0.0610,-0.1831,-0.0000,-0.1745,-0.2541,-10.5930,0.0128,-0.0021,-0.0006,0.0000,0.0000,0.0000,0.0000,0.0000,0.0000,0.0000,0.0000,0.0000,0.0000,0.0000,0.0000,0.0000,0.0000,1.0000,0.0000,0.0000,0.0000,0.0000,0.0000,0.0000,0.0000,0.0000,0.0000,0.0000,0.0000,0.0000,0.0000,0.0000,0.0000,0.0000,0.0000,0.0000,-0.1000,-0.1000,-0.1000,-0.1000,4
0,-1,0,-0.0013,NAN,NAN,0.0310,0.7610,0.3710,0.0000,12.2251,0.0000,-0.0610,-0.1221,-0.0000,-0.1411,-0.2469,-10.6217,0.0128,-0.0022,-0.0006,0.0000,0.0000,0.0000,0.0000,0.0000,0.0000,0.0000,0.0000,0.0000,0.0000,0.0000,0.0000,0.0000,0.0000,1.0000,0.0000,0.0000,0.0000,0.0000,0.0000,0.0000,0.0000,0.0000,0.0000,0.0000,0.0000,0.0000,0.0000,0.0000,0.0000,0.0000,0.0000,0.0000,-0.1000,-0.1000,-0.1000,-0.1000,4
0,-1,0,-0.0013,NAN,NAN,0.0310,0.7610,0.3710,0.0000,12.2251,0.0000,-0.0610,-0.1221,-0.0610,-0.1698,-0.2709,-10.5095,0.0128,-0.0022,-0.0007,0.0000,0.0000,0.0000,0.0000,0.0000,0.0000,0.0000,0.0000,0.0000,0.0000,0.0000,0.0000,0.0000,0.0000,1.0000,0.0000,0.0000,0.0000,0.0000,0.0000,0.0000,0.0000,0.0000,0.0000,0.0000,0.0000,0.0000,0.0000,0.0000,0.0000,0.0000,0.0000,0.0000,-0.1000,-0.1000,-0.1000,-0.1000,4
0,-1,0,-0.0013,NAN,NAN,0.0310,0.7610,0.3710,0.0000,12.2251,0.0000,0.0000,0.0000,0.1221,-0.1578,-0.2685,-10.5644,0.0129,-0.0022,-0.0007,0.0000,0.0000,0.0000,0.0000,0.0000,0.0000,0.0000,0.0000,0.0000,0.0000,0.0000,0.0000,0.0000,0.0000,1.0000,0.0000,0.0000,0.0000,0.0000,0.0000,0.0000,0.0000,0.0000,0.0000,0.0000,0.0000,0.0000,0.0000,0.0000,0.0000,0.0000,0.0000,0.0000,-0.1000,-0.1000,-0.1000,-0.1000,4
0,-1,0,-0.0013,NAN,NAN,0.0310,0.7610,0.3710,0.0000,12.2242,0.0000,-0.0610,-0.1221,-0.0000,-0.0956,-0.2709,-10.5405,0.0129,-0.0022,-0.0007,0.0000,0.0000,0.0000,0.0000,0.0000,0.0000,0.0000,0.0000,0.0000,0.0000,0.0000,0.0000,0.0000,0.0000,1.0000,0.0000,0.0000,0.0000,0.0000,0.0000,0.0000,0.0000,0.0000,0.0000,0.0000,0.0000,0.0000,0.0000,0.0000,0.0000,0.0000,0.0000,0.0000,-0.1000,-0.1000,-0.1000,-0.1000,4
0,-1,0,-0.0013,NAN,NAN,0.0310,0.7610,0.3710,0.0000,12.2242,0.0000,-0.1831,-0.1831,-0.0000,-0.1793,-0.2877,-10.6837,0.0129,-0.0022,-0.0007,0.0000,0.0000,0.0000,0.0000,0.0000,0.0000,0.0000,0.0000,0.0000,0.0000,0.0000,0.0000,0.0000,0.0000,1.0000,0.0000,0.0000,0.0000,0.0000,0.0000,0.0000,0.0000,0.0000,0.0000,0.0000,0.0000,0.0000,0.0000,0.0000,0.0000,0.0000,0.0000,0.0000,-0.1000,-0.1000,-0.1000,-0.1000,4
0,-1,0,-0.0013,NAN,NAN,0.0310,0.7610,0.3710,0.0000,12.2242,0.0000,-0.1221,-0.0610,0.1221,-0.1674,-0.2877,-10.5906,0.0129,-0.0023,-0.0006,0.0000,0.0000,0.0000,0.0000,0.0000,0.0000,0.0000,0.0000,0.0000,0.0000,0.0000,0.0000,0.0000,0.0000,1.0000,0.0000,0.0000,0.0000,0.0000,0.0000,0.0000,0.0000,0.0000,0.0000,0.0000,0.0000,0.0000,0.0000,0.0000,0.0000,0.0000,0.0000,0.0000,-0.1000,-0.1000,-0.1000,-0.1000,4
0,-1,0,-0.0013,NAN,NAN,0.0310,0.7610,0.3710,0.0000,12.2246,0.0000,-0.1831,-0.2441,-0.0000,-0.1387,-0.2709,-10.6336,0.0129,-0.0023,-0.0007,0.0000,0.0000,0.0000,0.0000,0.0000,0.0000,0.0000,0.0000,0.0000,0.0000,0.0000,0.0000,0.0000,0.0000,1.0000,0.0000,0.0000,0.0000,0.0000,0.0000,0.0000,0.0000,0.0000,0.0000,0.0000,0.0000,0.0000,0.0000,0.0000,0.0000,0.0000,0.0000,0.0000,-0.1000,-0.1000,-0.1000,-0.1000,4
0,-1,0,-0.0013,NAN,NAN,0.0310,0.7610,0.3710,0.0000,12.2246,0.0000,0.0000,0.0000,-0.0000,-0.1291,-0.2709,-10.6145,0.0129,-0.0023,-0.0007,0.0000,0.0000,0.0000,0.0000,0.0000,0.0000,0.0000,0.0000,0.0000,0.0000,0.0000,0.0000,0.0000,0.0000,1.0000,0.0000,0.0000,0.0000,0.0000,0.0000,0.0000,0.0000,0.0000,0.0000,0.0000,0.0000,0.0000,0.0000,0.0000,0.0000,0.0000,0.0000,0.0000,-0.1000,-0.1000,-0.1000,-0.1000,4
0,-1,0,-0.0013,NAN,NAN,0.0310,0.7610,0.3710,0.0000,12.2249,0.0000,-0.0610,-0.1831,0.1221,-0.1506,-0.2253,-10.6551,0.0129,-0.0023,-0.0006,0.0000,0.0000,0.0000,0.0000,0.0000,0.0000,0.0000,0.0000,0.0000,0.0000,0.0000,0.0000,0.0000,0.0000,1.0000,0.0000,0.0000,0.0000,0.0000,0.0000,0.0000,0.0000,0.0000,0.0000,0.0000,0.0000,0.0000,0.0000,0.0000,0.0000,0.0000,0.0000,0.0000,-0.1000,-0.1000,-0.1000,-0.1000,4
0,-1,0,-0.0013,NAN,NAN,0.0310,0.7610,0.3710,0.0000,12.2249,0.0000,0.0000,-0.1221,0.1221,-0.1339,-0.2541,-10.6240,0.0130,-0.0023,-0.0006,0.0000,0.0000,0.0000,0.0000,0.0000,0.0000,0.0000,0.0000,0.0000,0.0000,0.0000,0.0000,0.0000,0.0000,1.0000,0.0000,0.0000,0.0000,0.0000,0.0000,0.0000,0.0000,0.0000,0.0000,0.0000,0.0000,0.0000,0.0000,0.0000,0.0000,0.0000,0.0000,0.0000,-0.1000,-0.1000,-0.1000,-0.1000,4
0,-1,0,-0.0013,NAN,NAN,0.0310,0.7610,0.3710,0.0000,12.2246,0.0000,-0.0610,-0.1221,0.1831,-0.1554,-0.2589,-10.5405,0.0130,-0.0024,-0.0006,0.0000,0.0000,0.0000,0.0000,0.0000,0.0000,0.0000,0.0000,0.0000,0.0000,0.0000,0.0000,0.0000,0.0000,1.0000,0.0000,0.0000,0.0000,0.0000,0.0000,0.0000,0.0000,0.0000,0.0000,0.0000,0.0000,0.0000,0.0000,0.0000,0.0000,0.0000,0.0000,0.0000,-0.1000,-0.1000,-0.1000,-0.1000,4
0,-1,0,-0.0013,NAN,NAN,0.0310,0.7610,0.3710,0.0000,12.2249,0.0000,0.0610,-0.0610,-0.0000,-0.1626,-0.2589,-10.5620,0.0130,-0.0024,-0.0006,0.0000,0.0000,0.0000,0.0000,0.0000,0.0000,0.0000,0.0000,0.0000,0.0000,0.0000,0.0000,0.0000,0.0000,1.0000,0.0000,0.0000,0.0000,0.0000,0.0000,0.0000,0.0000,0.0000,0.0000,0.0000,0.0000,0.0000,0.0000,0.0000,0.0000,0.0000,0.0000,0.0000,-0.1000,-0.1000,-0.1000,-0.1000,4
0,-1,0,-0.0013,NAN,NAN,0.0310,0.7610,0.3710,0.0000,12.2246,0.0000,-0.0610,-0.1831,-0.0000,-0.1769,-0.2589,-10.6336,0.0130,-0.0024,-0.0006,0.0000,0.0000,0.0000,0.0000,0.0000,0.0000,0.0000,0.0000,0.0000,0.0000,0.0000,0.0000,0.0000,0.0000,1.0000,0.0000,0.0000,0.0000,0.0000,0.0000,0.0000,0.0000,0.0000,0.0000,0.0000,0.0000,0.0000,0.0000,0.0000,0.0000,0.0000,0.0000,0.0000,-0.1000,-0.1000,-0.1000,-0.1000,4
0,-1,0,-0.0013,NAN,NAN,0.0310,0.7610,0.3710,0.0000,12.2251,0.0000,-0.0610,-0.3662,0.1831,-0.1458,-0.2541,-10.5524,0.0130,-0.0024,-0.0006,0.0000,0.0000,0.0000,0.0000,0.0000,0.0000,0.0000,0.0000,0.0000,0.0000,0.0000,0.0000,0.0000,0.0000,1.0000,0.0000,0.0000,0.0000,0.0000,0.0000,0.0000,0.0000,0.0000,0.0000,0.0000,0.0000,0.0000,0.0000,0.0000,0.0000,0.0000,0.0000,0.0000,-0.1000,-0.1000,-0.1000,-0.1000,4
0,-1,0,-0.0013,NAN,NAN,0.0310,0.7610,0.3710,0.0000,12.2246,0.0000,-0.0610,-0.1831,-0.0000,-0.1315,-0.3188,-10.5477,0.0130,-0.0025,-0.0006,0.0000,0.0000,0.0000,0.0000,0.0000,0.0000,0.0000,0.0000,0.0000,0.0000,0.0000,0.0000,0.0000,0.0000,1.0000,0.0000,0.0000,0.0000,0.0000,0.0000,0.0000,0.0000,0.0000,0.0000,0.0000,0.0000,0.0000,0.0000,0.0000,0.0000,0.0000,0.0000,0.0000,-0.1000,-0.1000,-0.1000,-0.1000,4
0,-1,0,-0.0013,NAN,NAN,0.0310,0.7610,0.3710,0.0000,12.2249,0.0000,-0.2441,-0.2441,-0.0000,-0.1769,-0.2493,-10.5429,0.0130,-0.0025,-0.0006,0.0000,0.0000,0.0000,0.0000,0.0000,0.0000,0.0000,0.0000,0.0000,0.0000,0.0000,0.0000,0.0000,0.0000,1.0000,0.0000,0.0000,0.0000,0.0000,0.0000,0.0000,0.0000,0.0000,0.0000,0.0000,0.0000,0.0000,0.0000,0.0000,0.0000,0.0000,0.0000,0.0000,-0.1000,-0.1000,-0.1000,-0.1000,4
0,-1,0,-0.0013,NAN,NAN,0.0310,0.7610,0.3710,0.0000,12.2254,0.0000,-0.0610,-0.1831,-0.0000,-0.1243,-0.2373,-10.5787,0.0130,-0.0025,-0.0006,0.0000,0.0000,0.0000,0.0000,0.0000,0.0000,0.0000,0.0000,0.0000,0.0000,0.0000,0.0000,0.0000,0.0000,1.0000,0.0000,0.0000,0.0000,0.0000,0.0000,0.0000,0.0000,0.0000,0.0000,0.0000,0.0000,0.0000,0.0000,0.0000,0.0000,0.0000,0.0000,0.0000,-0.1000,-0.1000,-0.1000,-0.1000,4
0,-1,0,-0.0013,NAN,NAN,0.0310,0.7610,0.3710,0.0000,12.2251,0.0000,-0.0610,-0.2441,0.1831,-0.1435,-0.3260,-10.5859,0.0131,-0.0025,-0.0006,0.0000,0.0000,0.0000,0.0000,0.0000,0.0000,0.0000,0.0000,0.0000,0.0000,0.0000,0.0000,0.0000,0.0000,1.0000,0.0000,0.0000,0.0000,0.0000,0.0000,0.0000,0.0000,0.0000,0.0000,0.0000,0.0000,0.0000,0.0000,0.0000,0.0000,0.0000,0.0000,0.0000,-0.1000,-0.1000,-0.1000,-0.1000,4
0,-1,0,-0.0013,NAN,NAN,0.0310,0.7610,0.3710,0.0000,12.2244,0.0000,0.0000,-0.0610,0.1221,-0.1578,-0.2086,-10.6240,0.0131,-0.0026,-0.0006,0.0000,0.0000,0.0000,0.0000,0.0000,0.0000,0.0000,0.0000,0.0000,0.0000,0.0000,0.0000,0.0000,0.0000,1.0000,0.0000,0.0000,0.0000,0.0000,0.0000,0.0000,0.0000,0.0000,0.0000,0.0000,0.0000,0.0000,0.0000,0.0000,0.0000,0.0000,0.0000,0.0000,-0.1000,-0.1000,-0.1000,-0.1000,4
0,-1,0,-0.0013,NAN,NAN,0.0310,0.7610,0.3710,0.0000,12.2242,0.0000,-0.0610,-0.1221,-0.0610,-0.1172,-0.2685,-10.6169,0.0131,-0.0026,-0.0006,0.0000,0.0000,0.0000,0.0000,0.0000,0.0000,0.0000,0.0000,0.0000,0.0000,0.0000,0.0000,0.0000,0.0000,1.0000,0.0000,0.0000,0.0000,0.0000,0.0000,0.0000,0.0000,0.0000,0.0000,0.0000,0.0000,0.0000,0.0000,0.0000,0.0000,0.0000,0.0000,0.0000,-0.1000,-0.1000,-0.1000,-0.1000,4
0,-1,0,-0.0013,NAN,NAN,0.0410,0.5610,0.3110,0.0000,12.2242,0.0000,-0.0610,-0.1221,-0.0000,-0.1458,-0.2469,-10.5691,0.0131,-0.0026,-0.0006,0.0000,0.0000,0.0000,0.0000,0.0000,0.0000,0.0000,0.0000,0.0000,0.0000,0.0000,0.0000,0.0000,0.0000,1.0000,0.0000,0.0000,0.0000,0.0000,0.0000,0.0000,0.0000,0.0000,0.0000,0.0000,0.0000,0.0000,0.0000,0.0000,0.0000,0.0000,0.0000,0.0000,-0.1000,-0.1000,-0.1000,-0.1000,4
0,-1,0,-0.0013,NAN,NAN,0.0410,0.5610,0.3110,0.0000,12.2237,0.0000,-0.0610,-0.1831,-0.0000,-0.1626,-0.2829,-10.6694,0.0131,-0.0026,-0.0006,0.0000,0.0000,0.0000,0.0000,0.0000,0.0000,0.0000,0.0000,0.0000,0.0000,0.0000,0.0000,0.0000,0.0000,1.0000,0.0000,0.0000,0.0000,0.0000,0.0000,0.0000,0.0000,0.0000,0.0000,0.0000,0.0000,0.0000,0.0000,0.0000,0.0000,0.0000,0.0000,0.0000,-0.1000,-0.1000,-0.1000,-0.1000,4
0,-1,0,-0.0013,NAN,NAN,0.0410,0.5610,0.3110,0.0000,12.2237,0.0000,-0.1221,-0.0610,0.1221,-0.1650,-0.2853,-10.5477,0.0131,-0.0026,-0.0006,0.0000,0.0000,0.0000,0.0000,0.0000,0.0000,0.0000,0.0000,0.0000,0.0000,0.0000,0.0000,0.0000,0.0000,1.0000,0.0000,0.0000,0.0000,0.0000,0.0000,0.0000,0.0000,0.0000,0.0000,0.0000,0.0000,0.0000,0.0000,0.0000,0.0000,0.0000,0.0000,0.0000,-0.1000,-0.1000,-0.1000,-0.1000,4
0,-1,0,-0.0013,NAN,NAN,0.0410,0.5610,0.3110,0.0000,12.2242,0.0000,-0.1221,-0.0610,0.1221,-0.1530,-0.2901,-10.5501,0.0131,-0.0026,-0.0006,0.0000,0.0000,0.0000,0.0000,0.0000,0.0000,0.0000,0.0000,0.0000,0.0000,0.0000,0.0000,0.0000,0.0000,1.0000,0.0000,0.0000,0.0000,0.0000,0.0000,0.0000,0.0000,0.0000,0.0000,0.0000,0.0000,0.0000,0.0000,0.0000,0.0000,0.0000,0.0000,0.0000,-0.1000,-0.1000,-0.1000,-0.1000,4
0,-1,0,-0.0013,NAN,NAN,0.0410,0.5610,0.3110,0.0000,12.2239,0.0000,-0.0610,-0.1221,0.1221,-0.1578,-0.2733,-10.6050,0.0132,-0.0026,-0.0006,0.0000,0.0000,0.0000,0.0000,0.0000,0.0000,0.0000,0.0000,0.0000,0.0000,0.0000,0.0000,0.0000,0.0000,1.0000,0.0000,0.0000,0.0000,0.0000,0.0000,0.0000,0.0000,0.0000,0.0000,0.0000,0.0000,0.0000,0.0000,0.0000,0.0000,0.0000,0.0000,0.0000,-0.1000,-0.1000,-0.1000,-0.1000,4
0,-1,0,-0.0013,NAN,NAN,0.0410,0.5610,0.3110,0.0000,12.2239,0.0000,-0.1831,-0.1221,-0.0000,-0.1674,-0.2661,-10.5906,0.0132,-0.0027,-0.0006,0.0000,0.0000,0.0000,0.0000,0.0000,0.0000,0.0000,0.0000,0.0000,0.0000,0.0000,0.0000,0.0000,0.0000,1.0000,0.0000,0.0000,0.0000,0.0000,0.0000,0.0000,0.0000,0.0000,0.0000,0.0000,0.0000,0.0000,0.0000,0.0000,0.0000,0.0000,0.0000,0.0000,-0.1000,-0.1000,-0.1000,-0.1000,4
0,-1,0,-0.0013,NAN,NAN,0.0410,0.5610,0.3110,0.0000,12.2234,0.0000,-0.0610,-0.3052,0.1831,-0.1602,-0.2877,-10.5835,0.0132,-0.0027,-0.0006,0.0000,0.0000,0.0000,0.0000,0.0000,0.0000,0.0000,0.0000,0.0000,0.0000,0.0000,0.0000,0.0000,0.0000,1.0000,0.0000,0.0000,0.0000,0.0000,0.0000,0.0000,0.0000,0.0000,0.0000,0.0000,0.0000,0.0000,0.0000,0.0000,0.0000,0.0000,0.0000,0.0000,-0.1000,-0.1000,-0.1000,-0.1000,4
0,-1,0,-0.0013,NAN,NAN,0.0410,0.5610,0.3110,0.0000,12.2232,0.0000,-0.0610,-0.1831,-0.0000,-0.1602,-0.2949,-10.5644,0.0132,-0.0027,-0.0006,0.0000,0.0000,0.0000,0.0000,0.0000,0.0000,0.0000,0.0000,0.0000,0.0000,0.0000,0.0000,0.0000,0.0000,1.0000,0.0000,0.0000,0.0000,0.0000,0.0000,0.0000,0.0000,0.0000,0.0000,0.0000,0.0000,0.0000,0.0000,0.0000,0.0000,0.0000,0.0000,0.0000,-0.1000,-0.1000,-0.1000,-0.1000,4
0,-1,0,-0.0013,NAN,NAN,0.0410,0.5610,0.3110,0.0000,12.2232,0.0000,0.0000,0.0000,-0.0000,-0.1148,-0.2613,-10.5739,0.0132,-0.0027,-0.0006,0.0000,0.0000,0.0000,0.0000,0.0000,0.0000,0.0000,0.0000,0.0000,0.0000,0.0000,0.0000,0.0000,0.0000,1.0000,0.0000,0.0000,0.0000,0.0000,0.0000,0.0000,0.0000,0.0000,0.0000,0.0000,0.0000,0.0000,0.0000,0.0000,0.0000,0.0000,0.0000,0.0000,-0.1000,-0.1000,-0.1000,-0.1000,4
0,-1,0,-0.0013,NAN,NAN,0.0410,0.5610,0.3110,0.0000,12.2234,0.0000,-0.0610,-0.1221,0.1831,-0.1387,-0.2949,-10.6073,0.0132,-0.0028,-0.0006,0.0000,0.0000,0.0000,0.0000,0.0000,0.0000,0.0000,0.0000,0.0000,0.0000,0.0000,0.0000,0.0000,0.0000,1.0000,0.0000,0.0000,0.0000,0.0000,0.0000,0.0000,0.0000,0.0000,0.0000,0.0000,0.0000,0.0000,0.0000,0.0000,0.0000,0.0000,0.0000,0.0000,-0.1000,-0.1000,-0.1000,-0.1000,4
0,-1,0,-0.0013,NAN,NAN,0.0410,0.5610,0.3110,0.0000,12.2237,0.0000,-0.1221,0.0000,-0.0000,-0.1243,-0.2901,-10.6336,0.0133,-0.0028,-0.0006,0.0000,0.0000,0.0000,0.0000,0.0000,0.0000,0.0000,0.0000,0.0000,0.0000,0.0000,0.0000,0.0000,0.0000,1.0000,0.0000,0.0000,0.0000,0.0000,0.0000,0.0000,0.0000,0.0000,0.0000,0.0000,0.0000,0.0000,0.0000,0.0000,0.0000,0.0000,0.0000,0.0000,-0.1000,-0.1000,-0.1000,-0.1000,4
0,-1,0,-0.0013,NAN,NAN,0.0410,0.5610,0.3110,0.0000,12.2232,0.0000,-0.2441,-0.2441,0.1831,-0.1578,-0.2829,-10.6240,0.0133,-0.0028,-0.0006,0.0000,0.0000,0.0000,0.0000,0.0000,0.0000,0.0000,0.0000,0.0000,0.0000,0.0000,0.0000,0.0000,0.0000,1.0000,0.0000,0.0000,0.0000,0.0000,0.0000,0.0000,0.0000,0.0000,0.0000,0.0000,0.0000,0.0000,0.0000,0.0000,0.0000,0.0000,0.0000,0.0000,-0.1000,-0.1000,-0.1000,-0.1000,4
0,-1,0,-0.0013,NAN,NAN,0.0410,0.5610,0.3110,0.0000,12.2239,0.0000,-0.0610,-0.1831,-0.0000,-0.1817,-0.2709,-10.6288,0.0133,-0.0028,-0.0006,0.0000,0.0000,0.0000,0.0000,0.0000,0.0000,0.0000,0.0000,0.0000,0.0000,0.0000,0.0000,0.0000,0.0000,1.0000,0.0000,0.0000,0.0000,0.0000,0.0000,0.0000,0.0000,0.0000,0.0000,0.0000,0.0000,0.0000,0.0000,0.0000,0.0000,0.0000,0.0000,0.0000,-0.1000,-0.1000,-0.1000,-0.1000,4
0,-1,0,-0.0013,NAN,NAN,0.0410,0.5610,0.3110,0.0000,12.2237,0.0000,-0.0610,-0.1221,-0.0610,-0.1435,-0.2685,-10.5882,0.0133,-0.0028,-0.0006,0.0000,0.0000,0.0000,0.0000,0.0000,0.0000,0.0000,0.0000,0.0000,0.0000,0.0000,0.0000,0.0000,0.0000,1.0000,0.0000,0.0000,0.0000,0.0000,0.0000,0.0000,0.0000,0.0000,0.0000,0.0000,0.0000,0.0000,0.0000,0.0000,0.0000,0.0000,0.0000,0.0000,-0.1000,-0.1000,-0.1000,-0.1000,4
0,-1,0,-0.0013,NAN,NAN,0.0410,0.5610,0.3110,0.0000,12.2246,0.0000,0.0000,0.0000,-0.0000,-0.1578,-0.2637,-10.6073,0.0133,-0.0029,-0.0006,0.0000,0.0000,0.0000,0.0000,0.0000,0.0000,0.0000,0.0000,0.0000,0.0000,0.0000,0.0000,0.0000,0.0000,1.0000,0.0000,0.0000,0.0000,0.0000,0.0000,0.0000,0.0000,0.0000,0.0000,0.0000,0.0000,0.0000,0.0000,0.0000,0.0000,0.0000,0.0000,0.0000,-0.1000,-0.1000,-0.1000,-0.1000,4
0,-1,0,-0.0013,NAN,NAN,0.0410,0.5610,0.3110,0.0000,12.2244,0.0000,-0.0610,-0.1221,0.1221,-0.1578,-0.2949,-10.5954,0.0133,-0.0029,-0.0006,0.0000,0.0000,0.0000,0.0000,0.0000,0.0000,0.0000,0.0000,0.0000,0.0000,0.0000,0.0000,0.0000,0.0000,1.0000,0.0000,0.0000,0.0000,0.0000,0.0000,0.0000,0.0000,0.0000,0.0000,0.0000,0.0000,0.0000,0.0000,0.0000,0.0000,0.0000,0.0000,0.0000,-0.1000,-0.1000,-0.1000,-0.1000,4
0,-1,0,-0.0013,NAN,NAN,0.0410,0.5610,0.3110,0.0000,12.2239,0.0000,-0.1831,-0.1831,-0.0000,-0.1411,-0.2493,-10.5978,0.0133,-0.0029,-0.0006,0.0000,0.0000,0.0000,0.0000,0.0000,0.0000,0.0000,0.0000,0.0000,0.0000,0.0000,0.0000,0.0000,0.0000,1.0000,0.0000,0.0000,0.0000,0.0000,0.0000,0.0000,0.0000,0.0000,0.0000,0.0000,0.0000,0.0000,0.0000,0.0000,0.0000,0.0000,0.0000,0.0000,-0.1000,-0.1000,-0.1000,-0.1000,4
0,-1,0,-0.0013,NAN,NAN,0.0410,0.5610,0.3110,0.0000,12.2239,0.0000,-0.0610,-0.1831,-0.0000,-0.1530,-0.2901,-10.5739,0.0133,-0.0029,-0.0006,0.0000,0.0000,0.0000,0.0000,0.0000,0.0000,0.0000,0.0000,0.0000,0.0000,0.0000,0.0000,0.0000,0.0000,1.0000,0.0000,0.0000,0.0000,0.0000,0.0000,0.0000,0.0000,0.0000,0.0000,0.0000,0.0000,0.0000,0.0000,0.0000,0.0000,0.0000,0.0000,0.0000,-0.1000,-0.1000,-0.1000,-0.1000,4
0,-1,0,-0.0013,NAN,NAN,0.0410,0.5610,0.3110,0.0000,12.2239,0.0000,-0.0610,-0.2441,0.1221,-0.1482,-0.2517,-10.6002,0.0134,-0.0029,-0.0006,0.0000,0.0000,0.0000,0.0000,0.0000,0.0000,0.0000,0.0000,0.0000,0.0000,0.0000,0.0000,0.0000,0.0000,1.0000,0.0000,0.0000,0.0000,0.0000,0.0000,0.0000,0.0000,0.0000,0.0000,0.0000,0.0000,0.0000,0.0000,0.0000,0.0000,0.0000,0.0000,0.0000,-0.1000,-0.1000,-0.1000,-0.1000,4
0,-1,0,-0.0013,NAN,NAN,0.0410,0.5610,0.3110,0.0000,12.2249,0.0000,0.0000,0.0000,0.1831,-0.1411,-0.2325,-10.5859,0.0134,-0.0030,-0.0006,0.0000,0.0000,0.0000,0.0000,0.0000,0.0000,0.0000,0.0000,0.0000,0.0000,0.0000,0.0000,0.0000,0.0000,1.0000,0.0000,0.0000,0.0000,0.0000,0.0000,0.0000,0.0000,0.0000,0.0000,0.0000,0.0000,0.0000,0.0000,0.0000,0.0000,0.0000,0.0000,0.0000,-0.1000,-0.1000,-0.1000,-0.1000,4
0,-1,0,-0.0013,NAN,NAN,0.0410,0.5610,0.3110,0.0000,12.2261,0.0000,-0.0610,-0.1831,-0.0610,-0.1435,-0.2637,-10.6217,0.0134,-0.0030,-0.0006,0.0000,0.0000,0.0000,0.0000,0.0000,0.0000,0.0000,0.0000,0.0000,0.0000,0.0000,0.0000,0.0000,0.0000,1.0000,0.0000,0.0000,0.0000,0.0000,0.0000,0.0000,0.0000,0.0000,0.0000,0.0000,0.0000,0.0000,0.0000,0.0000,0.0000,0.0000,0.0000,0.0000,-0.1000,-0.1000,-0.1000,-0.1000,4
0,-1,0,-0.0013,NAN,NAN,0.0410,0.5610,0.3110,0.0000,12.2275,0.0000,-0.2441,-0.1831,-0.0000,-0.1721,-0.2301,-10.5524,0.0134,-0.0030,-0.0006,0.0000,0.0000,0.0000,0.0000,0.0000,0.0000,0.0000,0.0000,0.0000,0.0000,0.0000,0.0000,0.0000,0.0000,1.0000,0.0000,0.0000,0.0000,0.0000,0.0000,0.0000,0.0000,0.0000,0.0000,0.0000,0.0000,0.0000,0.0000,0.0000,0.0000,0.0000,0.0000,0.0000,-0.1000,-0.1000,-0.1000,-0.1000,4
0,-1,0,-0.0013,NAN,NAN,0.0410,0.5610,0.3110,0.0000,12.2292,0.0000,-0.0610,-0.2441,-0.0000,-0.1506,-0.2877,-10.6073,0.0134,-0.0030,-0.0006,0.0000,0.0000,0.0000,0.0000,0.0000,0.0000,0.0000,0.0000,0.0000,0.0000,0.0000,0.0000,0.0000,0.0000,1.0000,0.0000,0.0000,0.0000,0.0000,0.0000,0.0000,0.0000,0.0000,0.0000,0.0000,0.0000,0.0000,0.0000,0.0000,0.0000,0.0000,0.0000,0.0000,-0.1000,-0.1000,-0.1000,-0.1000,4
0,-1,0,-0.0013,NAN,NAN,0.0410,0.5610,0.3110,0.0000,12.2297,0.0000,-0.0610,-0.1221,-0.0000,-0.1554,-0.2925,-10.5739,0.0134,-0.0030,-0.0006,0.0000,0.0000,0.0000,0.0000,0.0000,0.0000,0.0000,0.0000,0.0000,0.0000,0.0000,0.0000,0.0000,0.0000,1.0000,0.0000,0.0000,0.0000,0.0000,0.0000,0.0000,0.0000,0.0000,0.0000,0.0000,0.0000,0.0000,0.0000,0.0000,0.0000,0.0000,0.0000,0.0000,-0.1000,-0.1000,-0.1000,-0.1000,4
0,-1,0,-0.0013,NAN,NAN,0.0410,0.5610,0.3110,0.0000,12.2309,0.0000,0.0000,0.0000,0.2441,-0.1172,-0.2349,-10.6026,0.0134,-0.0031,-0.0006,0.0000,0.0000,0.0000,0.0000,0.0000,0.0000,0.0000,0.0000,0.0000,0.0000,0.0000,0.0000,0.0000,0.0000,1.0000,0.0000,0.0000,0.0000,0.0000,0.0000,0.0000,0.0000,0.0000,0.0000,0.0000,0.0000,0.0000,0.0000,0.0000,0.0000,0.0000,0.0000,0.0000,-0.1000,-0.1000,-0.1000,-0.1000,4
0,-1,0,-0.0013,NAN,NAN,0.0410,0.5610,0.3110,0.0000,12.2321,0.0000,-0.0610,-0.1831,-0.0000,-0.1339,-0.2373,-10.5691,0.0134,-0.0031,-0.0006,0.0000,0.0000,0.0000,0.0000,0.0000,0.0000,0.0000,0.0000,0.0000,0.0000,0.0000,0.0000,0.0000,0.0000,1.0000,0.0000,0.0000,0.0000,0.0000,0.0000,0.0000,0.0000,0.0000,0.0000,0.0000,0.0000,0.0000,0.0000,0.0000,0.0000,0.0000,0.0000,0.0000,-0.1000,-0.1000,-0.1000,-0.1000,4
0,-1,0,-0.0013,NAN,NAN,0.0410,0.5610,0.3110,0.0000,12.2329,0.0000,0.0000,0.0000,-0.0000,-0.1387,-0.2733,-10.6384,0.0135,-0.0031,-0.0006,0.0000,0.0000,0.0000,0.0000,0.0000,0.0000,0.0000,0.0000,0.0000,0.0000,0.0000,0.0000,0.0000,0.0000,1.0000,0.0000,0.0000,0.0000,0.0000,0.0000,0.0000,0.0000,0.0000,0.0000,0.0000,0.0000,0.0000,0.0000,0.0000,0.0000,0.0000,0.0000,0.0000,-0.1000,-0.1000,-0.1000,-0.1000,4
0,-1,0,-0.0013,NAN,NAN,0.0410,0.5610,0.3110,0.0000,12.2341,0.0000,-0.1831,-0.1221,-0.0000,-0.1554,-0.2349,-10.5811,0.0135,-0.0031,-0.0006,0.0000,0.0000,0.0000,0.0000,0.0000,0.0000,0.0000,0.0000,0.0000,0.0000,0.0000,0.0000,0.0000,0.0000,1.0000,0.0000,0.0000,0.0000,0.0000,0.0000,0.0000,0.0000,0.0000,0.0000,0.0000,0.0000,0.0000,0.0000,0.0000,0.0000,0.0000,0.0000,0.0000,-0.1000,-0.1000,-0.1000,-0.1000,4
0,-1,0,-0.0013,NAN,NAN,0.0410,0.5610,0.3110,0.0000,12.2348,0.0000,-0.0610,-0.2441,-0.0000,-0.1745,-0.2565,-10.5763,0.0135,-0.0031,-0.0006,0.0000,0.0000,0.0000,0.0000,0.0000,0.0000,0.0000,0.0000,0.0000,0.0000,0.0000,0.0000,0.0000,0.0000,1.0000,0.0000,0.0000,0.0000,0.0000,0.0000,0.0000,0.0000,0.0000,0.0000,0.0000,0.0000,0.0000,0.0000,0.0000,0.0000,0.0000,0.0000,0.0000,-0.1000,-0.1000,-0.1000,-0.1000,4
0,-1,0,-0.0013,NAN,NAN,0.0410,0.5610,0.3110,0.0000,12.2358,0.0000,-0.1831,-0.1831,0.1221,-0.1458,-0.2301,-10.5882,0.0135,-0.0031,-0.0006,0.0000,0.0000,0.0000,0.0000,0.0000,0.0000,0.0000,0.0000,0.0000,0.0000,0.0000,0.0000,0.0000,0.0000,1.0000,0.0000,0.0000,0.0000,0.0000,0.0000,0.0000,0.0000,0.0000,0.0000,0.0000,0.0000,0.0000,0.0000,0.0000,0.0000,0.0000,0.0000,0.0000,-0.1000,-0.1000,-0.1000,-0.1000,4
0,-1,0,-0.0013,NAN,NAN,0.0410,0.5610,0.3110,0.0000,12.2367,0.0000,-0.1831,-0.1831,-0.0000,-0.1387,-0.2661,-10.5930,0.0135,-0.0032,-0.0006,0.0000,0.0000,0.0000,0.0000,0.0000,0.0000,0.0000,0.0000,0.0000,0.0000,0.0000,0.0000,0.0000,0.0000,1.0000,0.0000,0.0000,0.0000,0.0000,0.0000,0.0000,0.0000,0.0000,0.0000,0.0000,0.0000,0.0000,0.0000,0.0000,0.0000,0.0000,0.0000,0.0000,-0.1000,-0.1000,-0.1000,-0.1000,4
0,-1,0,-0.0013,NAN,NAN,0.0410,0.5610,0.3110,0.0000,12.2377,0.0000,-0.0610,-0.1221,0.1221,-0.1506,-0.2421,-10.6360,0.0135,-0.0032,-0.0006,0.0000,0.0000,0.0000,0.0000,0.0000,0.0000,0.0000,0.0000,0.0000,0.0000,0.0000,0.0000,0.0000,0.0000,1.0000,0.0000,0.0000,0.0000,0.0000,0.0000,0.0000,0.0000,0.0000,0.0000,0.0000,0.0000,0.0000,0.0000,0.0000,0.0000,0.0000,0.0000,0.0000,-0.1000,-0.1000,-0.1000,-0.1000,4
0,-1,0,-0.0013,NAN,NAN,0.0410,0.5610,0.3110,0.0000,12.2389,0.0000,-0.1221,-0.0610,0.1221,-0.1626,-0.2613,-10.5644,0.0135,-0.0032,-0.0006,0.0000,0.0000,0.0000,0.0000,0.0000,0.0000,0.0000,0.0000,0.0000,0.0000,0.0000,0.0000,0.0000,0.0000,1.0000,0.0000,0.0000,0.0000,0.0000,0.0000,0.0000,0.0000,0.0000,0.0000,0.0000,0.0000,0.0000,0.0000,0.0000,0.0000,0.0000,0.0000,0.0000,-0.1000,-0.1000,-0.1000,-0.1000,4
0,-1,0,-0.0013,NAN,NAN,0.0410,0.5610,0.3110,0.0000,12.2399,0.0000,-0.0610,-0.1831,0.1221,-0.1698,-0.2637,-10.6050,0.0135,-0.0032,-0.0006,0.0000,0.0000,0.0000,0.0000,0.0000,0.0000,0.0000,0.0000,0.0000,0.0000,0.0000,0.0000,0.0000,0.0000,1.0000,0.0000,0.0000,0.0000,0.0000,0.0000,0.0000,0.0000,0.0000,0.0000,0.0000,0.0000,0.0000,0.0000,0.0000,0.0000,0.0000,0.0000,0.0000,-0.1000,-0.1000,-0.1000,-0.1000,4
0,-1,0,-0.0013,NAN,NAN,0.0410,0.5610,0.3110,0.0000,12.2408,0.0000,-0.0610,-0.1221,0.1221,-0.1458,-0.3069,-10.6097,0.0135,-0.0032,-0.0006,0.0000,0.0000,0.0000,0.0000,0.0000,0.0000,0.0000,0.0000,0.0000,0.0000,0.0000,0.0000,0.0000,0.0000,1.0000,0.0000,0.0000,0.0000,0.0000,0.0000,0.0000,0.0000,0.0000,0.0000,0.0000,0.0000,0.0000,0.0000,0.0000,0.0000,0.0000,0.0000,0.0000,-0.1000,-0.1000,-0.1000,-0.1000,4
0,-1,0,-0.0013,NAN,NAN,0.0410,0.5610,0.3110,0.0000,12.2416,0.0000,-0.1831,-0.1831,-0.0000,-0.1530,-0.2277,-10.6050,0.0135,-0.0033,-0.0006,0.0000,0.0000,0.0000,0.0000,0.0000,0.0000,0.0000,0.0000,0.0000,0.0000,0.0000,0.0000,0.0000,0.0000,1.0000,0.0000,0.0000,0.0000,0.0000,0.0000,0.0000,0.0000,0.0000,0.0000,0.0000,0.0000,0.0000,0.0000,0.0000,0.0000,0.0000,0.0000,0.0000,-0.1000,-0.1000,-0.1000,-0.1000,4
0,-1,0,-0.0013,NAN,NAN,0.0410,0.5610,0.3110,0.0000,12.2425,0.0000,-0.1221,-0.0610,0.1221,-0.1458,-0.2445,-10.6240,0.0135,-0.0033,-0.0006,0.0000,0.0000,0.0000,0.0000,0.0000,0.0000,0.0000,0.0000,0.0000,0.0000,0.0000,0.0000,0.0000,0.0000,1.0000,0.0000,0.0000,0.0000,0.0000,0.0000,0.0000,0.0000,0.0000,0.0000,0.0000,0.0000,0.0000,0.0000,0.0000,0.0000,0.0000,0.0000,0.0000,-0.1000,-0.1000,-0.1000,-0.1000,4
0,-1,0,-0.0013,NAN,NAN,0.0410,0.5610,0.3110,0.0000,12.2440,0.0000,0.0000,-0.1221,0.1831,-0.1530,-0.2493,-10.6073,0.0136,-0.0033,-0.0006,0.0000,0.0000,0.0000,0.0000,0.0000,0.0000,0.0000,0.0000,0.0000,0.0000,0.0000,0.0000,0.0000,0.0000,1.0000,0.0000,0.0000,0.0000,0.0000,0.0000,0.0000,0.0000,0.0000,0.0000,0.0000,0.0000,0.0000,0.0000,0.0000,0.0000,0.0000,0.0000,0.0000,-0.1000,-0.1000,-0.1000,-0.1000,4
0,-1,0,-0.0013,NAN,NAN,0.0410,0.5610,0.3110,0.0000,12.2457,0.0000,-0.0610,-0.1831,-0.0000,-0.1865,-0.2997,-10.5333,0.0136,-0.0033,-0.0006,0.0000,0.0000,0.0000,0.0000,0.0000,0.0000,0.0000,0.0000,0.0000,0.0000,0.0000,0.0000,0.0000,0.0000,1.0000,0.0000,0.0000,0.0000,0.0000,0.0000,0.0000,0.0000,0.0000,0.0000,0.0000,0.0000,0.0000,0.0000,0.0000,0.0000,0.0000,0.0000,0.0000,-0.1000,-0.1000,-0.1000,-0.1000,4
0,-1,0,-0.0013,NAN,NAN,0.0210,-0.0090,-0.0290,0.0000,12.2454,0.0000,-0.0610,-0.1221,0.1831,-0.1482,-0.2781,-10.5954,0.0136,-0.0033,-0.0006,0.0000,0.0000,0.0000,0.0000,0.0000,0.0000,0.0000,0.0000,0.0000,0.0000,0.0000,0.0000,0.0000,0.0000,1.0000,0.0000,0.0000,0.0000,0.0000,0.0000,0.0000,0.0000,0.0000,0.0000,0.0000,0.0000,0.0000,0.0000,0.0000,0.0000,0.0000,0.0000,0.0000,-0.1000,-0.1000,-0.1000,-0.1000,4
0,-1,0,-0.0013,NAN,NAN,0.0210,-0.0090,-0.0290,0.0000,12.2449,0.0000,-0.0610,-0.1221,-0.0000,-0.1650,-0.2613,-10.6121,0.0136,-0.0033,-0.0006,0.0000,0.0000,0.0000,0.0000,0.0000,0.0000,0.0000,0.0000,0.0000,0.0000,0.0000,0.0000,0.0000,0.0000,1.0000,0.0000,0.0000,0.0000,0.0000,0.0000,0.0000,0.0000,0.0000,0.0000,0.0000,0.0000,0.0000,0.0000,0.0000,0.0000,0.0000,0.0000,0.0000,-0.1000,-0.1000,-0.1000,-0.1000,4
0,-1,0,-0.0013,NAN,NAN,0.0210,-0.0090,-0.0290,0.0000,12.2447,0.0000,-0.1831,-0.1221,0.1221,-0.1172,-0.2541,-10.6002,0.0136,-0.0034,-0.0006,0.0000,0.0000,0.0000,0.0000,0.0000,0.0000,0.0000,0.0000,0.0000,0.0000,0.0000,0.0000,0.0000,0.0000,1.0000,0.0000,0.0000,0.0000,0.0000,0.0000,0.0000,0.0000,0.0000,0.0000,0.0000,0.0000,0.0000,0.0000,0.0000,0.0000,0.0000,0.0000,0.0000,-0.1000,-0.1000,-0.1000,-0.1000,4
0,-1,0,-0.0013,NAN,NAN,0.0210,-0.0090,-0.0290,0.0000,12.2442,0.0000,0.0000,0.0000,-0.0610,-0.1554,-0.3093,-10.5381,0.0136,-0.0034,-0.0006,0.0000,0.0000,0.0000,0.0000,0.0000,0.0000,0.0000,0.0000,0.0000,0.0000,0.0000,0.0000,0.0000,0.0000,1.0000,0.0000,0.0000,0.0000,0.0000,0.0000,0.0000,0.0000,0.0000,0.0000,0.0000,0.0000,0.0000,0.0000,0.0000,0.0000,0.0000,0.0000,0.0000,-0.1000,-0.1000,-0.1000,-0.1000,4
0,-1,0,-0.0013,NAN,NAN,0.0210,-0.0090,-0.0290,0.0000,12.2445,0.0000,-0.1831,-0.1221,-0.0000,-0.1530,-0.2469,-10.5691,0.0136,-0.0034,-0.0006,0.0000,0.0000,0.0000,0.0000,0.0000,0.0000,0.0000,0.0000,0.0000,0.0000,0.0000,0.0000,0.0000,0.0000,1.0000,0.0000,0.0000,0.0000,0.0000,0.0000,0.0000,0.0000,0.0000,0.0000,0.0000,0.0000,0.0000,0.0000,0.0000,0.0000,0.0000,0.0000,0.0000,-0.1000,-0.1000,-0.1000,-0.1000,4
0,-1,0,-0.0013,NAN,NAN,0.0210,-0.0090,-0.0290,0.0000,12.2442,0.0000,0.0000,-0.0610,-0.0000,-0.1626,-0.2541,-10.6002,0.0137,-0.0034,-0.0006,0.0000,0.0000,0.0000,0.0000,0.0000,0.0000,0.0000,0.0000,0.0000,0.0000,0.0000,0.0000,0.0000,0.0000,1.0000,0.0000,0.0000,0.0000,0.0000,0.0000,0.0000,0.0000,0.0000,0.0000,0.0000,0.0000,0.0000,0.0000,0.0000,0.0000,0.0000,0.0000,0.0000,-0.1000,-0.1000,-0.1000,-0.1000,4
0,-1,0,-0.0013,NAN,NAN,0.0210,-0.0090,-0.0290,0.0000,12.2442,0.0000,0.0000,0.0000,-0.0000,-0.1506,-0.2206,-10.6073,0.0137,-0.0035,-0.0006,0.0000,0.0000,0.0000,0.0000,0.0000,0.0000,0.0000,0.0000,0.0000,0.0000,0.0000,0.0000,0.0000,0.0000,1.0000,0.0000,0.0000,0.0000,0.0000,0.0000,0.0000,0.0000,0.0000,0.0000,0.0000,0.0000,0.0000,0.0000,0.0000,0.0000,0.0000,0.0000,0.0000,-0.1000,-0.1000,-0.1000,-0.1000,4
0,-1,0,-0.0013,NAN,NAN,0.0210,-0.0090,-0.0290,0.0000,12.2449,0.0000,-0.0610,-0.1831,0.2441,-0.1889,-0.2829,-10.5572,0.0137,-0.0035,-0.0006,0.0000,0.0000,0.0000,0.0000,0.0000,0.0000,0.0000,0.0000,0.0000,0.0000,0.0000,0.0000,0.0000,0.0000,1.0000,0.0000,0.0000,0.0000,0.0000,0.0000,0.0000,0.0000,0.0000,0.0000,0.0000,0.0000,0.0000,0.0000,0.0000,0.0000,0.0000,0.0000,0.0000,-0.1000,-0.1000,-0.1000,-0.1000,4
0,-1,0,-0.0013,NAN,NAN,0.0210,-0.0090,-0.0290,0.0000,12.2454,0.0000,-0.1831,-0.1221,0.1221,-0.1458,-0.2853,-10.6002,0.0137,-0.0035,-0.0006,0.0000,0.0000,0.0000,0.0000,0.0000,0.0000,0.0000,0.0000,0.0000,0.0000,0.0000,0.0000,0.0000,0.0000,1.0000,0.0000,0.0000,0.0000,0.0000,0.0000,0.0000,0.0000,0.0000,0.0000,0.0000,0.0000,0.0000,0.0000,0.0000,0.0000,0.0000,0.0000,0.0000,-0.1000,-0.1000,-0.1000,-0.1000,4
0,-1,0,-0.0013,NAN,NAN,0.0210,-0.0090,-0.0290,0.0000,12.2454,0.0000,-0.0610,-0.1831,0.1831,-0.1626,-0.2253,-10.6097,0.0137,-0.0035,-0.0006,0.0000,0.0000,0.0000,0.0000,0.0000,0.0000,0.0000,0.0000,0.0000,0.0000,0.0000,0.0000,0.0000,0.0000,1.0000,0.0000,0.0000,0.0000,0.0000,0.0000,0.0000,0.0000,0.0000,0.0000,0.0000,0.0000,0.0000,0.0000,0.0000,0.0000,0.0000,0.0000,0.0000,-0.1000,-0.1000,-0.1000,-0.1000,4
0,-1,0,-0.0013,NAN,NAN,0.0210,-0.0090,-0.0290,0.0000,12.2454,0.0000,-0.0610,-0.1221,0.1221,-0.1578,-0.2397,-10.5357,0.0138,-0.0035,-0.0005,0.0000,0.0000,0.0000,0.0000,0.0000,0.0000,0.0000,0.0000,0.0000,0.0000,0.0000,0.0000,0.0000,0.0000,1.0000,0.0000,0.0000,0.0000,0.0000,0.0000,0.0000,0.0000,0.0000,0.0000,0.0000,0.0000,0.0000,0.0000,0.0000,0.0000,0.0000,0.0000,0.0000,-0.1000,-0.1000,-0.1000,-0.1000,4
0,-1,0,-0.0013,NAN,NAN,0.0210,-0.0090,-0.0290,0.0000,12.2452,0.0000,-0.0610,-0.1831,-0.0000,-0.1530,-0.3045,-10.5286,0.0138,-0.0036,-0.0005,0.0000,0.0000,0.0000,0.0000,0.0000,0.0000,0.0000,0.0000,0.0000,0.0000,0.0000,0.0000,0.0000,0.0000,1.0000,0.0000,0.0000,0.0000,0.0000,0.0000,0.0000,0.0000,0.0000,0.0000,0.0000,0.0000,0.0000,0.0000,0.0000,0.0000,0.0000,0.0000,0.0000,-0.1000,-0.1000,-0.1000,-0.1000,4
0,-1,0,-0.0013,NAN,NAN,0.0210,-0.0090,-0.0290,0.0000,12.2454,0.0000,-0.1831,-0.1221,-0.0000,-0.1435,-0.2565,-10.5763,0.0138,-0.0036,-0.0005,0.0000,0.0000,0.0000,0.0000,0.0000,0.0000,0.0000,0.0000,0.0000,0.0000,0.0000,0.0000,0.0000,0.0000,1.0000,0.0000,0.0000,0.0000,0.0000,0.0000,0.0000,0.0000,0.0000,0.0000,0.0000,0.0000,0.0000,0.0000,0.0000,0.0000,0.0000,0.0000,0.0000,-0.1000,-0.1000,-0.1000,-0.1000,4
0,-1,0,-0.0013,NAN,NAN,0.0210,-0.0090,-0.0290,0.0000,12.2452,0.0000,0.0000,0.0000,-0.0000,-0.1578,-0.2541,-10.5882,0.0138,-0.0036,-0.0006,0.0000,0.0000,0.0000,0.0000,0.0000,0.0000,0.0000,0.0000,0.0000,0.0000,0.0000,0.0000,0.0000,0.0000,1.0000,0.0000,0.0000,0.0000,0.0000,0.0000,0.0000,0.0000,0.0000,0.0000,0.0000,0.0000,0.0000,0.0000,0.0000,0.0000,0.0000,0.0000,0.0000,-0.1000,-0.1000,-0.1000,-0.1000,4
0,-1,0,-0.0013,NAN,NAN,0.0210,-0.0090,-0.0290,0.0000,12.2452,0.0000,0.0000,-0.1831,0.1221,-0.1554,-0.2517,-10.6002,0.0138,-0.0036,-0.0005,0.0000,0.0000,0.0000,0.0000,0.0000,0.0000,0.0000,0.0000,0.0000,0.0000,0.0000,0.0000,0.0000,0.0000,1.0000,0.0000,0.0000,0.0000,0.0000,0.0000,0.0000,0.0000,0.0000,0.0000,0.0000,0.0000,0.0000,0.0000,0.0000,0.0000,0.0000,0.0000,0.0000,-0.1000,-0.1000,-0.1000,-0.1000,4
0,-1,0,-0.0013,NAN,NAN,0.0210,-0.0090,-0.0290,0.0000,12.2447,0.0000,-0.0610,-0.1221,-0.0000,-0.1458,-0.2445,-10.6002,0.0138,-0.0036,-0.0006,0.0000,0.0000,0.0000,0.0000,0.0000,0.0000,0.0000,0.0000,0.0000,0.0000,0.0000,0.0000,0.0000,0.0000,1.0000,0.0000,0.0000,0.0000,0.0000,0.0000,0.0000,0.0000,0.0000,0.0000,0.0000,0.0000,0.0000,0.0000,0.0000,0.0000,0.0000,0.0000,0.0000,-0.1000,-0.1000,-0.1000,-0.1000,4
0,-1,0,-0.0013,NAN,NAN,0.0210,-0.0090,-0.0290,0.0000,12.2449,0.0000,-0.1831,-0.0610,0.1221,-0.1387,-0.2589,-10.5357,0.0138,-0.0036,-0.0005,0.0000,0.0000,0.0000,0.0000,0.0000,0.0000,0.0000,0.0000,0.0000,0.0000,0.0000,0.0000,0.0000,0.0000,1.0000,0.0000,0.0000,0.0000,0.0000,0.0000,0.0000,0.0000,0.0000,0.0000,0.0000,0.0000,0.0000,0.0000,0.0000,0.0000,0.0000,0.0000,0.0000,-0.1000,-0.1000,-0.1000,-0.1000,4
0,-1,0,-0.0013,NAN,NAN,0.0210,-0.0090,-0.0290,0.0000,12.2449,0.0000,-0.0610,-0.1831,0.1221,-0.1769,-0.2541,-10.5859,0.0138,-0.0037,-0.0005,0.0000,0.0000,0.0000,0.0000,0.0000,0.0000,0.0000,0.0000,0.0000,0.0000,0.0000,0.0000,0.0000,0.0000,1.0000,0.0000,0.0000,0.0000,0.0000,0.0000,0.0000,0.0000,0.0000,0.0000,0.0000,0.0000,0.0000,0.0000,0.0000,0.0000,0.0000,0.0000,0.0000,-0.1000,-0.1000,-0.1000,-0.1000,4
0,-1,0,-0.0013,NAN,NAN,0.0210,-0.0090,-0.0290,0.0000,12.2447,0.0000,0.0000,-0.1831,0.1831,-0.1698,-0.2805,-10.6885,0.0139,-0.0037,-0.0005,0.0000,0.0000,0.0000,0.0000,0.0000,0.0000,0.0000,0.0000,0.0000,0.0000,0.0000,0.0000,0.0000,0.0000,1.0000,0.0000,0.0000,0.0000,0.0000,0.0000,0.0000,0.0000,0.0000,0.0000,0.0000,0.0000,0.0000,0.0000,0.0000,0.0000,0.0000,0.0000,0.0000,-0.1000,-0.1000,-0.1000,-0.1000,4
0,-1,0,-0.0013,NAN,NAN,0.0210,-0.0090,-0.0290,0.0000,12.2442,0.0000,-0.0610,-0.1221,-0.0000,-0.1363,-0.2709,-10.5357,0.0139,-0.0037,-0.0005,0.0000,0.0000,0.0000,0.0000,0.0000,0.0000,0.0000,0.0000,0.0000,0.0000,0.0000,0.0000,0.0000,0.0000,1.0000,0.0000,0.0000,0.0000,0.0000,0.0000,0.0000,0.0000,0.0000,0.0000,0.0000,0.0000,0.0000,0.0000,0.0000,0.0000,0.0000,0.0000,0.0000,-0.1000,-0.1000,-0.1000,-0.1000,4
0,-1,0,-0.0013,NAN,NAN,0.0210,-0.0090,-0.0290,0.0000,12.2457,0.0000,0.0000,0.0000,0.1221,-0.1387,-0.2901,-10.6002,0.0139,-0.0037,-0.0005,0.0000,0.0000,0.0000,0.0000,0.0000,0.0000,0.0000,0.0000,0.0000,0.0000,0.0000,0.0000,0.0000,0.0000,1.0000,0.0000,0.0000,0.0000,0.0000,0.0000,0.0000,0.0000,0.0000,0.0000,0.0000,0.0000,0.0000,0.0000,0.0000,0.0000,0.0000,0.0000,0.0000,-0.1000,-0.1000,-0.1000,-0.1000,4
0,-1,0,-0.0013,NAN,NAN,0.0210,-0.0090,-0.0290,0.0000,12.2459,0.0000,-0.1221,-0.0610,-0.0610,-0.1578,-0.2349,-10.5835,0.0139,-0.0037,-0.0005,0.0000,0.0000,0.0000,0.0000,0.0000,0.0000,0.0000,0.0000,0.0000,0.0000,0.0000,0.0000,0.0000,0.0000,1.0000,0.0000,0.0000,0.0000,0.0000,0.0000,0.0000,0.0000,0.0000,0.0000,0.0000,0.0000,0.0000,0.0000,0.0000,0.0000,0.0000,0.0000,0.0000,-0.1000,-0.1000,-0.1000,-0.1000,4
0,-1,0,-0.0013,NAN,NAN,0.0210,-0.0090,-0.0290,0.0000,12.2457,0.0000,-0.1831,-0.1831,-0.0000,-0.1363,-0.2589,-10.6957,0.0139,-0.0037,-0.0005,0.0000,0.0000,0.0000,0.0000,0.0000,0.0000,0.0000,0.0000,0.0000,0.0000,0.0000,0.0000,0.0000,0.0000,1.0000,0.0000,0.0000,0.0000,0.0000,0.0000,0.0000,0.0000,0.0000,0.0000,0.0000,0.0000,0.0000,0.0000,0.0000,0.0000,0.0000,0.0000,0.0000,-0.1000,-0.1000,-0.1000,-0.1000,4
0,-1,0,-0.0013,NAN,NAN,0.0210,-0.0090,-0.0290,0.0000,12.2457,0.0000,-0.0610,-0.1221,0.1221,-0.1769,-0.2661,-10.5978,0.0139,-0.0038,-0.0005,0.0000,0.0000,0.0000,0.0000,0.0000,0.0000,0.0000,0.0000,0.0000,0.0000,0.0000,0.0000,0.0000,0.0000,1.0000,0.0000,0.0000,0.0000,0.0000,0.0000,0.0000,0.0000,0.0000,0.0000,0.0000,0.0000,0.0000,0.0000,0.0000,0.0000,0.0000,0.0000,0.0000,-0.1000,-0.1000,-0.1000,-0.1000,4
0,-1,0,-0.0013,NAN,NAN,0.0210,-0.0090,-0.0290,0.0000,12.2459,0.0000,0.0000,0.0610,0.1221,-0.1148,-0.2709,-10.6384,0.0139,-0.0038,-0.0005,0.0000,0.0000,0.0000,0.0000,0.0000,0.0000,0.0000,0.0000,0.0000,0.0000,0.0000,0.0000,0.0000,0.0000,1.0000,0.0000,0.0000,0.0000,0.0000,0.0000,0.0000,0.0000,0.0000,0.0000,0.0000,0.0000,0.0000,0.0000,0.0000,0.0000,0.0000,0.0000,0.0000,-0.1000,-0.1000,-0.1000,-0.1000,4
0,-1,0,-0.0013,NAN,NAN,0.0210,-0.0090,-0.0290,0.0000,12.2466,0.0000,0.0000,-0.0610,-0.0000,-0.1745,-0.2733,-10.6002,0.0139,-0.0038,-0.0005,0.0000,0.0000,0.0000,0.0000,0.0000,0.0000,0.0000,0.0000,0.0000,0.0000,0.0000,0.0000,0.0000,0.0000,1.0000,0.0000,0.0000,0.0000,0.0000,0.0000,0.0000,0.0000,0.0000,0.0000,0.0000,0.0000,0.0000,0.0000,0.0000,0.0000,0.0000,0.0000,0.0000,-0.1000,-0.1000,-0.1000,-0.1000,4
0,-1,0,-0.0013,NAN,NAN,0.0210,-0.0090,-0.0290,0.0000,12.2466,0.0000,0.1221,0.0000,0.1221,-0.1339,-0.2565,-10.5882,0.0140,-0.0038,-0.0005,0.0000,0.0000,0.0000,0.0000,0.0000,0.0000,0.0000,0.0000,0.0000,0.0000,0.0000,0.0000,0.0000,0.0000,1.0000,0.0000,0.0000,0.0000,0.0000,0.0000,0.0000,0.0000,0.0000,0.0000,0.0000,0.0000,0.0000,0.0000,0.0000,0.0000,0.0000,0.0000,0.0000,-0.1000,-0.1000,-0.1000,-0.1000,4
0,-1,0,-0.0013,NAN,NAN,0.0210,-0.0090,-0.0290,0.0000,12.2464,0.0000,0.0000,0.0000,-0.0610,-0.1865,-0.2613,-10.5668,0.0140,-0.0038,-0.0005,0.0000,0.0000,0.0000,0.0000,0.0000,0.0000,0.0000,0.0000,0.0000,0.0000,0.0000,0.0000,0.0000,0.0000,1.0000,0.0000,0.0000,0.0000,0.0000,0.0000,0.0000,0.0000,0.0000,0.0000,0.0000,0.0000,0.0000,0.0000,0.0000,0.0000,0.0000,0.0000,0.0000,-0.1000,-0.1000,-0.1000,-0.1000,4
0,-1,0,-0.0013,NAN,NAN,0.0210,-0.0090,-0.0290,0.0000,12.2462,0.0000,-0.0610,-0.1221,0.1221,-0.1435,-0.2613,-10.6670,0.0140,-0.0038,-0.0005,0.0000,0.0000,0.0000,0.0000,0.0000,0.0000,0.0000,0.0000,0.0000,0.0000,0.0000,0.0000,0.0000,0.0000,1.0000,0.0000,0.0000,0.0000,0.0000,0.0000,0.0000,0.0000,0.0000,0.0000,0.0000,0.0000,0.0000,0.0000,0.0000,0.0000,0.0000,0.0000,0.0000,-0.1000,-0.1000,-0.1000,-0.1000,4
0,-1,0,-0.0013,NAN,NAN,0.0210,-0.0090,-0.0290,0.0000,12.2462,0.0000,-0.1831,-0.0610,0.1221,-0.0837,-0.2206,-10.5906,0.0140,-0.0038,-0.0005,0.0000,0.0000,0.0000,0.0000,0.0000,0.0000,0.0000,0.0000,0.0000,0.0000,0.0000,0.0000,0.0000,0.0000,1.0000,0.0000,0.0000,0.0000,0.0000,0.0000,0.0000,0.0000,0.0000,0.0000,0.0000,0.0000,0.0000,0.0000,0.0000,0.0000,0.0000,0.0000,0.0000,-0.1000,-0.1000,-0.1000,-0.1000,4
0,-1,0,-0.0013,NAN,NAN,0.0210,-0.0090,-0.0290,0.0000,12.2466,0.0000,0.0610,-0.1221,0.1831,-0.1172,-0.2373,-10.6097,0.0140,-0.0038,-0.0005,0.0000,0.0000,0.0000,0.0000,0.0000,0.0000,0.0000,0.0000,0.0000,0.0000,0.0000,0.0000,0.0000,0.0000,1.0000,0.0000,0.0000,0.0000,0.0000,0.0000,0.0000,0.0000,0.0000,0.0000,0.0000,0.0000,0.0000,0.0000,0.0000,0.0000,0.0000,0.0000,0.0000,-0.1000,-0.1000,-0.1000,-0.1000,4
0,-1,0,-0.0013,NAN,NAN,0.0210,-0.0090,-0.0290,0.0000,12.2471,0.0000,-0.1831,-0.1831,-0.0610,-0.1148,-0.2733,-10.6408,0.0140,-0.0039,-0.0005,0.0000,0.0000,0.0000,0.0000,0.0000,0.0000,0.0000,0.0000,0.0000,0.0000,0.0000,0.0000,0.0000,0.0000,1.0000,0.0000,0.0000,0.0000,0.0000,0.0000,0.0000,0.0000,0.0000,0.0000,0.0000,0.0000,0.0000,0.0000,0.0000,0.0000,0.0000,0.0000,0.0000,-0.1000,-0.1000,-0.1000,-0.1000,4
0,-1,0,-0.0013,NAN,NAN,0.0210,-0.0090,-0.0290,0.0000,12.2474,0.0000,-0.0610,-0.1831,0.1221,-0.1458,-0.2853,-10.5715,0.0140,-0.0039,-0.0005,0.0000,0.0000,0.0000,0.0000,0.0000,0.0000,0.0000,0.0000,0.0000,0.0000,0.0000,0.0000,0.0000,0.0000,1.0000,0.0000,0.0000,0.0000,0.0000,0.0000,0.0000,0.0000,0.0000,0.0000,0.0000,0.0000,0.0000,0.0000,0.0000,0.0000,0.0000,0.0000,0.0000,-0.1000,-0.1000,-0.1000,-0.1000,4
0,-1,0,-0.0013,NAN,NAN,0.0210,-0.0090,-0.0290,0.0000,12.2471,0.0000,-0.1831,-0.1221,-0.0000,-0.1291,-0.2637,-10.5978,0.0140,-0.0039,-0.0005,0.0000,0.0000,0.0000,0.0000,0.0000,0.0000,0.0000,0.0000,0.0000,0.0000,0.0000,0.0000,0.0000,0.0000,1.0000,0.0000,0.0000,0.0000,0.0000,0.0000,0.0000,0.0000,0.0000,0.0000,0.0000,0.0000,0.0000,0.0000,0.0000,0.0000,0.0000,0.0000,0.0000,-0.1000,-0.1000,-0.1000,-0.1000,4
0,-1,0,-0.0013,NAN,NAN,0.0210,-0.0090,-0.0290,0.0000,12.2474,0.0000,-0.0610,-0.1221,-0.0610,-0.1554,-0.2709,-10.6288,0.0141,-0.0039,-0.0005,0.0000,0.0000,0.0000,0.0000,0.0000,0.0000,0.0000,0.0000,0.0000,0.0000,0.0000,0.0000,0.0000,0.0000,1.0000,0.0000,0.0000,0.0000,0.0000,0.0000,0.0000,0.0000,0.0000,0.0000,0.0000,0.0000,0.0000,0.0000,0.0000,0.0000,0.0000,0.0000,0.0000,-0.1000,-0.1000,-0.1000,-0.1000,4
0,-1,0,-0.0013,NAN,NAN,0.0210,-0.0090,-0.0290,0.0000,12.2474,0.0000,0.0610,0.0000,-0.0000,-0.1267,-0.2517,-10.5811,0.0141,-0.0039,-0.0005,0.0000,0.0000,0.0000,0.0000,0.0000,0.0000,0.0000,0.0000,0.0000,0.0000,0.0000,0.0000,0.0000,0.0000,1.0000,0.0000,0.0000,0.0000,0.0000,0.0000,0.0000,0.0000,0.0000,0.0000,0.0000,0.0000,0.0000,0.0000,0.0000,0.0000,0.0000,0.0000,0.0000,-0.1000,-0.1000,-0.1000,-0.1000,4
0,-1,0,-0.0013,NAN,NAN,0.0210,-0.0090,-0.0290,0.0000,12.2476,0.0000,-0.0610,-0.1221,-0.0000,-0.1554,-0.2517,-10.5787,0.0141,-0.0039,-0.0005,0.0000,0.0000,0.0000,0.0000,0.0000,0.0000,0.0000,0.0000,0.0000,0.0000,0.0000,0.0000,0.0000,0.0000,1.0000,0.0000,0.0000,0.0000,0.0000,0.0000,0.0000,0.0000,0.0000,0.0000,0.0000,0.0000,0.0000,0.0000,0.0000,0.0000,0.0000,0.0000,0.0000,-0.1000,-0.1000,-0.1000,-0.1000,4
0,-1,0,-0.0013,NAN,NAN,0.0210,-0.0090,-0.0290,0.0000,12.2481,0.0000,-0.0610,-0.3052,-0.0000,-0.1458,-0.2541,-10.6073,0.0141,-0.0040,-0.0005,0.0000,0.0000,0.0000,0.0000,0.0000,0.0000,0.0000,0.0000,0.0000,0.0000,0.0000,0.0000,0.0000,0.0000,1.0000,0.0000,0.0000,0.0000,0.0000,0.0000,0.0000,0.0000,0.0000,0.0000,0.0000,0.0000,0.0000,0.0000,0.0000,0.0000,0.0000,0.0000,0.0000,-0.1000,-0.1000,-0.1000,-0.1000,4
0,-1,0,-0.0013,NAN,NAN,0.0310,0.0210,-0.0190,0.0000,12.2478,0.0000,-0.1831,-0.1221,-0.0000,-0.1530,-0.2853,-10.5906,0.0141,-0.0040,-0.0005,0.0000,0.0000,0.0000,0.0000,0.0000,0.0000,0.0000,0.0000,0.0000,0.0000,0.0000,0.0000,0.0000,0.0000,1.0000,0.0000,0.0000,0.0000,0.0000,0.0000,0.0000,0.0000,0.0000,0.0000,0.0000,0.0000,0.0000,0.0000,0.0000,0.0000,0.0000,0.0000,0.0000,-0.1000,-0.1000,-0.1000,-0.1000,4
0,-1,0,-0.0013,NAN,NAN,0.0310,0.0210,-0.0190,0.0000,12.2474,0.0000,-0.0610,-0.1221,0.1221,-0.1387,-0.2925,-10.6527,0.0141,-0.0040,-0.0005,0.0000,0.0000,0.0000,0.0000,0.0000,0.0000,0.0000,0.0000,0.0000,0.0000,0.0000,0.0000,0.0000,0.0000,1.0000,0.0000,0.0000,0.0000,0.0000,0.0000,0.0000,0.0000,0.0000,0.0000,0.0000,0.0000,0.0000,0.0000,0.0000,0.0000,0.0000,0.0000,0.0000,-0.1000,-0.1000,-0.1000,-0.1000,4
0,-1,0,-0.0013,NAN,NAN,0.0310,0.0210,-0.0190,0.0000,12.2464,0.0000,0.0000,-0.0610,-0.0000,-0.1817,-0.2517,-10.6097,0.0142,-0.0040,-0.0005,0.0000,0.0000,0.0000,0.0000,0.0000,0.0000,0.0000,0.0000,0.0000,0.0000,0.0000,0.0000,0.0000,0.0000,1.0000,0.0000,0.0000,0.0000,0.0000,0.0000,0.0000,0.0000,0.0000,0.0000,0.0000,0.0000,0.0000,0.0000,0.0000,0.0000,0.0000,0.0000,0.0000,-0.1000,-0.1000,-0.1000,-0.1000,4
0,-1,0,-0.0013,NAN,NAN,0.0310,0.0210,-0.0190,0.0000,12.2464,0.0000,0.0000,0.0000,-0.0000,-0.1482,-0.2853,-10.5572,0.0142,-0.0040,-0.0005,0.0000,0.0000,0.0000,0.0000,0.0000,0.0000,0.0000,0.0000,0.0000,0.0000,0.0000,0.0000,0.0000,0.0000,1.0000,0.0000,0.0000,0.0000,0.0000,0.0000,0.0000,0.0000,0.0000,0.0000,0.0000,0.0000,0.0000,0.0000,0.0000,0.0000,0.0000,0.0000,0.0000,-0.1000,-0.1000,-0.1000,-0.1000,4
0,-1,0,-0.0013,NAN,NAN,0.0310,0.0210,-0.0190,0.0000,12.2466,0.0000,-0.1831,-0.3052,-0.0000,-0.1148,-0.2805,-10.5644,0.0142,-0.0041,-0.0005,0.0000,0.0000,0.0000,0.0000,0.0000,0.0000,0.0000,0.0000,0.0000,0.0000,0.0000,0.0000,0.0000,0.0000,1.0000,0.0000,0.0000,0.0000,0.0000,0.0000,0.0000,0.0000,0.0000,0.0000,0.0000,0.0000,0.0000,0.0000,0.0000,0.0000,0.0000,0.0000,0.0000,-0.1000,-0.1000,-0.1000,-0.1000,4
0,-1,0,-0.0013,NAN,NAN,0.0310,0.0210,-0.0190,0.0000,12.2466,0.0000,0.0000,-0.1221,-0.0000,-0.1243,-0.2493,-10.6360,0.0142,-0.0041,-0.0006,0.0000,0.0000,0.0000,0.0000,0.0000,0.0000,0.0000,0.0000,0.0000,0.0000,0.0000,0.0000,0.0000,0.0000,1.0000,0.0000,0.0000,0.0000,0.0000,0.0000,0.0000,0.0000,0.0000,0.0000,0.0000,0.0000,0.0000,0.0000,0.0000,0.0000,0.0000,0.0000,0.0000,-0.1000,-0.1000,-0.1000,-0.1000,4
0,-1,0,-0.0013,NAN,NAN,0.0310,0.0210,-0.0190,0.0000,12.2462,0.0000,-0.0610,-0.2441,-0.0610,-0.1458,-0.2877,-10.5978,0.0142,-0.0041,-0.0006,0.0000,0.0000,0.0000,0.0000,0.0000,0.0000,0.0000,0.0000,0.0000,0.0000,0.0000,0.0000,0.0000,0.0000,1.0000,0.0000,0.0000,0.0000,0.0000,0.0000,0.0000,0.0000,0.0000,0.0000,0.0000,0.0000,0.0000,0.0000,0.0000,0.0000,0.0000,0.0000,0.0000,-0.1000,-0.1000,-0.1000,-0.1000,4
0,-1,0,-0.0013,NAN,NAN,0.0310,0.0210,-0.0190,0.0000,12.2462,0.0000,-0.1221,-0.0610,-0.0610,-0.1937,-0.2541,-10.6073,0.0142,-0.0041,-0.0006,0.0000,0.0000,0.0000,0.0000,0.0000,0.0000,0.0000,0.0000,0.0000,0.0000,0.0000,0.0000,0.0000,0.0000,1.0000,0.0000,0.0000,0.0000,0.0000,0.0000,0.0000,0.0000,0.0000,0.0000,0.0000,0.0000,0.0000,0.0000,0.0000,0.0000,0.0000,0.0000,0.0000,-0.1000,-0.1000,-0.1000,-0.1000,4
0,-1,0,-0.0013,NAN,NAN,0.0310,0.0210,-0.0190,0.0000,12.2462,0.0000,-0.1831,-0.1221,-0.0610,-0.1674,-0.2709,-10.6288,0.0142,-0.0041,-0.0006,0.0000,0.0000,0.0000,0.0000,0.0000,0.0000,0.0000,0.0000,0.0000,0.0000,0.0000,0.0000,0.0000,0.0000,1.0000,0.0000,0.0000,0.0000,0.0000,0.0000,0.0000,0.0000,0.0000,0.0000,0.0000,0.0000,0.0000,0.0000,0.0000,0.0000,0.0000,0.0000,0.0000,-0.1000,-0.1000,-0.1000,-0.1000,4
0,-1,0,-0.0013,NAN,NAN,0.0310,0.0210,-0.0190,0.0000,12.2459,0.0000,-0.0610,-0.2441,-0.0610,-0.1626,-0.2925,-10.6575,0.0142,-0.0042,-0.0006,0.0000,0.0000,0.0000,0.0000,0.0000,0.0000,0.0000,0.0000,0.0000,0.0000,0.0000,0.0000,0.0000,0.0000,1.0000,0.0000,0.0000,0.0000,0.0000,0.0000,0.0000,0.0000,0.0000,0.0000,0.0000,0.0000,0.0000,0.0000,0.0000,0.0000,0.0000,0.0000,0.0000,-0.1000,-0.1000,-0.1000,-0.1000,4
0,-1,0,-0.0013,NAN,NAN,0.0310,0.0210,-0.0190,0.0000,12.2459,0.0000,-0.1221,-0.0610,-0.0000,-0.1435,-0.2373,-10.5572,0.0143,-0.0042,-0.0006,0.0000,0.0000,0.0000,0.0000,0.0000,0.0000,0.0000,0.0000,0.0000,0.0000,0.0000,0.0000,0.0000,0.0000,1.0000,0.0000,0.0000,0.0000,0.0000,0.0000,0.0000,0.0000,0.0000,0.0000,0.0000,0.0000,0.0000,0.0000,0.0000,0.0000,0.0000,0.0000,0.0000,-0.1000,-0.1000,-0.1000,-0.1000,4
0,-1,0,-0.0013,NAN,NAN,0.0310,0.0210,-0.0190,0.0000,12.2462,0.0000,-0.0610,-0.1831,-0.0000,-0.1435,-0.2493,-10.6026,0.0143,-0.0042,-0.0006,0.0000,0.0000,0.0000,0.0000,0.0000,0.0000,0.0000,0.0000,0.0000,0.0000,0.0000,0.0000,0.0000,0.0000,1.0000,0.0000,0.0000,0.0000,0.0000,0.0000,0.0000,0.0000,0.0000,0.0000,0.0000,0.0000,0.0000,0.0000,0.0000,0.0000,0.0000,0.0000,0.0000,-0.1000,-0.1000,-0.1000,-0.1000,4
0,-1,0,-0.0013,NAN,NAN,0.0310,0.0210,-0.0190,0.0000,12.2464,0.0000,-0.0610,-0.2441,-0.0000,-0.1650,-0.2853,-10.5572,0.0143,-0.0042,-0.0006,0.0000,0.0000,0.0000,0.0000,0.0000,0.0000,0.0000,0.0000,0.0000,0.0000,0.0000,0.0000,0.0000,0.0000,1.0000,0.0000,0.0000,0.0000,0.0000,0.0000,0.0000,0.0000,0.0000,0.0000,0.0000,0.0000,0.0000,0.0000,0.0000,0.0000,0.0000,0.0000,0.0000,-0.1000,-0.1000,-0.1000,-0.1000,4
0,-1,0,-0.0013,NAN,NAN,0.0310,0.0210,-0.0190,0.0000,12.2462,0.0000,-0.0610,-0.1831,0.1221,-0.1626,-0.2901,-10.6097,0.0143,-0.0042,-0.0006,0.0000,0.0000,0.0000,0.0000,0.0000,0.0000,0.0000,0.0000,0.0000,0.0000,0.0000,0.0000,0.0000,0.0000,1.0000,0.0000,0.0000,0.0000,0.0000,0.0000,0.0000,0.0000,0.0000,0.0000,0.0000,0.0000,0.0000,0.0000,0.0000,0.0000,0.0000,0.0000,0.0000,-0.1000,-0.1000,-0.1000,-0.1000,4
0,-1,0,-0.0013,NAN,NAN,0.0310,0.0210,-0.0190,0.0000,12.2459,0.0000,-0.1831,-0.1831,-0.0000,-0.1435,-0.2541,-10.5668,0.0143,-0.0043,-0.0006,0.0000,0.0000,0.0000,0.0000,0.0000,0.0000,0.0000,0.0000,0.0000,0.0000,0.0000,0.0000,0.0000,0.0000,1.0000,0.0000,0.0000,0.0000,0.0000,0.0000,0.0000,0.0000,0.0000,0.0000,0.0000,0.0000,0.0000,0.0000,0.0000,0.0000,0.0000,0.0000,0.0000,-0.1000,-0.1000,-0.1000,-0.1000,4
0,-1,0,-0.0013,NAN,NAN,0.0310,0.0210,-0.0190,0.0000,12.2464,0.0000,-0.0610,-0.2441,-0.0610,-0.1602,-0.2325,-10.6575,0.0143,-0.0043,-0.0006,0.0000,0.0000,0.0000,0.0000,0.0000,0.0000,0.0000,0.0000,0.0000,0.0000,0.0000,0.0000,0.0000,0.0000,1.0000,0.0000,0.0000,0.0000,0.0000,0.0000,0.0000,0.0000,0.0000,0.0000,0.0000,0.0000,0.0000,0.0000,0.0000,0.0000,0.0000,0.0000,0.0000,-0.1000,-0.1000,-0.1000,-0.1000,4
0,-1,0,-0.0013,NAN,NAN,0.0310,0.0210,-0.0190,0.0000,12.2469,0.0000,-0.0610,-0.1831,-0.0000,-0.1435,-0.2493,-10.5596,0.0143,-0.0043,-0.0006,0.0000,0.0000,0.0000,0.0000,0.0000,0.0000,0.0000,0.0000,0.0000,0.0000,0.0000,0.0000,0.0000,0.0000,1.0000,0.0000,0.0000,0.0000,0.0000,0.0000,0.0000,0.0000,0.0000,0.0000,0.0000,0.0000,0.0000,0.0000,0.0000,0.0000,0.0000,0.0000,0.0000,-0.1000,-0.1000,-0.1000,-0.1000,4
0,-1,0,-0.0013,NAN,NAN,0.0310,0.0210,-0.0190,0.0000,12.2471,0.0000,-0.1831,-0.1831,-0.0000,-0.1578,-0.2661,-10.6050,0.0143,-0.0043,-0.0006,0.0000,0.0000,0.0000,0.0000,0.0000,0.0000,0.0000,0.0000,0.0000,0.0000,0.0000,0.0000,0.0000,0.0000,1.0000,0.0000,0.0000,0.0000,0.0000,0.0000,0.0000,0.0000,0.0000,0.0000,0.0000,0.0000,0.0000,0.0000,0.0000,0.0000,0.0000,0.0000,0.0000,-0.1000,-0.1000,-0.1000,-0.1000,4
0,-1,0,-0.0013,NAN,NAN,0.0310,0.0210,-0.0190,0.0000,12.2471,0.0000,-0.0610,-0.1221,0.2441,-0.1291,-0.2709,-10.5501,0.0143,-0.0043,-0.0006,0.0000,0.0000,0.0000,0.0000,0.0000,0.0000,0.0000,0.0000,0.0000,0.0000,0.0000,0.0000,0.0000,0.0000,1.0000,0.0000,0.0000,0.0000,0.0000,0.0000,0.0000,0.0000,0.0000,0.0000,0.0000,0.0000,0.0000,0.0000,0.0000,0.0000,0.0000,0.0000,0.0000,-0.1000,-0.1000,-0.1000,-0.1000,4
0,-1,0,-0.0013,NAN,NAN,0.0310,0.0210,-0.0190,0.0000,12.2466,0.0000,-0.0610,-0.2441,0.1221,-0.1626,-0.2853,-10.6145,0.0144,-0.0044,-0.0006,0.0000,0.0000,0.0000,0.0000,0.0000,0.0000,0.0000,0.0000,0.0000,0.0000,0.0000,0.0000,0.0000,0.0000,1.0000,0.0000,0.0000,0.0000,0.0000,0.0000,0.0000,0.0000,0.0000,0.0000,0.0000,0.0000,0.0000,0.0000,0.0000,0.0000,0.0000,0.0000,0.0000,-0.1000,-0.1000,-0.1000,-0.1000,4
0,-1,0,-0.0013,NAN,NAN,0.0310,0.0210,-0.0190,0.0000,12.2471,0.0000,-0.1831,-0.1221,-0.0000,-0.1626,-0.2685,-10.5572,0.0144,-0.0044,-0.0006,0.0000,0.0000,0.0000,0.0000,0.0000,0.0000,0.0000,0.0000,0.0000,0.0000,0.0000,0.0000,0.0000,0.0000,1.0000,0.0000,0.0000,0.0000,0.0000,0.0000,0.0000,0.0000,0.0000,0.0000,0.0000,0.0000,0.0000,0.0000,0.0000,0.0000,0.0000,0.0000,0.0000,-0.1000,-0.1000,-0.1000,-0.1000,4
0,-1,0,-0.0013,NAN,NAN,0.0310,0.0210,-0.0190,0.0000,12.2471,0.0000,0.0000,0.0000,-0.0000,-0.1315,-0.2541,-10.6503,0.0144,-0.0044,-0.0006,0.0000,0.0000,0.0000,0.0000,0.0000,0.0000,0.0000,0.0000,0.0000,0.0000,0.0000,0.0000,0.0000,0.0000,1.0000,0.0000,0.0000,0.0000,0.0000,0.0000,0.0000,0.0000,0.0000,0.0000,0.0000,0.0000,0.0000,0.0000,0.0000,0.0000,0.0000,0.0000,0.0000,-0.1000,-0.1000,-0.1000,-0.1000,4
0,-1,0,-0.0013,NAN,NAN,0.0310,0.0210,-0.0190,0.0000,12.2471,0.0000,-0.0610,-0.1831,-0.0610,-0.1554,-0.3045,-10.6479,0.0144,-0.0044,-0.0006,0.0000,0.0000,0.0000,0.0000,0.0000,0.0000,0.0000,0.0000,0.0000,0.0000,0.0000,0.0000,0.0000,0.0000,1.0000,0.0000,0.0000,0.0000,0.0000,0.0000,0.0000,0.0000,0.0000,0.0000,0.0000,0.0000,0.0000,0.0000,0.0000,0.0000,0.0000,0.0000,0.0000,-0.1000,-0.1000,-0.1000,-0.1000,4
0,-1,0,-0.0013,NAN,NAN,0.0310,0.0210,-0.0190,0.0000,12.2474,0.0000,-0.0610,-0.1221,-0.0000,-0.1482,-0.2301,-10.5930,0.0144,-0.0044,-0.0006,0.0000,0.0000,0.0000,0.0000,0.0000,0.0000,0.0000,0.0000,0.0000,0.0000,0.0000,0.0000,0.0000,0.0000,1.0000,0.0000,0.0000,0.0000,0.0000,0.0000,0.0000,0.0000,0.0000,0.0000,0.0000,0.0000,0.0000,0.0000,0.0000,0.0000,0.0000,0.0000,0.0000,-0.1000,-0.1000,-0.1000,-0.1000,4
0,-1,0,-0.0013,NAN,NAN,0.0310,0.0210,-0.0190,0.0000,12.2469,0.0000,-0.0610,-0.1221,0.1831,-0.0980,-0.2733,-10.6193,0.0144,-0.0044,-0.0006,0.0000,0.0000,0.0000,0.0000,0.0000,0.0000,0.0000,0.0000,0.0000,0.0000,0.0000,0.0000,0.0000,0.0000,1.0000,0.0000,0.0000,0.0000,0.0000,0.0000,0.0000,0.0000,0.0000,0.0000,0.0000,0.0000,0.0000,0.0000,0.0000,0.0000,0.0000,0.0000,0.0000,-0.1000,-0.1000,-0.1000,-0.1000,4
0,-1,0,-0.0013,NAN,NAN,0.0310,0.0210,-0.0190,0.0000,12.2476,0.0000,0.0000,0.0000,0.1221,-0.1124,-0.2589,-10.6121,0.0144,-0.0044,-0.0006,0.0000,0.0000,0.0000,0.0000,0.0000,0.0000,0.0000,0.0000,0.0000,0.0000,0.0000,0.0000,0.0000,0.0000,1.0000,0.0000,0.0000,0.0000,0.0000,0.0000,0.0000,0.0000,0.0000,0.0000,0.0000,0.0000,0.0000,0.0000,0.0000,0.0000,0.0000,0.0000,0.0000,-0.1000,-0.1000,-0.1000,-0.1000,4
