loop_index, counter, last_step_ns, T_ref, theta_ref, phi_ref, uwind, vwind, wwind, rho, rpm1, rpm2, rpm3, rpm4,v_batt,alt,gyro_roll,gyro_pitch,gyro_yaw,accel_X,accel_Y,accel_Z,roll,pitch,yaw,X,Y,Z,Xdot,Ydot,Zdot,x0,y0,z0,e.xbee_time,xbee_time_received_ns,xbee_x,xbee_y,xbee_z,xbee_qw,xbee_qx,xbee_qy,xbee_qz,sp_roll,sp_pitch,sp_yaw,sp_X,sp_Y,sp_Z,sp_Xdot,sp_Ydot,sp_Zdot,u_roll,u_pitch,u_yaw,u_X,u_Y,u_Z,mot_1,mot_2,mot_3,mot_4,flight mode
1,160,693868869123,-10.5676,-0.1069,0.0716,0.0410,0.0610,0.0010,1.1655,23.4375,23.4375,23.4375,23.4375,12.2442,0.0000,-0.1831,-0.1221,-0.0610,-0.1363,-0.1774,-10.5811,0.0177,-0.0105,-0.0019,0.0000,0.0000,0.0000,0.0000,0.0000,0.0000,0.0000,0.0000,0.0000,0.0000,0.0000,0.0000,0.0000,0.0000,1.0000,0.0000,0.0000,0.0000,-0.1069,0.0716,0.0000,0.0000,0.0000,0.0000,0.0000,0.0000,-0.0000,-0.0000,0.0000,0.0000,0.0000,0.0000,-0.5752,0.0025,0.0025,0.0025,0.0025,4
2,161,693927691838,-10.5676,-0.1069,0.0716,0.0210,0.0310,0.0010,1.1655,23.4375,23.4375,23.4375,23.4375,12.2437,0.0000,-0.2441,-0.1221,0.1221,-0.1745,-0.1870,-10.5453,0.0178,-0.0106,-0.0019,0.0000,0.0000,0.0000,0.0000,0.0000,0.0000,0.0000,0.0000,0.0000,0.0000,0.0000,0.0000,0.0000,0.0000,1.0000,0.0000,0.0000,0.0000,-0.1069,0.0716,0.0000,0.0000,0.0000,0.0000,0.0000,0.0000,-0.0000,-0.0020,0.0020,0.0011,0.0000,0.0000,-0.5752,0.0025,0.0025,0.0025,0.0025,4
3,162,693955518041,-10.5630,-0.1094,0.0738,0.0210,0.0310,0.0010,1.1655,23.4375,23.4375,23.4375,23.4375,12.2428,0.0000,-0.2441,-0.1221,-0.0000,-0.1339,-0.2230,-10.6264,0.0178,-0.0106,-0.0020,0.0000,0.0000,0.0000,0.0000,0.0000,0.0000,0.0000,0.0000,0.0000,0.0000,0.0000,0.0000,0.0000,0.0000,1.0000,0.0000,0.0000,0.0000,-0.1094,0.0738,0.0000,0.0000,0.0000,0.0000,0.0000,0.0000,-0.0000,-0.0040,0.0040,0.0018,0.0000,0.0000,-0.5759,0.0025,0.0025,0.0025,0.0025,4
4,163,693959976271,-10.5630,-0.1094,0.0738,0.0210,0.0310,0.0010,1.1655,23.4375,23.4375,23.4375,23.4375,12.2413,0.0000,-0.1831,-0.1221,-0.0610,-0.1387,-0.1966,-10.5811,0.0178,-0.0106,-0.0020,0.0000,0.0000,0.0000,0.0000,0.0000,0.0000,0.0000,0.0000,0.0000,0.0000,0.0000,0.0000,0.0000,0.0000,1.0000,0.0000,0.0000,0.0000,-0.1094,0.0738,0.0000,0.0000,0.0000,0.0000,0.0000,0.0000,-0.0000,-0.0060,0.0060,0.0025,0.0000,0.0000,-0.5759,0.0025,0.0025,0.0025,0.0025,4
5,164,693995111053,-10.5630,-0.1094,0.0738,0.0210,0.0310,0.0010,1.1655,23.4375,23.4375,23.4375,23.4375,12.2399,0.0000,-0.0610,-0.1221,-0.0000,-0.2032,-0.1822,-10.6121,0.0178,-0.0106,-0.0020,0.0000,0.0000,0.0000,0.0000,0.0000,0.0000,0.0000,0.0000,0.0000,0.0000,0.0000,0.0000,0.0000,0.0000,1.0000,0.0000,0.0000,0.0000,-0.1094,0.0738,0.0000,0.0000,0.0000,0.0000,0.0000,0.0000,-0.0000,-0.0080,0.0080,0.0031,0.0000,0.0000,-0.5759,0.0025,0.0025,0.0025,0.0025,4
6,165,694052719462,-10.5630,-0.1094,0.0738,0.0210,0.0310,0.0010,1.1655,23.4375,23.4375,23.4375,23.4375,12.2387,0.0000,-0.0610,-0.1221,-0.0000,-0.1387,-0.2421,-10.5763,0.0178,-0.0107,-0.0020,0.0000,0.0000,0.0000,0.0000,0.0000,0.0000,0.0000,0.0000,0.0000,0.0000,0.0000,0.0000,0.0000,0.0000,1.0000,0.0000,0.0000,0.0000,-0.1094,0.0738,0.0000,0.0000,0.0000,0.0000,0.0000,0.0000,-0.0000,-0.0100,0.0100,0.0036,0.0000,0.0000,-0.5759,0.0025,0.0025,0.0025,0.0025,4
7,166,694056383125,-10.5630,-0.1094,0.0738,0.0210,0.0310,0.0010,1.1655,23.4375,23.4375,23.4375,23.4375,12.2377,0.0000,-0.0610,-0.1221,0.1221,-0.1506,-0.2253,-10.5978,0.0178,-0.0107,-0.0020,0.0000,0.0000,0.0000,0.0000,0.0000,0.0000,0.0000,0.0000,0.0000,0.0000,0.0000,0.0000,0.0000,0.0000,1.0000,0.0000,0.0000,0.0000,-0.1094,0.0738,0.0000,0.0000,0.0000,0.0000,0.0000,0.0000,-0.0000,-0.0120,0.0120,0.0038,0.0000,0.0000,-0.5759,0.0025,0.0025,0.0025,0.0025,4
8,167,694061384995,-10.5630,-0.1094,0.0738,0.0210,0.0310,0.0010,1.1655,23.4375,23.4375,23.4375,23.4375,12.2367,0.0000,-0.1221,-0.0610,-0.0610,-0.1626,-0.2014,-10.5763,0.0178,-0.0107,-0.0020,0.0000,0.0000,0.0000,0.0000,0.0000,0.0000,0.0000,0.0000,0.0000,0.0000,0.0000,0.0000,0.0000,0.0000,1.0000,0.0000,0.0000,0.0000,-0.1094,0.0738,0.0000,0.0000,0.0000,0.0000,0.0000,0.0000,-0.0000,-0.0140,0.0140,0.0042,0.0000,0.0000,-0.5759,0.0025,0.0025,0.0025,0.0025,4
9,168,694066628709,-10.5630,-0.1094,0.0738,0.0210,0.0310,0.0010,1.1655,23.4375,23.4375,23.4375,23.4375,12.2358,0.0000,-0.0610,-0.1831,-0.0000,-0.1100,-0.1942,-10.5859,0.0178,-0.0107,-0.0020,0.0000,0.0000,0.0000,0.0000,0.0000,0.0000,0.0000,0.0000,0.0000,0.0000,0.0000,0.0000,0.0000,0.0000,1.0000,0.0000,0.0000,0.0000,-0.1094,0.0738,0.0000,0.0000,0.0000,0.0000,0.0000,0.0000,-0.0000,-0.0160,0.0160,0.0044,0.0000,0.0000,-0.5759,0.0025,0.0025,0.0025,0.0025,4
10,169,694071226422,-10.5630,-0.1094,0.0738,0.0210,0.0310,0.0010,1.1655,23.4375,23.4375,23.4375,23.4375,12.2348,0.0000,-0.0610,-0.2441,-0.0000,-0.1506,-0.2014,-10.6312,0.0178,-0.0107,-0.0020,0.0000,0.0000,0.0000,0.0000,0.0000,0.0000,0.0000,0.0000,0.0000,0.0000,0.0000,0.0000,0.0000,0.0000,1.0000,0.0000,0.0000,0.0000,-0.1094,0.0738,0.0000,0.0000,0.0000,0.0000,0.0000,0.0000,-0.0000,-0.0180,0.0180,0.0046,0.0000,0.0000,-0.5759,0.0025,0.0025,0.0025,0.0025,4
11,170,694076193171,-10.5630,-0.1094,0.0738,0.0210,0.0310,0.0010,1.1655,23.4375,23.4375,23.4375,23.4375,12.2333,0.0000,-0.0610,-0.1221,-0.0000,-0.1554,-0.2206,-10.6384,0.0178,-0.0108,-0.0020,0.0000,0.0000,0.0000,0.0000,0.0000,0.0000,0.0000,0.0000,0.0000,0.0000,0.0000,0.0000,0.0000,0.0000,1.0000,0.0000,0.0000,0.0000,-0.1094,0.0738,0.0000,0.0000,0.0000,0.0000,0.0000,0.0000,-0.0000,-0.0200,0.0196,0.0047,0.0000,0.0000,-0.5759,0.0025,0.0025,0.0025,0.0025,4
12,171,694081698978,-10.5630,-0.1094,0.0738,0.0210,0.0310,0.0010,1.1655,23.4375,23.4375,23.4375,23.4375,12.2326,0.0000,-0.0610,-0.2441,-0.0000,-0.1626,-0.1726,-10.5978,0.0179,-0.0108,-0.0020,0.0000,0.0000,0.0000,0.0000,0.0000,0.0000,0.0000,0.0000,0.0000,0.0000,0.0000,0.0000,0.0000,0.0000,1.0000,0.0000,0.0000,0.0000,-0.1094,0.0738,0.0000,0.0000,0.0000,0.0000,0.0000,0.0000,-0.0000,-0.0220,0.0208,0.0049,0.0000,0.0000,-0.5759,0.0025,0.0025,0.0025,0.0025,4
13,172,694086478126,-10.5630,-0.1094,0.0738,0.0210,0.0310,0.0010,1.1655,23.4375,23.4375,23.4375,23.4375,12.2309,0.0000,-0.0610,-0.2441,-0.0000,-0.1745,-0.2014,-10.6622,0.0179,-0.0108,-0.0020,0.0000,0.0000,0.0000,0.0000,0.0000,0.0000,0.0000,0.0000,0.0000,0.0000,0.0000,0.0000,0.0000,0.0000,1.0000,0.0000,0.0000,0.0000,-0.1094,0.0738,0.0000,0.0000,0.0000,0.0000,0.0000,0.0000,-0.0000,-0.0240,0.0216,0.0050,0.0000,0.0000,-0.5759,0.0025,0.0025,0.0025,0.0025,4
14,173,694091389215,-10.5630,-0.1094,0.0738,0.0210,0.0310,0.0010,1.1655,23.4375,23.4375,23.4375,23.4375,12.2312,0.0000,0.0000,0.0000,-0.0000,-0.1458,-0.2230,-10.5668,0.0179,-0.0108,-0.0020,0.0000,0.0000,0.0000,0.0000,0.0000,0.0000,0.0000,0.0000,0.0000,0.0000,0.0000,0.0000,0.0000,0.0000,1.0000,0.0000,0.0000,0.0000,-0.1094,0.0738,0.0000,0.0000,0.0000,0.0000,0.0000,0.0000,-0.0000,-0.0260,0.0221,0.0051,0.0000,0.0000,-0.5759,0.0025,0.0025,0.0025,0.0025,4
15,174,694096306596,-10.5630,-0.1094,0.0738,0.0210,0.0310,0.0010,1.1655,23.4375,23.4375,23.4375,23.4375,12.2304,0.0000,-0.0610,-0.1221,-0.0610,-0.1506,-0.2253,-10.5763,0.0179,-0.0108,-0.0020,0.0000,0.0000,0.0000,0.0000,0.0000,0.0000,0.0000,0.0000,0.0000,0.0000,0.0000,0.0000,0.0000,0.0000,1.0000,0.0000,0.0000,0.0000,-0.1094,0.0738,0.0000,0.0000,0.0000,0.0000,0.0000,0.0000,-0.0000,-0.0280,0.0225,0.0053,0.0000,0.0000,-0.5759,0.0025,0.0025,0.0025,0.0025,4
16,175,694101645298,-10.5630,-0.1094,0.0738,0.0210,0.0310,0.0010,1.1655,23.4375,23.4375,23.4375,23.4375,12.2292,0.0000,0.0000,0.0000,-0.0000,-0.1602,-0.1654,-10.6169,0.0179,-0.0108,-0.0020,0.0000,0.0000,0.0000,0.0000,0.0000,0.0000,0.0000,0.0000,0.0000,0.0000,0.0000,0.0000,0.0000,0.0000,1.0000,0.0000,0.0000,0.0000,-0.1094,0.0738,0.0000,0.0000,0.0000,0.0000,0.0000,0.0000,-0.0000,-0.0300,0.0227,0.0053,0.0000,0.0000,-0.5759,0.0025,0.0025,0.0025,0.0025,4
17,176,694106224638,-10.5630,-0.1094,0.0738,0.0210,0.0310,0.0010,1.1655,23.4375,23.4375,23.4375,23.4375,12.2283,0.0000,0.0000,0.0000,0.1221,-0.1745,-0.1870,-10.6145,0.0179,-0.0108,-0.0020,0.0000,0.0000,0.0000,0.0000,0.0000,0.0000,0.0000,0.0000,0.0000,0.0000,0.0000,0.0000,0.0000,0.0000,1.0000,0.0000,0.0000,0.0000,-0.1094,0.0738,0.0000,0.0000,0.0000,0.0000,0.0000,0.0000,-0.0000,-0.0315,0.0228,0.0053,0.0000,0.0000,-0.5759,0.0025,0.0025,0.0025,0.0025,4
18,177,694111218759,-10.5630,-0.1094,0.0738,0.0210,0.0310,0.0010,1.1655,23.4375,23.4375,23.4375,23.4375,12.2268,0.0000,-0.0610,-0.1831,0.1221,-0.1267,-0.1942,-10.6479,0.0179,-0.0108,-0.0020,0.0000,0.0000,0.0000,0.0000,0.0000,0.0000,0.0000,0.0000,0.0000,0.0000,0.0000,0.0000,0.0000,0.0000,1.0000,0.0000,0.0000,0.0000,-0.1094,0.0738,0.0000,0.0000,0.0000,0.0000,0.0000,0.0000,-0.0000,-0.0325,0.0230,0.0053,0.0000,0.0000,-0.5759,0.0025,0.0025,0.0025,0.0025,4
19,178,694116256207,-10.5630,-0.1094,0.0738,0.0210,0.0310,0.0010,1.1655,23.4375,23.4375,23.4375,23.4375,12.2251,0.0000,-0.0610,-0.1831,-0.0000,-0.1674,-0.1654,-10.5882,0.0179,-0.0108,-0.0020,0.0000,0.0000,0.0000,0.0000,0.0000,0.0000,0.0000,0.0000,0.0000,0.0000,0.0000,0.0000,0.0000,0.0000,1.0000,0.0000,0.0000,0.0000,-0.1094,0.0738,0.0000,0.0000,0.0000,0.0000,0.0000,0.0000,-0.0000,-0.0332,0.0231,0.0053,0.0000,0.0000,-0.5759,0.0025,0.0025,0.0025,0.0025,4
20,179,694121593827,-10.5630,-0.1094,0.0738,0.0410,0.0610,0.0010,1.1655,23.4375,23.4375,23.4375,23.4375,12.2242,0.0000,-0.0610,-0.1831,-0.0000,-0.1578,-0.1966,-10.6073,0.0179,-0.0109,-0.0020,0.0000,0.0000,0.0000,0.0000,0.0000,0.0000,0.0000,0.0000,0.0000,0.0000,0.0000,0.0000,0.0000,0.0000,1.0000,0.0000,0.0000,0.0000,-0.1094,0.0738,0.0000,0.0000,0.0000,0.0000,0.0000,0.0000,-0.0000,-0.0337,0.0232,0.0054,0.0000,0.0000,-0.5759,0.0025,0.0025,0.0025,0.0025,4
21,180,694126186331,-10.5630,-0.1094,0.0738,0.0410,0.0610,0.0010,1.1655,23.4375,23.4375,23.4375,23.4375,12.2237,0.0000,-0.0610,-0.1831,-0.0000,-0.1435,-0.1726,-10.5596,0.0179,-0.0109,-0.0020,0.0000,0.0000,0.0000,0.0000,0.0000,0.0000,0.0000,0.0000,0.0000,0.0000,0.0000,0.0000,0.0000,0.0000,1.0000,0.0000,0.0000,0.0000,-0.1094,0.0738,0.0000,0.0000,0.0000,0.0000,0.0000,0.0000,-0.0000,-0.0340,0.0232,0.0054,0.0000,0.0000,-0.5759,0.0025,0.0025,0.0025,0.0025,4
22,181,694131153372,-10.5630,-0.1094,0.0738,0.0410,0.0610,0.0010,1.1655,23.4375,23.4375,23.4375,23.4375,12.2232,0.0000,0.0000,-0.1831,-0.0000,-0.1721,-0.2349,-10.6050,0.0179,-0.0109,-0.0020,0.0000,0.0000,0.0000,0.0000,0.0000,0.0000,0.0000,0.0000,0.0000,0.0000,0.0000,0.0000,0.0000,0.0000,1.0000,0.0000,0.0000,0.0000,-0.1094,0.0738,0.0000,0.0000,0.0000,0.0000,0.0000,0.0000,-0.0000,-0.0343,0.0233,0.0055,0.0000,0.0000,-0.5759,0.0025,0.0025,0.0025,0.0025,4
23,182,694155532509,-10.5676,-0.1069,0.0716,0.0410,0.0610,0.0010,1.1655,23.4375,23.4375,23.4375,23.4375,12.2229,0.0000,-0.1221,-0.0610,-0.0000,-0.1315,-0.1582,-10.6217,0.0179,-0.0109,-0.0020,0.0000,0.0000,0.0000,0.0000,0.0000,0.0000,0.0000,0.0000,0.0000,0.0000,0.0000,0.0000,0.0000,0.0000,1.0000,0.0000,0.0000,0.0000,-0.1069,0.0716,0.0000,0.0000,0.0000,0.0000,0.0000,0.0000,-0.0000,-0.0195,0.0099,0.0056,0.0000,0.0000,-0.5752,0.0025,0.0025,0.0025,0.0025,4
24,183,694159322824,-10.5676,-0.1069,0.0716,0.0410,0.0610,0.0010,1.1655,23.4375,23.4375,23.4375,23.4375,12.2234,0.0000,-0.0610,-0.1221,-0.0000,-0.1745,-0.1846,-10.5954,0.0179,-0.0109,-0.0021,0.0000,0.0000,0.0000,0.0000,0.0000,0.0000,0.0000,0.0000,0.0000,0.0000,0.0000,0.0000,0.0000,0.0000,1.0000,0.0000,0.0000,0.0000,-0.1069,0.0716,0.0000,0.0000,0.0000,0.0000,0.0000,0.0000,-0.0000,-0.0242,0.0141,0.0056,0.0000,0.0000,-0.5752,0.0025,0.0025,0.0025,0.0025,4
25,184,694161432141,-10.5676,-0.1069,0.0716,0.0410,0.0610,0.0010,1.1655,23.4375,23.4375,23.4375,23.4375,12.2237,0.0000,-0.1221,-0.0610,-0.1221,-0.1387,-0.1894,-10.5954,0.0179,-0.0109,-0.0021,0.0000,0.0000,0.0000,0.0000,0.0000,0.0000,0.0000,0.0000,0.0000,0.0000,0.0000,0.0000,0.0000,0.0000,1.0000,0.0000,0.0000,0.0000,-0.1069,0.0716,0.0000,0.0000,0.0000,0.0000,0.0000,0.0000,-0.0000,-0.0272,0.0168,0.0059,0.0000,0.0000,-0.5752,0.0025,0.0025,0.0025,0.0025,4
26,185,694166214122,-10.5676,-0.1069,0.0716,0.0410,0.0610,0.0010,1.1655,23.4375,23.4375,23.4375,23.4375,12.2239,0.0000,0.0000,-0.1221,-0.0000,-0.1602,-0.2038,-10.6169,0.0179,-0.0110,-0.0021,0.0000,0.0000,0.0000,0.0000,0.0000,0.0000,0.0000,0.0000,0.0000,0.0000,0.0000,0.0000,0.0000,0.0000,1.0000,0.0000,0.0000,0.0000,-0.1069,0.0716,0.0000,0.0000,0.0000,0.0000,0.0000,0.0000,-0.0000,-0.0294,0.0187,0.0059,0.0000,0.0000,-0.5752,0.0025,0.0025,0.0025,0.0025,4
27,186,694196902673,-10.5676,-0.1069,0.0716,0.0410,0.0610,0.0010,1.1655,23.4375,23.4375,23.4375,23.4375,12.2234,0.0000,0.0000,0.0000,0.1221,-0.1267,-0.1774,-10.6336,0.0179,-0.0110,-0.0021,0.0000,0.0000,0.0000,0.0000,0.0000,0.0000,0.0000,0.0000,0.0000,0.0000,0.0000,0.0000,0.0000,0.0000,1.0000,0.0000,0.0000,0.0000,-0.1069,0.0716,0.0000,0.0000,0.0000,0.0000,0.0000,0.0000,-0.0000,-0.0309,0.0199,0.0058,0.0000,0.0000,-0.5752,0.0025,0.0025,0.0025,0.0025,4
28,187,694201395523,-10.5676,-0.1069,0.0716,0.0410,0.0610,0.0010,1.1655,23.4375,23.4375,23.4375,23.4375,12.2232,0.0000,0.0000,-0.0610,-0.0610,-0.1530,-0.2110,-10.5620,0.0179,-0.0110,-0.0021,0.0000,0.0000,0.0000,0.0000,0.0000,0.0000,0.0000,0.0000,0.0000,0.0000,0.0000,0.0000,0.0000,0.0000,1.0000,0.0000,0.0000,0.0000,-0.1069,0.0716,0.0000,0.0000,0.0000,0.0000,0.0000,0.0000,-0.0000,-0.0319,0.0209,0.0059,0.0000,0.0000,-0.5752,0.0025,0.0025,0.0025,0.0025,4
29,188,694207331567,-10.5676,-0.1069,0.0716,0.0410,0.0610,0.0010,1.1655,23.4375,23.4375,23.4375,23.4375,12.2229,0.0000,0.0610,0.0000,-0.0000,-0.1602,-0.2110,-10.5739,0.0179,-0.0110,-0.0021,0.0000,0.0000,0.0000,0.0000,0.0000,0.0000,0.0000,0.0000,0.0000,0.0000,0.0000,0.0000,0.0000,0.0000,1.0000,0.0000,0.0000,0.0000,-0.1069,0.0716,0.0000,0.0000,0.0000,0.0000,0.0000,0.0000,-0.0000,-0.0327,0.0216,0.0059,0.0000,0.0000,-0.5752,0.0025,0.0025,0.0025,0.0025,4
30,189,694211249407,-10.5676,-0.1069,0.0716,0.0410,0.0610,0.0010,1.1655,23.4375,23.4375,23.4375,23.4375,12.2227,0.0000,0.0000,-0.0610,0.1221,-0.1387,-0.1798,-10.6336,0.0180,-0.0110,-0.0021,0.0000,0.0000,0.0000,0.0000,0.0000,0.0000,0.0000,0.0000,0.0000,0.0000,0.0000,0.0000,0.0000,0.0000,1.0000,0.0000,0.0000,0.0000,-0.1069,0.0716,0.0000,0.0000,0.0000,0.0000,0.0000,0.0000,-0.0000,-0.0332,0.0219,0.0058,0.0000,0.0000,-0.5752,0.0025,0.0025,0.0025,0.0025,4
31,190,694216179202,-10.5676,-0.1069,0.0716,0.0410,0.0610,0.0010,1.1655,23.4375,23.4375,23.4375,23.4375,12.2229,0.0000,0.0000,0.0000,-0.0000,-0.0932,-0.1966,-10.5835,0.0180,-0.0110,-0.0021,0.0000,0.0000,0.0000,0.0000,0.0000,0.0000,0.0000,0.0000,0.0000,0.0000,0.0000,0.0000,0.0000,0.0000,1.0000,0.0000,0.0000,0.0000,-0.1069,0.0716,0.0000,0.0000,0.0000,0.0000,0.0000,0.0000,-0.0000,-0.0335,0.0221,0.0059,0.0000,0.0000,-0.5752,0.0025,0.0025,0.0025,0.0025,4
32,191,694221514697,-10.5676,-0.1069,0.0716,0.0410,0.0610,0.0010,1.1655,23.4375,23.4375,23.4375,23.4375,12.2232,0.0000,-0.0610,-0.1221,-0.0000,-0.1530,-0.1678,-10.6766,0.0180,-0.0110,-0.0021,0.0000,0.0000,0.0000,0.0000,0.0000,0.0000,0.0000,0.0000,0.0000,0.0000,0.0000,0.0000,0.0000,0.0000,1.0000,0.0000,0.0000,0.0000,-0.1069,0.0716,0.0000,0.0000,0.0000,0.0000,0.0000,0.0000,-0.0000,-0.0337,0.0223,0.0059,0.0000,0.0000,-0.5752,0.0025,0.0025,0.0025,0.0025,4
33,192,694226139073,-10.5676,-0.1069,0.0716,0.0410,0.0610,0.0010,1.1655,23.4375,23.4375,23.4375,23.4375,12.2239,0.0000,0.1221,-0.1831,-0.0000,-0.1602,-0.2062,-10.5715,0.0180,-0.0111,-0.0021,0.0000,0.0000,0.0000,0.0000,0.0000,0.0000,0.0000,0.0000,0.0000,0.0000,0.0000,0.0000,0.0000,0.0000,1.0000,0.0000,0.0000,0.0000,-0.1069,0.0716,0.0000,0.0000,0.0000,0.0000,0.0000,0.0000,-0.0000,-0.0339,0.0225,0.0059,0.0000,0.0000,-0.5752,0.0025,0.0025,0.0025,0.0025,4
34,193,694231117446,-10.5676,-0.1069,0.0716,0.0410,0.0610,0.0010,1.1655,23.4375,23.4375,23.4375,23.4375,12.2227,0.0000,0.0000,-0.0610,-0.0000,-0.1148,-0.1822,-10.6121,0.0180,-0.0111,-0.0021,0.0000,0.0000,0.0000,0.0000,0.0000,0.0000,0.0000,0.0000,0.0000,0.0000,0.0000,0.0000,0.0000,0.0000,1.0000,0.0000,0.0000,0.0000,-0.1069,0.0716,0.0000,0.0000,0.0000,0.0000,0.0000,0.0000,-0.0000,-0.0340,0.0225,0.0059,0.0000,0.0000,-0.5752,0.0025,0.0025,0.0025,0.0025,4
35,194,694236467522,-10.5676,-0.1069,0.0716,0.0410,0.0610,0.0010,1.1655,23.4375,23.4375,23.4375,23.4375,12.2222,0.0000,-0.0610,-0.1221,-0.0610,-0.1363,-0.1918,-10.5381,0.0180,-0.0111,-0.0021,0.0000,0.0000,0.0000,0.0000,0.0000,0.0000,0.0000,0.0000,0.0000,0.0000,0.0000,0.0000,0.0000,0.0000,1.0000,0.0000,0.0000,0.0000,-0.1069,0.0716,0.0000,0.0000,0.0000,0.0000,0.0000,0.0000,-0.0000,-0.0341,0.0226,0.0060,0.0000,0.0000,-0.5752,0.0025,0.0025,0.0025,0.0025,4
36,195,694241564296,-10.5676,-0.1069,0.0716,0.0410,0.0610,0.0010,1.1655,23.4375,23.4375,23.4375,23.4375,12.2222,0.0000,0.0000,0.0000,-0.0000,-0.1435,-0.1486,-10.6885,0.0180,-0.0111,-0.0021,0.0000,0.0000,0.0000,0.0000,0.0000,0.0000,0.0000,0.0000,0.0000,0.0000,0.0000,0.0000,0.0000,0.0000,1.0000,0.0000,0.0000,0.0000,-0.1069,0.0716,0.0000,0.0000,0.0000,0.0000,0.0000,0.0000,-0.0000,-0.0341,0.0225,0.0059,0.0000,0.0000,-0.5752,0.0025,0.0025,0.0025,0.0025,4
37,196,694246153510,-10.5676,-0.1069,0.0716,0.0410,0.0610,0.0010,1.1655,23.4375,23.4375,23.4375,23.4375,12.2222,0.0000,0.0000,0.0000,-0.0000,-0.1530,-0.1942,-10.5453,0.0180,-0.0111,-0.0021,0.0000,0.0000,0.0000,0.0000,0.0000,0.0000,0.0000,0.0000,0.0000,0.0000,0.0000,0.0000,0.0000,0.0000,1.0000,0.0000,0.0000,0.0000,-0.1069,0.0716,0.0000,0.0000,0.0000,0.0000,0.0000,0.0000,-0.0000,-0.0340,0.0225,0.0059,0.0000,0.0000,-0.5752,0.0025,0.0025,0.0025,0.0025,4
38,197,694251137507,-10.5676,-0.1069,0.0716,0.0410,0.0610,0.0010,1.1655,23.4375,23.4375,23.4375,23.4375,12.2225,0.0000,-0.0610,-0.1221,0.1221,-0.1243,-0.1582,-10.6360,0.0180,-0.0111,-0.0021,0.0000,0.0000,0.0000,0.0000,0.0000,0.0000,0.0000,0.0000,0.0000,0.0000,0.0000,0.0000,0.0000,0.0000,1.0000,0.0000,0.0000,0.0000,-0.1069,0.0716,0.0000,0.0000,0.0000,0.0000,0.0000,0.0000,-0.0000,-0.0341,0.0226,0.0058,0.0000,0.0000,-0.5752,0.0025,0.0025,0.0025,0.0025,4
39,198,694256522453,-10.5676,-0.1069,0.0716,0.0410,0.0610,0.0010,1.1655,23.4375,23.4375,23.4375,23.4375,12.2227,0.0000,-0.0610,-0.1831,-0.0000,-0.1578,-0.1678,-10.5954,0.0180,-0.0111,-0.0021,0.0000,0.0000,0.0000,0.0000,0.0000,0.0000,0.0000,0.0000,0.0000,0.0000,0.0000,0.0000,0.0000,0.0000,1.0000,0.0000,0.0000,0.0000,-0.1069,0.0716,0.0000,0.0000,0.0000,0.0000,0.0000,0.0000,-0.0000,-0.0341,0.0226,0.0059,0.0000,0.0000,-0.5752,0.0025,0.0025,0.0025,0.0025,4
40,199,694261198281,-10.5676,-0.1069,0.0716,0.0410,0.0610,0.0010,1.1655,23.4375,23.4375,23.4375,23.4375,12.2227,0.0000,-0.0610,-0.1221,-0.0000,-0.1530,-0.1966,-10.6336,0.0180,-0.0111,-0.0021,0.0000,0.0000,0.0000,0.0000,0.0000,0.0000,0.0000,0.0000,0.0000,0.0000,0.0000,0.0000,0.0000,0.0000,1.0000,0.0000,0.0000,0.0000,-0.1069,0.0716,0.0000,0.0000,0.0000,0.0000,0.0000,0.0000,-0.0000,-0.0340,0.0227,0.0059,0.0000,0.0000,-0.5752,0.0025,0.0025,0.0025,0.0025,4
41,200,694266095414,-10.5676,-0.1069,0.0716,0.0410,0.0610,0.0010,1.1655,23.4375,23.4375,23.4375,23.4375,12.2229,0.0000,-0.0610,-0.2441,-0.0610,-0.1530,-0.1510,-10.5763,0.0180,-0.0111,-0.0021,0.0000,0.0000,0.0000,0.0000,0.0000,0.0000,0.0000,0.0000,0.0000,0.0000,0.0000,0.0000,0.0000,0.0000,1.0000,0.0000,0.0000,0.0000,-0.1069,0.0716,0.0000,0.0000,0.0000,0.0000,0.0000,0.0000,-0.0000,-0.0341,0.0227,0.0060,0.0000,0.0000,-0.5752,0.0025,0.0025,0.0025,0.0025,4
42,201,694271474778,-10.5676,-0.1069,0.0716,0.0410,0.0610,0.0010,1.1655,23.4375,23.4375,23.4375,23.4375,12.2227,0.0000,-0.0610,-0.1221,0.1221,-0.1363,-0.1822,-10.6288,0.0180,-0.0111,-0.0021,0.0000,0.0000,0.0000,0.0000,0.0000,0.0000,0.0000,0.0000,0.0000,0.0000,0.0000,0.0000,0.0000,0.0000,1.0000,0.0000,0.0000,0.0000,-0.1069,0.0716,0.0000,0.0000,0.0000,0.0000,0.0000,0.0000,-0.0000,-0.0340,0.0227,0.0059,0.0000,0.0000,-0.5752,0.0025,0.0025,0.0025,0.0025,4
43,202,694276129150,-10.5676,-0.1069,0.0716,0.0410,0.0610,0.0010,1.1655,23.4375,23.4375,23.4375,23.4375,12.2229,0.0000,-0.0610,-0.1831,-0.0000,-0.1769,-0.1822,-10.5620,0.0180,-0.0111,-0.0021,0.0000,0.0000,0.0000,0.0000,0.0000,0.0000,0.0000,0.0000,0.0000,0.0000,0.0000,0.0000,0.0000,0.0000,1.0000,0.0000,0.0000,0.0000,-0.1069,0.0716,0.0000,0.0000,0.0000,0.0000,0.0000,0.0000,-0.0000,-0.0340,0.0227,0.0059,0.0000,0.0000,-0.5752,0.0025,0.0025,0.0025,0.0025,4
44,203,694281189679,-10.5676,-0.1069,0.0716,0.0410,0.0610,0.0010,1.1655,23.4375,23.4375,23.4375,23.4375,12.2227,0.0000,0.0000,-0.1221,-0.0000,-0.1554,-0.2230,-10.5691,0.0180,-0.0112,-0.0021,0.0000,0.0000,0.0000,0.0000,0.0000,0.0000,0.0000,0.0000,0.0000,0.0000,0.0000,0.0000,0.0000,0.0000,1.0000,0.0000,0.0000,0.0000,-0.1069,0.0716,0.0000,0.0000,0.0000,0.0000,0.0000,0.0000,-0.0000,-0.0341,0.0228,0.0059,0.0000,0.0000,-0.5752,0.0025,0.0025,0.0025,0.0025,4
45,204,694286337781,-10.5676,-0.1069,0.0716,0.0410,0.0610,0.0010,1.1655,23.4375,23.4375,23.4375,23.4375,12.2225,0.0000,0.0000,0.0000,-0.0000,-0.1530,-0.2014,-10.6670,0.0180,-0.0112,-0.0021,0.0000,0.0000,0.0000,0.0000,0.0000,0.0000,0.0000,0.0000,0.0000,0.0000,0.0000,0.0000,0.0000,0.0000,1.0000,0.0000,0.0000,0.0000,-0.1069,0.0716,0.0000,0.0000,0.0000,0.0000,0.0000,0.0000,-0.0000,-0.0341,0.0227,0.0059,0.0000,0.0000,-0.5752,0.0025,0.0025,0.0025,0.0025,4
46,205,694291600493,-10.5676,-0.1069,0.0716,0.0410,0.0610,0.0010,1.1655,23.4375,23.4375,23.4375,23.4375,12.2227,0.0000,0.0000,0.0000,-0.0000,-0.1411,-0.1846,-10.5763,0.0180,-0.0112,-0.0021,0.0000,0.0000,0.0000,0.0000,0.0000,0.0000,0.0000,0.0000,0.0000,0.0000,0.0000,0.0000,0.0000,0.0000,1.0000,0.0000,0.0000,0.0000,-0.1069,0.0716,0.0000,0.0000,0.0000,0.0000,0.0000,0.0000,-0.0000,-0.0341,0.0227,0.0059,0.0000,0.0000,-0.5752,0.0025,0.0025,0.0025,0.0025,4
47,206,694296172417,-10.5676,-0.1069,0.0716,0.0410,0.0610,0.0010,1.1655,23.4375,23.4375,23.4375,23.4375,12.2232,0.0000,-0.0610,-0.1831,-0.0000,-0.1530,-0.2277,-10.5978,0.0180,-0.0112,-0.0021,0.0000,0.0000,0.0000,0.0000,0.0000,0.0000,0.0000,0.0000,0.0000,0.0000,0.0000,0.0000,0.0000,0.0000,1.0000,0.0000,0.0000,0.0000,-0.1069,0.0716,0.0000,0.0000,0.0000,0.0000,0.0000,0.0000,-0.0000,-0.0341,0.0227,0.0059,0.0000,0.0000,-0.5752,0.0025,0.0025,0.0025,0.0025,4
48,207,694301218614,-10.5676,-0.1069,0.0716,0.0410,0.0610,0.0010,1.1655,23.4375,23.4375,23.4375,23.4375,12.2234,0.0000,-0.1221,-0.0610,-0.0000,-0.1554,-0.1534,-10.5882,0.0180,-0.0112,-0.0021,0.0000,0.0000,0.0000,0.0000,0.0000,0.0000,0.0000,0.0000,0.0000,0.0000,0.0000,0.0000,0.0000,0.0000,1.0000,0.0000,0.0000,0.0000,-0.1069,0.0716,0.0000,0.0000,0.0000,0.0000,0.0000,0.0000,-0.0000,-0.0341,0.0227,0.0059,0.0000,0.0000,-0.5752,0.0025,0.0025,0.0025,0.0025,4
49,208,694306536194,-10.5676,-0.1069,0.0716,0.0410,0.0610,0.0010,1.1655,23.4375,23.4375,23.4375,23.4375,12.2237,0.0000,-0.0610,-0.1221,-0.0610,-0.1530,-0.1894,-10.6002,0.0180,-0.0112,-0.0021,0.0000,0.0000,0.0000,0.0000,0.0000,0.0000,0.0000,0.0000,0.0000,0.0000,0.0000,0.0000,0.0000,0.0000,1.0000,0.0000,0.0000,0.0000,-0.1069,0.0716,0.0000,0.0000,0.0000,0.0000,0.0000,0.0000,-0.0000,-0.0341,0.0227,0.0060,0.0000,0.0000,-0.5752,0.0025,0.0025,0.0025,0.0025,4
50,209,694311140073,-10.5676,-0.1069,0.0716,0.0410,0.0610,0.0010,1.1655,23.4375,23.4375,23.4375,23.4375,12.2237,0.0000,-0.0610,-0.1221,-0.1221,-0.1530,-0.2277,-10.6240,0.0180,-0.0112,-0.0022,0.0000,0.0000,0.0000,0.0000,0.0000,0.0000,0.0000,0.0000,0.0000,0.0000,0.0000,0.0000,0.0000,0.0000,1.0000,0.0000,0.0000,0.0000,-0.1069,0.0716,0.0000,0.0000,0.0000,0.0000,0.0000,0.0000,-0.0000,-0.0341,0.0227,0.0061,0.0000,0.0000,-0.5752,0.0025,0.0025,0.0025,0.0025,4
51,210,694322869428,-10.5676,-0.1069,0.0716,0.0410,0.0610,0.0010,1.1655,23.4375,23.4375,23.4375,23.4375,12.2232,0.0000,0.0000,-0.1221,-0.0000,-0.1076,-0.1894,-10.5859,0.0181,-0.0112,-0.0022,0.0000,0.0000,0.0000,0.0000,0.0000,0.0000,0.0000,0.0000,0.0000,0.0000,0.0000,0.0000,0.0000,0.0000,1.0000,0.0000,0.0000,0.0000,-0.1069,0.0716,0.0000,0.0000,0.0000,0.0000,0.0000,0.0000,-0.0000,-0.0342,0.0227,0.0061,0.0000,0.0000,-0.5752,0.0025,0.0025,0.0025,0.0025,4
52,211,694324778771,-10.5676,-0.1069,0.0716,0.0410,0.0610,0.0010,1.1655,23.4375,23.4375,23.4375,23.4375,12.2225,0.0000,-0.1831,-0.0610,-0.0000,-0.1817,-0.2038,-10.5715,0.0180,-0.0112,-0.0022,0.0000,0.0000,0.0000,0.0000,0.0000,0.0000,0.0000,0.0000,0.0000,0.0000,0.0000,0.0000,0.0000,0.0000,1.0000,0.0000,0.0000,0.0000,-0.1069,0.0716,0.0000,0.0000,0.0000,0.0000,0.0000,0.0000,-0.0000,-0.0341,0.0226,0.0061,0.0000,0.0000,-0.5752,0.0025,0.0025,0.0025,0.0025,4
53,212,694326336533,-10.5676,-0.1069,0.0716,0.0410,0.0610,0.0010,1.1655,23.4375,23.4375,23.4375,23.4375,12.2227,0.0000,-0.0610,-0.2441,-0.0000,-0.1387,-0.1918,-10.5644,0.0180,-0.0112,-0.0022,0.0000,0.0000,0.0000,0.0000,0.0000,0.0000,0.0000,0.0000,0.0000,0.0000,0.0000,0.0000,0.0000,0.0000,1.0000,0.0000,0.0000,0.0000,-0.1069,0.0716,0.0000,0.0000,0.0000,0.0000,0.0000,0.0000,-0.0000,-0.0341,0.0228,0.0061,0.0000,0.0000,-0.5752,0.0025,0.0025,0.0025,0.0025,4
54,213,694362752321,-10.5183,-0.1338,0.0894,0.0410,0.0610,0.0110,1.1655,23.4375,23.4375,23.4375,23.4375,12.2227,0.0000,-0.0610,-0.2441,-0.0000,-0.1172,-0.1942,-10.6384,0.0180,-0.0112,-0.0022,0.0000,0.0000,0.0000,0.0000,0.0000,0.0000,0.0000,0.0000,0.0000,0.0000,0.0000,0.0000,0.0000,0.0000,1.0000,0.0000,0.0000,0.0000,-0.1338,0.0894,0.0000,0.0000,0.0000,0.0000,0.0000,0.0000,-0.0000,-0.1060,0.1060,0.0061,0.0000,0.0000,-0.5727,0.0025,0.0025,0.0025,0.0025,4
55,214,694422301485,-10.5183,-0.1338,0.0894,0.0410,0.0610,0.0110,1.1655,23.4375,23.4375,23.4375,23.4375,12.2227,0.0000,0.0000,-0.1221,-0.0000,-0.1674,-0.1870,-10.5548,0.0181,-0.0113,-0.0022,0.0000,0.0000,0.0000,0.0000,0.0000,0.0000,0.0000,0.0000,0.0000,0.0000,0.0000,0.0000,0.0000,0.0000,1.0000,0.0000,0.0000,0.0000,-0.1338,0.0894,0.0000,0.0000,0.0000,0.0000,0.0000,0.0000,-0.0000,-0.0859,0.0816,0.0060,0.0000,0.0000,-0.5727,0.0025,0.0025,0.0025,0.0025,4
56,215,694426609942,-10.5183,-0.1338,0.0894,0.0410,0.0610,0.0110,1.1655,23.4375,23.4375,23.4375,23.4375,12.2234,0.0000,0.0000,0.0000,-0.0000,-0.1387,-0.1990,-10.6479,0.0181,-0.0113,-0.0022,0.0000,0.0000,0.0000,0.0000,0.0000,0.0000,0.0000,0.0000,0.0000,0.0000,0.0000,0.0000,0.0000,0.0000,1.0000,0.0000,0.0000,0.0000,-0.1338,0.0894,0.0000,0.0000,0.0000,0.0000,0.0000,0.0000,-0.0000,-0.0720,0.0646,0.0060,0.0000,0.0000,-0.5727,0.0025,0.0025,0.0025,0.0025,4
57,216,694431176242,-10.5183,-0.1338,0.0894,0.0410,0.0610,0.0110,1.1655,23.4375,23.4375,23.4375,23.4375,12.2232,0.0000,0.0000,-0.1831,0.1221,-0.1841,-0.2325,-10.6264,0.0181,-0.0113,-0.0022,0.0000,0.0000,0.0000,0.0000,0.0000,0.0000,0.0000,0.0000,0.0000,0.0000,0.0000,0.0000,0.0000,0.0000,1.0000,0.0000,0.0000,0.0000,-0.1338,0.0894,0.0000,0.0000,0.0000,0.0000,0.0000,0.0000,-0.0000,-0.0624,0.0531,0.0060,0.0000,0.0000,-0.5727,0.0025,0.0025,0.0025,0.0025,4
58,217,694436323260,-10.5183,-0.1338,0.0894,0.0410,0.0610,0.0110,1.1655,23.4375,23.4375,23.4375,23.4375,12.2232,0.0000,-0.1831,-0.1221,-0.0000,-0.1219,-0.1870,-10.5811,0.0181,-0.0113,-0.0022,0.0000,0.0000,0.0000,0.0000,0.0000,0.0000,0.0000,0.0000,0.0000,0.0000,0.0000,0.0000,0.0000,0.0000,1.0000,0.0000,0.0000,0.0000,-0.1338,0.0894,0.0000,0.0000,0.0000,0.0000,0.0000,0.0000,-0.0000,-0.0558,0.0451,0.0060,0.0000,0.0000,-0.5727,0.0025,0.0025,0.0025,0.0025,4
59,218,694441309632,-10.5183,-0.1338,0.0894,0.0410,0.0610,0.0110,1.1655,23.4375,23.4375,23.4375,23.4375,12.2232,0.0000,-0.0610,-0.1221,-0.0610,-0.1745,-0.1966,-10.5906,0.0181,-0.0113,-0.0022,0.0000,0.0000,0.0000,0.0000,0.0000,0.0000,0.0000,0.0000,0.0000,0.0000,0.0000,0.0000,0.0000,0.0000,1.0000,0.0000,0.0000,0.0000,-0.1338,0.0894,0.0000,0.0000,0.0000,0.0000,0.0000,0.0000,-0.0000,-0.0513,0.0396,0.0061,0.0000,0.0000,-0.5727,0.0025,0.0025,0.0025,0.0025,4
60,219,694446456734,-10.5183,-0.1338,0.0894,0.0410,0.0610,0.0110,1.1655,23.4375,23.4375,23.4375,23.4375,12.2234,0.0000,-0.0610,-0.1221,-0.1221,-0.1219,-0.1846,-10.5691,0.0181,-0.0113,-0.0022,0.0000,0.0000,0.0000,0.0000,0.0000,0.0000,0.0000,0.0000,0.0000,0.0000,0.0000,0.0000,0.0000,0.0000,1.0000,0.0000,0.0000,0.0000,-0.1338,0.0894,0.0000,0.0000,0.0000,0.0000,0.0000,0.0000,-0.0000,-0.0482,0.0358,0.0062,0.0000,0.0000,-0.5727,0.0025,0.0025,0.0025,0.0025,4
61,220,694451084193,-10.5183,-0.1338,0.0894,0.0410,0.0610,0.0110,1.1655,23.4375,23.4375,23.4375,23.4375,12.2232,0.0000,-0.0610,-0.2441,0.1221,-0.1243,-0.1822,-10.5954,0.0181,-0.0114,-0.0022,0.0000,0.0000,0.0000,0.0000,0.0000,0.0000,0.0000,0.0000,0.0000,0.0000,0.0000,0.0000,0.0000,0.0000,1.0000,0.0000,0.0000,0.0000,-0.1338,0.0894,0.0000,0.0000,0.0000,0.0000,0.0000,0.0000,-0.0000,-0.0461,0.0333,0.0061,0.0000,0.0000,-0.5727,0.0025,0.0025,0.0025,0.0025,4
62,221,694456128515,-10.5183,-0.1338,0.0894,0.0410,0.0610,0.0110,1.1655,23.4375,23.4375,23.4375,23.4375,12.2234,0.0000,-0.0610,-0.1221,-0.0000,-0.1841,-0.1678,-10.5691,0.0181,-0.0114,-0.0022,0.0000,0.0000,0.0000,0.0000,0.0000,0.0000,0.0000,0.0000,0.0000,0.0000,0.0000,0.0000,0.0000,0.0000,1.0000,0.0000,0.0000,0.0000,-0.1338,0.0894,0.0000,0.0000,0.0000,0.0000,0.0000,0.0000,-0.0000,-0.0446,0.0315,0.0061,0.0000,0.0000,-0.5727,0.0025,0.0025,0.0025,0.0025,4
63,222,694461477133,-10.5183,-0.1338,0.0894,0.0410,0.0610,0.0110,1.1655,23.4375,23.4375,23.4375,23.4375,12.2232,0.0000,-0.0610,-0.1221,0.1221,-0.1004,-0.1966,-10.5548,0.0181,-0.0114,-0.0022,0.0000,0.0000,0.0000,0.0000,0.0000,0.0000,0.0000,0.0000,0.0000,0.0000,0.0000,0.0000,0.0000,0.0000,1.0000,0.0000,0.0000,0.0000,-0.1338,0.0894,0.0000,0.0000,0.0000,0.0000,0.0000,0.0000,-0.0000,-0.0436,0.0303,0.0060,0.0000,0.0000,-0.5727,0.0025,0.0025,0.0025,0.0025,4
64,223,694466089136,-10.5183,-0.1338,0.0894,0.0410,0.0610,0.0110,1.1655,23.4375,23.4375,23.4375,23.4375,12.2232,0.0000,0.0610,-0.0610,-0.0000,-0.1363,-0.1750,-10.5381,0.0181,-0.0114,-0.0022,0.0000,0.0000,0.0000,0.0000,0.0000,0.0000,0.0000,0.0000,0.0000,0.0000,0.0000,0.0000,0.0000,0.0000,1.0000,0.0000,0.0000,0.0000,-0.1338,0.0894,0.0000,0.0000,0.0000,0.0000,0.0000,0.0000,-0.0000,-0.0430,0.0294,0.0060,0.0000,0.0000,-0.5727,0.0025,0.0025,0.0025,0.0025,4
65,224,694471010141,-10.5183,-0.1338,0.0894,0.0410,0.0610,0.0110,1.1655,23.4375,23.4375,23.4375,23.4375,12.2239,0.0000,-0.0610,-0.1221,-0.0000,-0.1291,-0.2062,-10.5572,0.0181,-0.0114,-0.0022,0.0000,0.0000,0.0000,0.0000,0.0000,0.0000,0.0000,0.0000,0.0000,0.0000,0.0000,0.0000,0.0000,0.0000,1.0000,0.0000,0.0000,0.0000,-0.1338,0.0894,0.0000,0.0000,0.0000,0.0000,0.0000,0.0000,-0.0000,-0.0425,0.0288,0.0060,0.0000,0.0000,-0.5727,0.0025,0.0025,0.0025,0.0025,4
66,225,694476126496,-10.5183,-0.1338,0.0894,0.0410,0.0610,0.0110,1.1655,23.4375,23.4375,23.4375,23.4375,12.2234,0.0000,-0.0610,-0.1221,-0.0000,-0.1650,-0.1654,-10.6121,0.0181,-0.0114,-0.0022,0.0000,0.0000,0.0000,0.0000,0.0000,0.0000,0.0000,0.0000,0.0000,0.0000,0.0000,0.0000,0.0000,0.0000,1.0000,0.0000,0.0000,0.0000,-0.1338,0.0894,0.0000,0.0000,0.0000,0.0000,0.0000,0.0000,-0.0000,-0.0421,0.0284,0.0060,0.0000,0.0000,-0.5727,0.0025,0.0025,0.0025,0.0025,4
67,226,694481405039,-10.5183,-0.1338,0.0894,0.0410,0.0610,0.0110,1.1655,23.4375,23.4375,23.4375,23.4375,12.2232,0.0000,-0.0610,-0.2441,0.1221,-0.1435,-0.2110,-10.6026,0.0181,-0.0114,-0.0022,0.0000,0.0000,0.0000,0.0000,0.0000,0.0000,0.0000,0.0000,0.0000,0.0000,0.0000,0.0000,0.0000,0.0000,1.0000,0.0000,0.0000,0.0000,-0.1338,0.0894,0.0000,0.0000,0.0000,0.0000,0.0000,0.0000,-0.0000,-0.0419,0.0283,0.0060,0.0000,0.0000,-0.5727,0.0025,0.0025,0.0025,0.0025,4
68,227,694486244430,-10.5183,-0.1338,0.0894,0.0410,0.0610,0.0110,1.1655,23.4375,23.4375,23.4375,23.4375,12.2237,0.0000,-0.0610,-0.1831,-0.0000,-0.1387,-0.1822,-10.5381,0.0181,-0.0114,-0.0022,0.0000,0.0000,0.0000,0.0000,0.0000,0.0000,0.0000,0.0000,0.0000,0.0000,0.0000,0.0000,0.0000,0.0000,1.0000,0.0000,0.0000,0.0000,-0.1338,0.0894,0.0000,0.0000,0.0000,0.0000,0.0000,0.0000,-0.0000,-0.0418,0.0281,0.0060,0.0000,0.0000,-0.5727,0.0025,0.0025,0.0025,0.0025,4
69,228,694491337996,-10.5183,-0.1338,0.0894,0.0410,0.0610,0.0110,1.1655,23.4375,23.4375,23.4375,23.4375,12.2237,0.0000,0.0000,-0.1831,-0.0000,-0.1506,-0.1846,-10.5739,0.0181,-0.0114,-0.0022,0.0000,0.0000,0.0000,0.0000,0.0000,0.0000,0.0000,0.0000,0.0000,0.0000,0.0000,0.0000,0.0000,0.0000,1.0000,0.0000,0.0000,0.0000,-0.1338,0.0894,0.0000,0.0000,0.0000,0.0000,0.0000,0.0000,-0.0000,-0.0417,0.0280,0.0060,0.0000,0.0000,-0.5727,0.0025,0.0025,0.0025,0.0025,4
70,229,694496140766,-10.5183,-0.1338,0.0894,0.0410,0.0610,0.0110,1.1655,23.4375,23.4375,23.4375,23.4375,12.2244,0.0000,0.0000,-0.1831,-0.0610,-0.1148,-0.1846,-10.6026,0.0181,-0.0115,-0.0022,0.0000,0.0000,0.0000,0.0000,0.0000,0.0000,0.0000,0.0000,0.0000,0.0000,0.0000,0.0000,0.0000,0.0000,1.0000,0.0000,0.0000,0.0000,-0.1338,0.0894,0.0000,0.0000,0.0000,0.0000,0.0000,0.0000,-0.0000,-0.0417,0.0279,0.0061,0.0000,0.0000,-0.5727,0.0025,0.0025,0.0025,0.0025,4
71,230,694501461888,-10.5183,-0.1338,0.0894,0.0410,0.0610,0.0110,1.1655,23.4375,23.4375,23.4375,23.4375,12.2246,0.0000,0.0610,-0.0610,-0.0000,-0.1482,-0.2158,-10.5859,0.0182,-0.0115,-0.0022,0.0000,0.0000,0.0000,0.0000,0.0000,0.0000,0.0000,0.0000,0.0000,0.0000,0.0000,0.0000,0.0000,0.0000,1.0000,0.0000,0.0000,0.0000,-0.1338,0.0894,0.0000,0.0000,0.0000,0.0000,0.0000,0.0000,-0.0000,-0.0417,0.0278,0.0061,0.0000,0.0000,-0.5727,0.0025,0.0025,0.0025,0.0025,4
72,231,694506046477,-10.5183,-0.1338,0.0894,0.0410,0.0610,0.0110,1.1655,23.4375,23.4375,23.4375,23.4375,12.2246,0.0000,-0.0610,-0.1221,-0.0000,-0.1458,-0.1966,-10.5811,0.0182,-0.0115,-0.0022,0.0000,0.0000,0.0000,0.0000,0.0000,0.0000,0.0000,0.0000,0.0000,0.0000,0.0000,0.0000,0.0000,0.0000,1.0000,0.0000,0.0000,0.0000,-0.1338,0.0894,0.0000,0.0000,0.0000,0.0000,0.0000,0.0000,-0.0000,-0.0416,0.0278,0.0060,0.0000,0.0000,-0.5727,0.0025,0.0025,0.0025,0.0025,4
73,232,694511106923,-10.5183,-0.1338,0.0894,0.0410,0.0610,0.0110,1.1655,23.4375,23.4375,23.4375,23.4375,12.2239,0.0000,-0.0610,-0.1831,0.1221,-0.1148,-0.1798,-10.6455,0.0182,-0.0115,-0.0022,0.0000,0.0000,0.0000,0.0000,0.0000,0.0000,0.0000,0.0000,0.0000,0.0000,0.0000,0.0000,0.0000,0.0000,1.0000,0.0000,0.0000,0.0000,-0.1338,0.0894,0.0000,0.0000,0.0000,0.0000,0.0000,0.0000,-0.0000,-0.0416,0.0277,0.0060,0.0000,0.0000,-0.5727,0.0025,0.0025,0.0025,0.0025,4
74,233,694516462665,-10.5183,-0.1338,0.0894,0.0410,0.0610,0.0110,1.1655,23.4375,23.4375,23.4375,23.4375,12.2234,0.0000,0.0610,0.0000,-0.0000,-0.1793,-0.1894,-10.5477,0.0182,-0.0115,-0.0022,0.0000,0.0000,0.0000,0.0000,0.0000,0.0000,0.0000,0.0000,0.0000,0.0000,0.0000,0.0000,0.0000,0.0000,1.0000,0.0000,0.0000,0.0000,-0.1338,0.0894,0.0000,0.0000,0.0000,0.0000,0.0000,0.0000,-0.0000,-0.0416,0.0277,0.0060,0.0000,0.0000,-0.5727,0.0025,0.0025,0.0025,0.0025,4
75,234,694521243396,-10.5183,-0.1338,0.0894,0.0310,0.0810,0.0110,1.1655,23.4375,23.4375,23.4375,23.4375,12.2237,0.0000,-0.1831,-0.1831,-0.0000,-0.1626,-0.1870,-10.6360,0.0182,-0.0115,-0.0022,0.0000,0.0000,0.0000,0.0000,0.0000,0.0000,0.0000,0.0000,0.0000,0.0000,0.0000,0.0000,0.0000,0.0000,1.0000,0.0000,0.0000,0.0000,-0.1338,0.0894,0.0000,0.0000,0.0000,0.0000,0.0000,0.0000,-0.0000,-0.0415,0.0277,0.0060,0.0000,0.0000,-0.5727,0.0025,0.0025,0.0025,0.0025,4
76,235,694526072995,-10.5183,-0.1338,0.0894,0.0310,0.0810,0.0110,1.1655,23.4375,23.4375,23.4375,23.4375,12.2227,0.0000,-0.0610,-0.1221,-0.0610,-0.1195,-0.1918,-10.5524,0.0182,-0.0115,-0.0022,0.0000,0.0000,0.0000,0.0000,0.0000,0.0000,0.0000,0.0000,0.0000,0.0000,0.0000,0.0000,0.0000,0.0000,1.0000,0.0000,0.0000,0.0000,-0.1338,0.0894,0.0000,0.0000,0.0000,0.0000,0.0000,0.0000,-0.0000,-0.0415,0.0277,0.0061,0.0000,0.0000,-0.5727,0.0025,0.0025,0.0025,0.0025,4
77,236,694556294022,-10.5266,-0.1456,0.0555,0.0310,0.0810,0.0110,1.1655,23.4375,23.4375,23.4375,23.4375,12.2227,0.0000,0.0000,0.0000,-0.1221,-0.1578,-0.1798,-10.5954,0.0182,-0.0115,-0.0022,0.0000,0.0000,0.0000,0.0000,0.0000,0.0000,0.0000,0.0000,0.0000,0.0000,0.0000,0.0000,0.0000,0.0000,1.0000,0.0000,0.0000,0.0000,-0.1456,0.0555,0.0000,0.0000,0.0000,0.0000,0.0000,0.0000,-0.0000,-0.1124,-0.1520,0.0062,0.0000,0.0000,-0.5728,0.0025,0.0025,0.0025,0.0025,4
78,237,694560776165,-10.5266,-0.1456,0.0555,0.0310,0.0810,0.0110,1.1655,23.4375,23.4375,23.4375,23.4375,12.2222,0.0000,-0.0610,-0.1221,-0.0000,-0.1315,-0.1846,-10.5978,0.0182,-0.0115,-0.0022,0.0000,0.0000,0.0000,0.0000,0.0000,0.0000,0.0000,0.0000,0.0000,0.0000,0.0000,0.0000,0.0000,0.0000,1.0000,0.0000,0.0000,0.0000,-0.1456,0.0555,0.0000,0.0000,0.0000,0.0000,0.0000,0.0000,-0.0000,-0.0912,-0.0983,0.0061,0.0000,0.0000,-0.5728,0.0025,0.0025,0.0025,0.0025,4
79,238,694596188787,-10.5266,-0.1456,0.0555,0.0310,0.0810,0.0110,1.1655,23.4375,23.4375,23.4375,23.4375,12.2222,0.0000,0.0000,0.0000,-0.0000,-0.1100,-0.2277,-10.6097,0.0182,-0.0116,-0.0022,0.0000,0.0000,0.0000,0.0000,0.0000,0.0000,0.0000,0.0000,0.0000,0.0000,0.0000,0.0000,0.0000,0.0000,1.0000,0.0000,0.0000,0.0000,-0.1456,0.0555,0.0000,0.0000,0.0000,0.0000,0.0000,0.0000,-0.0000,-0.0766,-0.0615,0.0062,0.0000,0.0000,-0.5728,0.0025,0.0025,0.0025,0.0025,4
80,239,694652542646,-10.5266,-0.1456,0.0555,0.0310,0.0810,0.0110,1.1655,23.4375,23.4375,23.4375,23.4375,12.2220,0.0000,-0.0610,-0.1221,-0.0000,-0.1482,-0.1822,-10.6097,0.0182,-0.0117,-0.0023,0.0000,0.0000,0.0000,0.0000,0.0000,0.0000,0.0000,0.0000,0.0000,0.0000,0.0000,0.0000,0.0000,0.0000,1.0000,0.0000,0.0000,0.0000,-0.1456,0.0555,0.0000,0.0000,0.0000,0.0000,0.0000,0.0000,-0.0000,-0.0668,-0.0360,0.0065,0.0000,0.0000,-0.5728,0.0025,0.0025,0.0025,0.0025,4
81,240,694656073326,-10.5266,-0.1456,0.0555,0.0310,0.0810,0.0110,1.1655,23.4375,23.4375,23.4375,23.4375,12.2225,0.0000,-0.0610,-0.1831,0.1221,-0.1339,-0.1918,-10.5572,0.0182,-0.0117,-0.0023,0.0000,0.0000,0.0000,0.0000,0.0000,0.0000,0.0000,0.0000,0.0000,0.0000,0.0000,0.0000,0.0000,0.0000,1.0000,0.0000,0.0000,0.0000,-0.1456,0.0555,0.0000,0.0000,0.0000,0.0000,0.0000,0.0000,-0.0000,-0.0598,-0.0188,0.0064,0.0000,0.0000,-0.5728,0.0025,0.0025,0.0025,0.0025,4
82,241,694661006413,-10.5266,-0.1456,0.0555,0.0310,0.0810,0.0110,1.1655,23.4375,23.4375,23.4375,23.4375,12.2227,0.0000,0.0000,0.0000,-0.0610,-0.1578,-0.1846,-10.5787,0.0182,-0.0117,-0.0023,0.0000,0.0000,0.0000,0.0000,0.0000,0.0000,0.0000,0.0000,0.0000,0.0000,0.0000,0.0000,0.0000,0.0000,1.0000,0.0000,0.0000,0.0000,-0.1456,0.0555,0.0000,0.0000,0.0000,0.0000,0.0000,0.0000,-0.0000,-0.0551,-0.0072,0.0064,0.0000,0.0000,-0.5728,0.0025,0.0025,0.0025,0.0025,4
83,242,694665982745,-10.5266,-0.1456,0.0555,0.0310,0.0810,0.0110,1.1655,23.4375,23.4375,23.4375,23.4375,12.2227,0.0000,-0.0610,-0.1221,-0.0000,-0.1530,-0.1726,-10.5405,0.0182,-0.0117,-0.0023,0.0000,0.0000,0.0000,0.0000,0.0000,0.0000,0.0000,0.0000,0.0000,0.0000,0.0000,0.0000,0.0000,0.0000,1.0000,0.0000,0.0000,0.0000,-0.1456,0.0555,0.0000,0.0000,0.0000,0.0000,0.0000,0.0000,-0.0000,-0.0518,0.0009,0.0064,0.0000,0.0000,-0.5728,0.0025,0.0025,0.0025,0.0025,4
84,243,694671348235,-10.5266,-0.1456,0.0555,0.0310,0.0810,0.0110,1.1655,23.4375,23.4375,23.4375,23.4375,12.2227,0.0000,-0.0610,-0.2441,0.1221,-0.1482,-0.2014,-10.6073,0.0182,-0.0117,-0.0023,0.0000,0.0000,0.0000,0.0000,0.0000,0.0000,0.0000,0.0000,0.0000,0.0000,0.0000,0.0000,0.0000,0.0000,1.0000,0.0000,0.0000,0.0000,-0.1456,0.0555,0.0000,0.0000,0.0000,0.0000,0.0000,0.0000,-0.0000,-0.0496,0.0065,0.0064,0.0000,0.0000,-0.5728,0.0025,0.0025,0.0025,0.0025,4
85,244,694676069974,-10.5266,-0.1456,0.0555,0.0310,0.0810,0.0110,1.1655,23.4375,23.4375,23.4375,23.4375,12.2222,0.0000,-0.1221,-0.0610,-0.0000,-0.1578,-0.1702,-10.6312,0.0182,-0.0117,-0.0023,0.0000,0.0000,0.0000,0.0000,0.0000,0.0000,0.0000,0.0000,0.0000,0.0000,0.0000,0.0000,0.0000,0.0000,1.0000,0.0000,0.0000,0.0000,-0.1456,0.0555,0.0000,0.0000,0.0000,0.0000,0.0000,0.0000,-0.0000,-0.0480,0.0102,0.0064,0.0000,0.0000,-0.5728,0.0025,0.0025,0.0025,0.0025,4
86,245,694681004269,-10.5266,-0.1456,0.0555,0.0310,0.0810,0.0110,1.1655,23.4375,23.4375,23.4375,23.4375,12.2229,0.0000,-0.0610,-0.1221,-0.0000,-0.1172,-0.1726,-10.5644,0.0182,-0.0117,-0.0023,0.0000,0.0000,0.0000,0.0000,0.0000,0.0000,0.0000,0.0000,0.0000,0.0000,0.0000,0.0000,0.0000,0.0000,1.0000,0.0000,0.0000,0.0000,-0.1456,0.0555,0.0000,0.0000,0.0000,0.0000,0.0000,0.0000,-0.0000,-0.0469,0.0128,0.0064,0.0000,0.0000,-0.5728,0.0025,0.0025,0.0025,0.0025,4
87,246,694686382008,-10.5266,-0.1456,0.0555,0.0310,0.0810,0.0110,1.1655,23.4375,23.4375,23.4375,23.4375,12.2227,0.0000,0.0000,-0.0610,-0.0000,-0.1745,-0.2206,-10.6288,0.0182,-0.0117,-0.0023,0.0000,0.0000,0.0000,0.0000,0.0000,0.0000,0.0000,0.0000,0.0000,0.0000,0.0000,0.0000,0.0000,0.0000,1.0000,0.0000,0.0000,0.0000,-0.1456,0.0555,0.0000,0.0000,0.0000,0.0000,0.0000,0.0000,-0.0000,-0.0463,0.0146,0.0064,0.0000,0.0000,-0.5728,0.0025,0.0025,0.0025,0.0025,4
88,247,694691173571,-10.5266,-0.1456,0.0555,0.0310,0.0810,0.0110,1.1655,23.4375,23.4375,23.4375,23.4375,12.2220,0.0000,-0.1221,-0.0610,-0.0000,-0.1865,-0.1702,-10.6575,0.0182,-0.0117,-0.0023,0.0000,0.0000,0.0000,0.0000,0.0000,0.0000,0.0000,0.0000,0.0000,0.0000,0.0000,0.0000,0.0000,0.0000,1.0000,0.0000,0.0000,0.0000,-0.1456,0.0555,0.0000,0.0000,0.0000,0.0000,0.0000,0.0000,-0.0000,-0.0457,0.0157,0.0064,0.0000,0.0000,-0.5728,0.0025,0.0025,0.0025,0.0025,4
89,248,694696109283,-10.5266,-0.1456,0.0555,0.0310,0.0810,0.0110,1.1655,23.4375,23.4375,23.4375,23.4375,12.2220,0.0000,-0.3052,-0.1221,0.1221,-0.1650,-0.1966,-10.6431,0.0182,-0.0117,-0.0023,0.0000,0.0000,0.0000,0.0000,0.0000,0.0000,0.0000,0.0000,0.0000,0.0000,0.0000,0.0000,0.0000,0.0000,1.0000,0.0000,0.0000,0.0000,-0.1456,0.0555,0.0000,0.0000,0.0000,0.0000,0.0000,0.0000,-0.0000,-0.0453,0.0166,0.0063,0.0000,0.0000,-0.5728,0.0025,0.0025,0.0025,0.0025,4
90,249,694700999000,-10.5266,-0.1456,0.0555,0.0310,0.0810,0.0110,1.1655,23.4375,23.4375,23.4375,23.4375,12.2215,0.0000,0.0000,-0.0610,-0.0000,-0.1482,-0.2110,-10.6264,0.0182,-0.0117,-0.0023,0.0000,0.0000,0.0000,0.0000,0.0000,0.0000,0.0000,0.0000,0.0000,0.0000,0.0000,0.0000,0.0000,0.0000,1.0000,0.0000,0.0000,0.0000,-0.1456,0.0555,0.0000,0.0000,0.0000,0.0000,0.0000,0.0000,-0.0000,-0.0451,0.0172,0.0063,0.0000,0.0000,-0.5728,0.0025,0.0025,0.0025,0.0025,4
91,250,694706293083,-10.5266,-0.1456,0.0555,0.0310,0.0810,0.0110,1.1655,23.4375,23.4375,23.4375,23.4375,12.2222,0.0000,0.0000,-0.1831,-0.0000,-0.1674,-0.1870,-10.6145,0.0182,-0.0118,-0.0023,0.0000,0.0000,0.0000,0.0000,0.0000,0.0000,0.0000,0.0000,0.0000,0.0000,0.0000,0.0000,0.0000,0.0000,1.0000,0.0000,0.0000,0.0000,-0.1456,0.0555,0.0000,0.0000,0.0000,0.0000,0.0000,0.0000,-0.0000,-0.0451,0.0177,0.0063,0.0000,0.0000,-0.5728,0.0025,0.0025,0.0025,0.0025,4
92,251,694711011572,-10.5266,-0.1456,0.0555,0.0310,0.0810,0.0110,1.1655,23.4375,23.4375,23.4375,23.4375,12.2229,0.0000,0.0000,0.0000,-0.0000,-0.1363,-0.1942,-10.5548,0.0182,-0.0118,-0.0023,0.0000,0.0000,0.0000,0.0000,0.0000,0.0000,0.0000,0.0000,0.0000,0.0000,0.0000,0.0000,0.0000,0.0000,1.0000,0.0000,0.0000,0.0000,-0.1456,0.0555,0.0000,0.0000,0.0000,0.0000,0.0000,0.0000,-0.0000,-0.0449,0.0179,0.0063,0.0000,0.0000,-0.5728,0.0025,0.0025,0.0025,0.0025,4
93,252,694716086724,-10.5266,-0.1456,0.0555,0.0310,0.0810,0.0110,1.1655,23.4375,23.4375,23.4375,23.4375,12.2232,0.0000,-0.1221,-0.0610,0.3052,-0.1961,-0.1750,-10.5930,0.0182,-0.0118,-0.0023,0.0000,0.0000,0.0000,0.0000,0.0000,0.0000,0.0000,0.0000,0.0000,0.0000,0.0000,0.0000,0.0000,0.0000,1.0000,0.0000,0.0000,0.0000,-0.1456,0.0555,0.0000,0.0000,0.0000,0.0000,0.0000,0.0000,-0.0000,-0.0448,0.0180,0.0061,0.0000,0.0000,-0.5728,0.0025,0.0025,0.0025,0.0025,4
94,253,694755122515,-10.5266,-0.1456,0.0555,0.0310,0.0810,0.0110,1.1655,23.4375,23.4375,23.4375,23.4375,12.2225,0.0000,0.0000,-0.1221,0.1221,-0.1530,-0.1894,-10.4832,0.0182,-0.0118,-0.0023,0.0000,0.0000,0.0000,0.0000,0.0000,0.0000,0.0000,0.0000,0.0000,0.0000,0.0000,0.0000,0.0000,0.0000,1.0000,0.0000,0.0000,0.0000,-0.1456,0.0555,0.0000,0.0000,0.0000,0.0000,0.0000,0.0000,-0.0000,-0.0448,0.0182,0.0061,0.0000,0.0000,-0.5728,0.0025,0.0025,0.0025,0.0025,4
95,254,694812197575,-10.5266,-0.1456,0.0555,0.0310,0.0810,0.0110,1.1655,23.4375,23.4375,23.4375,23.4375,12.2222,0.0000,0.0000,0.0000,-0.0000,-0.1793,-0.2349,-10.5763,0.0183,-0.0118,-0.0023,0.0000,0.0000,0.0000,0.0000,0.0000,0.0000,0.0000,0.0000,0.0000,0.0000,0.0000,0.0000,0.0000,0.0000,1.0000,0.0000,0.0000,0.0000,-0.1456,0.0555,0.0000,0.0000,0.0000,0.0000,0.0000,0.0000,-0.0000,-0.0448,0.0185,0.0064,0.0000,0.0000,-0.5728,0.0025,0.0025,0.0025,0.0025,4
96,255,694815985056,-10.5266,-0.1456,0.0555,0.0310,0.0810,0.0110,1.1655,23.4375,23.4375,23.4375,23.4375,12.2225,0.0000,-0.0610,-0.1831,-0.0000,-0.1602,-0.1870,-10.6050,0.0183,-0.0118,-0.0023,0.0000,0.0000,0.0000,0.0000,0.0000,0.0000,0.0000,0.0000,0.0000,0.0000,0.0000,0.0000,0.0000,0.0000,1.0000,0.0000,0.0000,0.0000,-0.1456,0.0555,0.0000,0.0000,0.0000,0.0000,0.0000,0.0000,-0.0000,-0.0448,0.0186,0.0064,0.0000,0.0000,-0.5728,0.0025,0.0025,0.0025,0.0025,4
97,256,694821121742,-10.5266,-0.1456,0.0555,0.0310,0.0810,0.0110,1.1655,23.4375,23.4375,23.4375,23.4375,12.2229,0.0000,0.0610,0.0000,0.1221,-0.1674,-0.1846,-10.6217,0.0183,-0.0118,-0.0023,0.0000,0.0000,0.0000,0.0000,0.0000,0.0000,0.0000,0.0000,0.0000,0.0000,0.0000,0.0000,0.0000,0.0000,1.0000,0.0000,0.0000,0.0000,-0.1456,0.0555,0.0000,0.0000,0.0000,0.0000,0.0000,0.0000,-0.0000,-0.0448,0.0185,0.0064,0.0000,0.0000,-0.5728,0.0025,0.0025,0.0025,0.0025,4
98,257,694826527894,-10.5266,-0.1456,0.0555,0.0310,0.0810,0.0110,1.1655,23.4375,23.4375,23.4375,23.4375,12.2237,0.0000,0.0000,-0.1221,-0.0000,-0.1243,-0.1894,-10.6599,0.0183,-0.0119,-0.0023,0.0000,0.0000,0.0000,0.0000,0.0000,0.0000,0.0000,0.0000,0.0000,0.0000,0.0000,0.0000,0.0000,0.0000,1.0000,0.0000,0.0000,0.0000,-0.1456,0.0555,0.0000,0.0000,0.0000,0.0000,0.0000,0.0000,-0.0000,-0.0448,0.0185,0.0063,0.0000,0.0000,-0.5728,0.0025,0.0025,0.0025,0.0025,4
99,258,694830971793,-10.5266,-0.1456,0.0555,0.0310,0.0810,0.0110,1.1655,23.4375,23.4375,23.4375,23.4375,12.2234,0.0000,-0.0610,-0.1221,-0.0000,-0.1698,-0.1750,-10.5978,0.0183,-0.0119,-0.0023,0.0000,0.0000,0.0000,0.0000,0.0000,0.0000,0.0000,0.0000,0.0000,0.0000,0.0000,0.0000,0.0000,0.0000,1.0000,0.0000,0.0000,0.0000,-0.1456,0.0555,0.0000,0.0000,0.0000,0.0000,0.0000,0.0000,-0.0000,-0.0448,0.0185,0.0063,0.0000,0.0000,-0.5728,0.0025,0.0025,0.0025,0.0025,4
100,259,694836227172,-10.5266,-0.1456,0.0555,0.0310,0.0810,0.0110,1.1655,23.4375,23.4375,23.4375,23.4375,12.2234,0.0000,0.0000,-0.0610,-0.0000,-0.1363,-0.1942,-10.6288,0.0183,-0.0119,-0.0023,0.0000,0.0000,0.0000,0.0000,0.0000,0.0000,0.0000,0.0000,0.0000,0.0000,0.0000,0.0000,0.0000,0.0000,1.0000,0.0000,0.0000,0.0000,-0.1456,0.0555,0.0000,0.0000,0.0000,0.0000,0.0000,0.0000,-0.0000,-0.0448,0.0185,0.0064,0.0000,0.0000,-0.5728,0.0025,0.0025,0.0025,0.0025,4
101,260,694841420185,-10.5266,-0.1456,0.0555,0.0310,0.0810,0.0110,1.1655,23.4375,23.4375,23.4375,23.4375,12.2234,0.0000,-0.0610,-0.1221,0.1221,-0.1195,-0.2158,-10.6312,0.0183,-0.0119,-0.0023,0.0000,0.0000,0.0000,0.0000,0.0000,0.0000,0.0000,0.0000,0.0000,0.0000,0.0000,0.0000,0.0000,0.0000,1.0000,0.0000,0.0000,0.0000,-0.1456,0.0555,0.0000,0.0000,0.0000,0.0000,0.0000,0.0000,-0.0000,-0.0448,0.0185,0.0063,0.0000,0.0000,-0.5728,0.0025,0.0025,0.0025,0.0025,4
102,261,694846002149,-10.5266,-0.1456,0.0555,0.0310,0.0810,0.0110,1.1655,23.4375,23.4375,23.4375,23.4375,12.2237,0.0000,-0.0610,-0.1831,-0.0000,-0.1698,-0.2110,-10.5715,0.0183,-0.0119,-0.0023,0.0000,0.0000,0.0000,0.0000,0.0000,0.0000,0.0000,0.0000,0.0000,0.0000,0.0000,0.0000,0.0000,0.0000,1.0000,0.0000,0.0000,0.0000,-0.1456,0.0555,0.0000,0.0000,0.0000,0.0000,0.0000,0.0000,-0.0000,-0.0448,0.0185,0.0063,0.0000,0.0000,-0.5728,0.0025,0.0025,0.0025,0.0025,4
103,262,694850988479,-10.5266,-0.1456,0.0555,0.0310,0.0810,0.0110,1.1655,23.4375,23.4375,23.4375,23.4375,12.2239,0.0000,0.0000,-0.1831,0.1221,-0.1602,-0.1774,-10.5644,0.0183,-0.0119,-0.0023,0.0000,0.0000,0.0000,0.0000,0.0000,0.0000,0.0000,0.0000,0.0000,0.0000,0.0000,0.0000,0.0000,0.0000,1.0000,0.0000,0.0000,0.0000,-0.1456,0.0555,0.0000,0.0000,0.0000,0.0000,0.0000,0.0000,-0.0000,-0.0448,0.0186,0.0063,0.0000,0.0000,-0.5728,0.0025,0.0025,0.0025,0.0025,4
104,263,694855919358,-10.5266,-0.1456,0.0555,0.0310,0.0810,0.0110,1.1655,23.4375,23.4375,23.4375,23.4375,12.2239,0.0000,-0.0610,-0.3052,-0.0000,-0.1721,-0.2206,-10.6312,0.0183,-0.0119,-0.0023,0.0000,0.0000,0.0000,0.0000,0.0000,0.0000,0.0000,0.0000,0.0000,0.0000,0.0000,0.0000,0.0000,0.0000,1.0000,0.0000,0.0000,0.0000,-0.1456,0.0555,0.0000,0.0000,0.0000,0.0000,0.0000,0.0000,-0.0000,-0.0448,0.0187,0.0063,0.0000,0.0000,-0.5728,0.0025,0.0025,0.0025,0.0025,4
105,264,694861373129,-10.5266,-0.1456,0.0555,0.0310,0.0810,0.0110,1.1655,23.4375,23.4375,23.4375,23.4375,12.2239,0.0000,-0.0610,-0.1221,0.1221,-0.1626,-0.1750,-10.6121,0.0183,-0.0119,-0.0023,0.0000,0.0000,0.0000,0.0000,0.0000,0.0000,0.0000,0.0000,0.0000,0.0000,0.0000,0.0000,0.0000,0.0000,1.0000,0.0000,0.0000,0.0000,-0.1456,0.0555,0.0000,0.0000,0.0000,0.0000,0.0000,0.0000,-0.0000,-0.0448,0.0186,0.0063,0.0000,0.0000,-0.5728,0.0025,0.0025,0.0025,0.0025,4
106,265,694865926056,-10.5266,-0.1456,0.0555,0.0310,0.0810,0.0110,1.1655,23.4375,23.4375,23.4375,23.4375,12.2232,0.0000,0.0610,0.0000,-0.0000,-0.1626,-0.1894,-10.5548,0.0183,-0.0119,-0.0023,0.0000,0.0000,0.0000,0.0000,0.0000,0.0000,0.0000,0.0000,0.0000,0.0000,0.0000,0.0000,0.0000,0.0000,1.0000,0.0000,0.0000,0.0000,-0.1456,0.0555,0.0000,0.0000,0.0000,0.0000,0.0000,0.0000,-0.0000,-0.0448,0.0186,0.0063,0.0000,0.0000,-0.5728,0.0025,0.0025,0.0025,0.0025,4
107,266,694871056618,-10.5266,-0.1456,0.0555,0.0310,0.0810,0.0110,1.1655,23.4375,23.4375,23.4375,23.4375,12.2234,0.0000,-0.0610,-0.2441,-0.0000,-0.1554,-0.2134,-10.6384,0.0183,-0.0120,-0.0023,0.0000,0.0000,0.0000,0.0000,0.0000,0.0000,0.0000,0.0000,0.0000,0.0000,0.0000,0.0000,0.0000,0.0000,1.0000,0.0000,0.0000,0.0000,-0.1456,0.0555,0.0000,0.0000,0.0000,0.0000,0.0000,0.0000,-0.0000,-0.0448,0.0186,0.0063,0.0000,0.0000,-0.5728,0.0025,0.0025,0.0025,0.0025,4
108,267,694882359071,-10.5266,-0.1456,0.0555,0.0310,0.0810,0.0110,1.1655,23.4375,23.4375,23.4375,23.4375,12.2237,0.0000,0.0000,-0.0610,-0.0000,-0.1698,-0.1990,-10.6312,0.0183,-0.0120,-0.0023,0.0000,0.0000,0.0000,0.0000,0.0000,0.0000,0.0000,0.0000,0.0000,0.0000,0.0000,0.0000,0.0000,0.0000,1.0000,0.0000,0.0000,0.0000,-0.1456,0.0555,0.0000,0.0000,0.0000,0.0000,0.0000,0.0000,-0.0000,-0.0448,0.0186,0.0063,0.0000,0.0000,-0.5728,0.0025,0.0025,0.0025,0.0025,4
109,268,694885935162,-10.5266,-0.1456,0.0555,0.0310,0.0810,0.0110,1.1655,23.4375,23.4375,23.4375,23.4375,12.2234,0.0000,-0.0610,-0.1221,0.1221,-0.1267,-0.1918,-10.6121,0.0184,-0.0120,-0.0023,0.0000,0.0000,0.0000,0.0000,0.0000,0.0000,0.0000,0.0000,0.0000,0.0000,0.0000,0.0000,0.0000,0.0000,1.0000,0.0000,0.0000,0.0000,-0.1456,0.0555,0.0000,0.0000,0.0000,0.0000,0.0000,0.0000,-0.0000,-0.0448,0.0186,0.0063,0.0000,0.0000,-0.5728,0.0025,0.0025,0.0025,0.0025,4
110,269,694891594658,-10.5266,-0.1456,0.0555,0.0310,0.0810,0.0110,1.1655,23.4375,23.4375,23.4375,23.4375,12.2237,0.0000,-0.0610,-0.2441,0.1221,-0.1291,-0.2182,-10.5906,0.0184,-0.0120,-0.0023,0.0000,0.0000,0.0000,0.0000,0.0000,0.0000,0.0000,0.0000,0.0000,0.0000,0.0000,0.0000,0.0000,0.0000,1.0000,0.0000,0.0000,0.0000,-0.1456,0.0555,0.0000,0.0000,0.0000,0.0000,0.0000,0.0000,-0.0000,-0.0448,0.0186,0.0062,0.0000,0.0000,-0.5728,0.0025,0.0025,0.0025,0.0025,4
111,270,694896125671,-10.5266,-0.1456,0.0555,0.0310,0.0810,0.0110,1.1655,23.4375,23.4375,23.4375,23.4375,12.2227,0.0000,-0.0610,-0.1831,-0.0610,-0.1148,-0.1990,-10.6288,0.0184,-0.0120,-0.0023,0.0000,0.0000,0.0000,0.0000,0.0000,0.0000,0.0000,0.0000,0.0000,0.0000,0.0000,0.0000,0.0000,0.0000,1.0000,0.0000,0.0000,0.0000,-0.1456,0.0555,0.0000,0.0000,0.0000,0.0000,0.0000,0.0000,-0.0000,-0.0448,0.0186,0.0063,0.0000,0.0000,-0.5728,0.0025,0.0025,0.0025,0.0025,4
112,271,694900949856,-10.5266,-0.1456,0.0555,0.0310,0.0810,0.0110,1.1655,23.4375,23.4375,23.4375,23.4375,12.2222,0.0000,-0.0610,-0.1831,-0.0000,-0.1674,-0.2038,-10.6503,0.0184,-0.0120,-0.0023,0.0000,0.0000,0.0000,0.0000,0.0000,0.0000,0.0000,0.0000,0.0000,0.0000,0.0000,0.0000,0.0000,0.0000,1.0000,0.0000,0.0000,0.0000,-0.1456,0.0555,0.0000,0.0000,0.0000,0.0000,0.0000,0.0000,-0.0000,-0.0448,0.0186,0.0064,0.0000,0.0000,-0.5728,0.0025,0.0025,0.0025,0.0025,4
113,272,694905877694,-10.5266,-0.1456,0.0555,0.0310,0.0810,0.0110,1.1655,23.4375,23.4375,23.4375,23.4375,12.2220,0.0000,-0.0610,-0.3052,-0.0610,-0.1363,-0.1798,-10.6551,0.0184,-0.0120,-0.0023,0.0000,0.0000,0.0000,0.0000,0.0000,0.0000,0.0000,0.0000,0.0000,0.0000,0.0000,0.0000,0.0000,0.0000,1.0000,0.0000,0.0000,0.0000,-0.1456,0.0555,0.0000,0.0000,0.0000,0.0000,0.0000,0.0000,-0.0000,-0.0448,0.0187,0.0064,0.0000,0.0000,-0.5728,0.0025,0.0025,0.0025,0.0025,4
114,273,694911313509,-10.5266,-0.1456,0.0555,0.0310,0.0810,0.0110,1.1655,23.4375,23.4375,23.4375,23.4375,12.2227,0.0000,-0.0610,-0.1221,-0.1831,-0.1339,-0.1774,-10.6455,0.0184,-0.0120,-0.0023,0.0000,0.0000,0.0000,0.0000,0.0000,0.0000,0.0000,0.0000,0.0000,0.0000,0.0000,0.0000,0.0000,0.0000,1.0000,0.0000,0.0000,0.0000,-0.1456,0.0555,0.0000,0.0000,0.0000,0.0000,0.0000,0.0000,-0.0000,-0.0448,0.0186,0.0066,0.0000,0.0000,-0.5728,0.0025,0.0025,0.0025,0.0025,4
115,274,694916069244,-10.5266,-0.1456,0.0555,0.0310,0.0810,0.0110,1.1655,23.4375,23.4375,23.4375,23.4375,12.2229,0.0000,-0.0610,-0.1831,-0.0000,-0.1554,-0.1990,-10.5620,0.0184,-0.0121,-0.0023,0.0000,0.0000,0.0000,0.0000,0.0000,0.0000,0.0000,0.0000,0.0000,0.0000,0.0000,0.0000,0.0000,0.0000,1.0000,0.0000,0.0000,0.0000,-0.1456,0.0555,0.0000,0.0000,0.0000,0.0000,0.0000,0.0000,-0.0000,-0.0447,0.0186,0.0066,0.0000,0.0000,-0.5728,0.0025,0.0025,0.0025,0.0025,4
116,275,694921016163,-10.5266,-0.1456,0.0555,0.0510,0.0610,0.0110,1.1655,23.4375,23.4375,23.4375,23.4375,12.2227,0.0000,-0.0610,-0.1831,-0.0000,-0.1124,-0.1942,-10.5357,0.0184,-0.0121,-0.0023,0.0000,0.0000,0.0000,0.0000,0.0000,0.0000,0.0000,0.0000,0.0000,0.0000,0.0000,0.0000,0.0000,0.0000,1.0000,0.0000,0.0000,0.0000,-0.1456,0.0555,0.0000,0.0000,0.0000,0.0000,0.0000,0.0000,-0.0000,-0.0447,0.0186,0.0066,0.0000,0.0000,-0.5728,0.0025,0.0025,0.0025,0.0025,4
117,276,694955180362,-10.5224,-0.1219,0.1013,0.0510,0.0610,0.0110,1.1655,23.4375,23.4375,23.4375,23.4375,12.2208,0.0000,-0.0610,-0.1831,0.1831,-0.1482,-0.1870,-10.6503,0.0184,-0.0121,-0.0023,0.0000,0.0000,0.0000,0.0000,0.0000,0.0000,0.0000,0.0000,0.0000,0.0000,0.0000,0.0000,0.0000,0.0000,1.0000,0.0000,0.0000,0.0000,-0.1219,0.1013,0.0000,0.0000,0.0000,0.0000,0.0000,0.0000,-0.0000,0.0974,0.2320,0.0065,0.0000,0.0000,-0.5727,0.0025,0.0025,0.0025,0.0025,4
118,277,695012068534,-10.5224,-0.1219,0.1013,0.0510,0.0610,0.0110,1.1655,23.4375,23.4375,23.4375,23.4375,12.2205,0.0000,-0.0610,-0.1831,-0.0000,-0.1435,-0.1894,-10.5620,0.0184,-0.0121,-0.0024,0.0000,0.0000,0.0000,0.0000,0.0000,0.0000,0.0000,0.0000,0.0000,0.0000,0.0000,0.0000,0.0000,0.0000,1.0000,0.0000,0.0000,0.0000,-0.1219,0.1013,0.0000,0.0000,0.0000,0.0000,0.0000,0.0000,-0.0000,0.0548,0.1690,0.0067,0.0000,0.0000,-0.5727,0.0025,0.0025,0.0025,0.0025,4
119,278,695016288128,-10.5224,-0.1219,0.1013,0.0510,0.0610,0.0110,1.1655,23.4375,23.4375,23.4375,23.4375,12.2208,0.0000,-0.0610,-0.1221,0.1221,-0.1387,-0.1798,-10.5548,0.0184,-0.0121,-0.0024,0.0000,0.0000,0.0000,0.0000,0.0000,0.0000,0.0000,0.0000,0.0000,0.0000,0.0000,0.0000,0.0000,0.0000,1.0000,0.0000,0.0000,0.0000,-0.1219,0.1013,0.0000,0.0000,0.0000,0.0000,0.0000,0.0000,-0.0000,0.0256,0.1256,0.0066,0.0000,0.0000,-0.5727,0.0025,0.0025,0.0025,0.0025,4
120,279,695020861677,-10.5224,-0.1219,0.1013,0.0510,0.0610,0.0110,1.1655,23.4375,23.4375,23.4375,23.4375,12.2208,0.0000,0.0000,0.0000,-0.0000,-0.1578,-0.1942,-10.6026,0.0184,-0.0121,-0.0024,0.0000,0.0000,0.0000,0.0000,0.0000,0.0000,0.0000,0.0000,0.0000,0.0000,0.0000,0.0000,0.0000,0.0000,1.0000,0.0000,0.0000,0.0000,-0.1219,0.1013,0.0000,0.0000,0.0000,0.0000,0.0000,0.0000,-0.0000,0.0055,0.0959,0.0066,0.0000,0.0000,-0.5727,0.0025,0.0025,0.0025,0.0025,4
121,280,695025883129,-10.5224,-0.1219,0.1013,0.0510,0.0610,0.0110,1.1655,23.4375,23.4375,23.4375,23.4375,12.2203,0.0000,-0.2441,-0.1831,0.1221,-0.1387,-0.1702,-10.5859,0.0184,-0.0121,-0.0024,0.0000,0.0000,0.0000,0.0000,0.0000,0.0000,0.0000,0.0000,0.0000,0.0000,0.0000,0.0000,0.0000,0.0000,1.0000,0.0000,0.0000,0.0000,-0.1219,0.1013,0.0000,0.0000,0.0000,0.0000,0.0000,0.0000,-0.0000,-0.0081,0.0756,0.0066,0.0000,0.0000,-0.5727,0.0025,0.0025,0.0025,0.0025,4
122,281,695031343816,-10.5224,-0.1219,0.1013,0.0510,0.0610,0.0110,1.1655,23.4375,23.4375,23.4375,23.4375,12.2200,0.0000,-0.0610,-0.1221,-0.0000,-0.1435,-0.1918,-10.5978,0.0184,-0.0121,-0.0024,0.0000,0.0000,0.0000,0.0000,0.0000,0.0000,0.0000,0.0000,0.0000,0.0000,0.0000,0.0000,0.0000,0.0000,1.0000,0.0000,0.0000,0.0000,-0.1219,0.1013,0.0000,0.0000,0.0000,0.0000,0.0000,0.0000,-0.0000,-0.0176,0.0616,0.0066,0.0000,0.0000,-0.5727,0.0025,0.0025,0.0025,0.0025,4
123,282,695035894035,-10.5224,-0.1219,0.1013,0.0510,0.0610,0.0110,1.1655,23.4375,23.4375,23.4375,23.4375,12.2198,0.0000,-0.0610,-0.1831,-0.0000,-0.1172,-0.2134,-10.5691,0.0184,-0.0121,-0.0024,0.0000,0.0000,0.0000,0.0000,0.0000,0.0000,0.0000,0.0000,0.0000,0.0000,0.0000,0.0000,0.0000,0.0000,1.0000,0.0000,0.0000,0.0000,-0.1219,0.1013,0.0000,0.0000,0.0000,0.0000,0.0000,0.0000,-0.0000,-0.0241,0.0520,0.0066,0.0000,0.0000,-0.5727,0.0025,0.0025,0.0025,0.0025,4
124,283,695041123502,-10.5224,-0.1219,0.1013,0.0510,0.0610,0.0110,1.1655,23.4375,23.4375,23.4375,23.4375,12.2200,0.0000,-0.1831,-0.1831,-0.0610,-0.1793,-0.1822,-10.5453,0.0184,-0.0122,-0.0024,0.0000,0.0000,0.0000,0.0000,0.0000,0.0000,0.0000,0.0000,0.0000,0.0000,0.0000,0.0000,0.0000,0.0000,1.0000,0.0000,0.0000,0.0000,-0.1219,0.1013,0.0000,0.0000,0.0000,0.0000,0.0000,0.0000,-0.0000,-0.0285,0.0454,0.0067,0.0000,0.0000,-0.5727,0.0025,0.0025,0.0025,0.0025,4
125,284,695046358135,-10.5224,-0.1219,0.1013,0.0510,0.0610,0.0110,1.1655,23.4375,23.4375,23.4375,23.4375,12.2203,0.0000,0.0000,0.0000,-0.0000,-0.1841,-0.2158,-10.6073,0.0184,-0.0122,-0.0024,0.0000,0.0000,0.0000,0.0000,0.0000,0.0000,0.0000,0.0000,0.0000,0.0000,0.0000,0.0000,0.0000,0.0000,1.0000,0.0000,0.0000,0.0000,-0.1219,0.1013,0.0000,0.0000,0.0000,0.0000,0.0000,0.0000,-0.0000,-0.0316,0.0409,0.0067,0.0000,0.0000,-0.5727,0.0025,0.0025,0.0025,0.0025,4
126,285,695050901563,-10.5224,-0.1219,0.1013,0.0510,0.0610,0.0110,1.1655,23.4375,23.4375,23.4375,23.4375,12.2210,0.0000,-0.0610,-0.1221,-0.0000,-0.1626,-0.2014,-10.5906,0.0184,-0.0122,-0.0024,0.0000,0.0000,0.0000,0.0000,0.0000,0.0000,0.0000,0.0000,0.0000,0.0000,0.0000,0.0000,0.0000,0.0000,1.0000,0.0000,0.0000,0.0000,-0.1219,0.1013,0.0000,0.0000,0.0000,0.0000,0.0000,0.0000,-0.0000,-0.0337,0.0378,0.0067,0.0000,0.0000,-0.5727,0.0025,0.0025,0.0025,0.0025,4
127,286,695055862980,-10.5224,-0.1219,0.1013,0.0510,0.0610,0.0110,1.1655,23.4375,23.4375,23.4375,23.4375,12.2210,0.0000,0.0000,0.0000,-0.0610,-0.1291,-0.1894,-10.5572,0.0184,-0.0122,-0.0024,0.0000,0.0000,0.0000,0.0000,0.0000,0.0000,0.0000,0.0000,0.0000,0.0000,0.0000,0.0000,0.0000,0.0000,1.0000,0.0000,0.0000,0.0000,-0.1219,0.1013,0.0000,0.0000,0.0000,0.0000,0.0000,0.0000,-0.0000,-0.0351,0.0357,0.0068,0.0000,0.0000,-0.5727,0.0025,0.0025,0.0025,0.0025,4
128,287,695060896013,-10.5224,-0.1219,0.1013,0.0510,0.0610,0.0110,1.1655,23.4375,23.4375,23.4375,23.4375,12.2208,0.0000,0.0000,-0.0610,-0.0000,-0.1458,-0.1702,-10.5882,0.0184,-0.0122,-0.0024,0.0000,0.0000,0.0000,0.0000,0.0000,0.0000,0.0000,0.0000,0.0000,0.0000,0.0000,0.0000,0.0000,0.0000,1.0000,0.0000,0.0000,0.0000,-0.1219,0.1013,0.0000,0.0000,0.0000,0.0000,0.0000,0.0000,-0.0000,-0.0362,0.0342,0.0068,0.0000,0.0000,-0.5727,0.0025,0.0025,0.0025,0.0025,4
129,288,695066197429,-10.5224,-0.1219,0.1013,0.0510,0.0610,0.0110,1.1655,23.4375,23.4375,23.4375,23.4375,12.2208,0.0000,-0.0610,-0.1221,-0.0000,-0.1554,-0.1798,-10.6121,0.0184,-0.0122,-0.0024,0.0000,0.0000,0.0000,0.0000,0.0000,0.0000,0.0000,0.0000,0.0000,0.0000,0.0000,0.0000,0.0000,0.0000,1.0000,0.0000,0.0000,0.0000,-0.1219,0.1013,0.0000,0.0000,0.0000,0.0000,0.0000,0.0000,-0.0000,-0.0368,0.0332,0.0068,0.0000,0.0000,-0.5727,0.0025,0.0025,0.0025,0.0025,4
130,289,695070873049,-10.5224,-0.1219,0.1013,0.0510,0.0610,0.0110,1.1655,23.4375,23.4375,23.4375,23.4375,12.2208,0.0000,-0.0610,-0.2441,-0.0000,-0.1363,-0.1942,-10.6145,0.0184,-0.0122,-0.0024,0.0000,0.0000,0.0000,0.0000,0.0000,0.0000,0.0000,0.0000,0.0000,0.0000,0.0000,0.0000,0.0000,0.0000,1.0000,0.0000,0.0000,0.0000,-0.1219,0.1013,0.0000,0.0000,0.0000,0.0000,0.0000,0.0000,-0.0000,-0.0372,0.0326,0.0068,0.0000,0.0000,-0.5727,0.0025,0.0025,0.0025,0.0025,4
