loop_index, counter, last_step_ns, T_ref, theta_ref, phi_ref, uwind, vwind, wwind, rho, rpm1, rpm2, rpm3, rpm4,v_batt,alt,gyro_roll,gyro_pitch,gyro_yaw,accel_X,accel_Y,accel_Z,roll,pitch,yaw,X,Y,Z,Xdot,Ydot,Zdot,x0,y0,z0,e.xbee_time,xbee_time_received_ns,xbee_x,xbee_y,xbee_z,xbee_qw,xbee_qx,xbee_qy,xbee_qz,sp_roll,sp_pitch,sp_yaw,sp_X,sp_Y,sp_Z,sp_Xdot,sp_Ydot,sp_Zdot,u_roll,u_pitch,u_yaw,u_X,u_Y,u_Z,mot_1,mot_2,mot_3,mot_4,thrust_mot1,thrust_mot2,thrust_mot3,thrust_mot4,flight_mode
1,18,1177166996420,-10.5262,-0.1470,-0.0524,-0.1290,0.1610,-0.0090,1.1765,6782.4194,6403.1099,6385.9688,6389.0215,12.1187,0.0000,0.7935,2.3804,0.1831,5.6498,-12.6699,-2.2007,0.0167,-0.0208,-0.0200,0.0000,0.0000,0.0000,0.0000,0.0000,0.0000,0.0000,0.0000,0.0000,0.0000,0.0000,0.0000,0.0000,0.0000,1.0000,0.0000,0.0000,0.0000,-0.1470,-0.0524,0.0000,0.0000,0.0000,0.0000,0.0000,0.0000,-0.0000,-0.0000,-0.0000,0.0000,0.0000,0.0000,-0.5727,0.7023,0.6653,0.6650,0.6653,0.5727,0.5727,0.5727,0.5727,5
2,19,1177227356471,-10.4936,-0.1665,-0.0528,-0.0190,0.1310,-0.0090,1.1765,6506.2334,6503.9116,6503.9116,6503.9116,12.1098,0.0000,0.3662,-0.6714,-0.6714,-12.5046,9.8794,4.7046,0.0182,-0.0240,-0.0202,0.0000,0.0000,0.0000,0.0000,0.0000,0.0000,0.0000,0.0000,0.0000,0.0000,0.0000,0.0000,0.0000,0.0000,1.0000,0.0000,0.0000,0.0000,-0.1665,-0.0528,0.0000,0.0000,0.0000,0.0000,0.0000,0.0000,-0.0000,-0.0020,0.0020,0.0020,0.0000,0.0000,-0.5708,0.6764,0.6764,0.6764,0.6764,0.5738,0.5698,0.5698,0.5698,5
3,20,1177232142883,-10.4936,-0.1665,-0.0528,-0.0190,0.1310,-0.0090,1.1765,6506.2334,6503.9116,6503.9116,6503.9116,12.0999,0.0000,0.2441,-2.4414,-0.9155,-11.0055,17.0451,8.8291,0.0173,-0.0255,-0.0203,0.0000,0.0000,0.0000,0.0000,0.0000,0.0000,0.0000,0.0000,0.0000,0.0000,0.0000,0.0000,0.0000,0.0000,1.0000,0.0000,0.0000,0.0000,-0.1665,-0.0528,0.0000,0.0000,0.0000,0.0000,0.0000,0.0000,-0.0000,-0.0040,0.0040,0.0040,0.0000,0.0000,-0.5708,0.6764,0.6764,0.6764,0.6764,0.5768,0.5688,0.5688,0.5688,5
4,21,1177237086187,-10.4936,-0.1665,-0.0528,-0.0190,0.1310,-0.0090,1.1765,6506.2334,6506.2334,6503.9116,6503.9116,12.0893,0.0000,-1.1597,-2.8076,-0.7324,-5.9080,20.4541,8.1632,0.0155,-0.0268,-0.0203,0.0000,0.0000,0.0000,0.0000,0.0000,0.0000,0.0000,0.0000,0.0000,0.0000,0.0000,0.0000,0.0000,0.0000,1.0000,0.0000,0.0000,0.0000,-0.1665,-0.0528,0.0000,0.0000,0.0000,0.0000,0.0000,0.0000,-0.0000,-0.0060,0.0060,0.0060,0.0000,0.0000,-0.5708,0.6764,0.6764,0.6764,0.6764,0.5798,0.5678,0.5678,0.5678,5
5,22,1177242042321,-10.4936,-0.1665,-0.0528,-0.0190,0.1310,-0.0090,1.1765,6506.2334,6506.2334,6503.9116,6503.9116,12.0789,0.0000,-1.4038,-2.3804,0.1831,-0.1004,20.3582,0.4750,0.0135,-0.0276,-0.0202,0.0000,0.0000,0.0000,0.0000,0.0000,0.0000,0.0000,0.0000,0.0000,0.0000,0.0000,0.0000,0.0000,0.0000,1.0000,0.0000,0.0000,0.0000,-0.1665,-0.0528,0.0000,0.0000,0.0000,0.0000,0.0000,0.0000,-0.0000,-0.0074,0.0067,0.0080,0.0000,0.0000,-0.5708,0.6764,0.6764,0.6764,0.6764,0.5818,0.5672,0.5678,0.5665,5
6,23,1177247003705,-10.4936,-0.1665,-0.0528,-0.0190,0.1310,-0.0090,1.1765,6506.2334,6506.2334,6484.2524,6503.9116,12.0685,0.0000,-1.4648,-0.4883,-0.0000,5.2577,14.9234,-13.1971,0.0114,-0.0276,-0.0202,0.0000,0.0000,0.0000,0.0000,0.0000,0.0000,0.0000,0.0000,0.0000,0.0000,0.0000,0.0000,0.0000,0.0000,1.0000,0.0000,0.0000,0.0000,-0.1665,-0.0528,0.0000,0.0000,0.0000,0.0000,0.0000,0.0000,-0.0000,-0.0081,0.0027,0.0100,0.0000,0.0000,-0.5708,0.6764,0.6764,0.6764,0.6764,0.5812,0.5685,0.5705,0.5631,5
7,24,1177252087527,-10.4936,-0.1665,-0.0528,-0.0190,0.1310,-0.0090,1.1765,6506.2334,6506.2334,6484.2524,6503.9116,12.0576,0.0000,-1.7090,1.0986,1.2207,8.2081,8.2205,-26.0457,0.0098,-0.0270,-0.0200,0.0000,0.0000,0.0000,0.0000,0.0000,0.0000,0.0000,0.0000,0.0000,0.0000,0.0000,0.0000,0.0000,0.0000,1.0000,0.0000,0.0000,0.0000,-0.1665,-0.0528,0.0000,0.0000,0.0000,0.0000,0.0000,0.0000,-0.0000,-0.0113,-0.0043,0.0120,0.0000,0.0000,-0.5708,0.6764,0.6764,0.6764,0.6764,0.5803,0.5726,0.5733,0.5571,5
8,25,1177257236754,-10.5482,-0.1407,-0.0203,-0.0190,0.1310,-0.0090,1.1765,6506.2334,6506.2334,6484.2524,6470.9165,12.0474,0.0000,-1.5869,1.9531,0.7935,8.4616,0.3500,-34.5884,0.0088,-0.0259,-0.0199,0.0000,0.0000,0.0000,0.0000,0.0000,0.0000,0.0000,0.0000,0.0000,0.0000,0.0000,0.0000,0.0000,0.0000,1.0000,0.0000,0.0000,0.0000,-0.1407,-0.0203,0.0000,0.0000,0.0000,0.0000,0.0000,0.0000,-0.0000,0.0140,0.0140,0.0140,0.0000,0.0000,-0.5726,0.6767,0.6767,0.6746,0.6733,0.5796,0.5516,0.5796,0.5796,5
9,26,1177820175563,-10.5538,-0.1030,-0.0930,-0.7990,0.8810,0.0610,1.1765,6690.6001,6523.9316,6690.6001,6690.6001,12.0375,0.0000,-1.7700,2.0142,1.4648,8.9134,-8.4986,-35.2186,0.0086,-0.0249,-0.0198,0.0000,0.0000,0.0000,0.0000,0.0000,0.0000,0.0000,0.0000,0.0000,0.0000,0.0000,0.0000,0.0000,0.0000,1.0000,0.0000,0.0000,0.0000,-0.1030,-0.0930,0.0000,0.0000,0.0000,0.0000,0.0000,0.0000,-0.0000,0.0160,-0.0160,0.0160,0.0000,0.0000,-0.5483,0.6943,0.6783,0.6943,0.6943,0.5403,0.5403,0.5723,0.5403,5
10,27,1177877032654,-10.5660,-0.0986,-0.0843,-0.7890,0.8710,0.0010,1.1765,6448.6689,6448.6689,6640.4756,6451.4277,12.0257,0.0000,-1.2817,0.6104,-0.0000,7.3115,1.6638,-26.6878,0.0171,-0.0219,-0.0201,0.0000,0.0000,0.0000,0.0000,0.0000,0.0000,0.0000,0.0000,0.0000,0.0000,0.0000,0.0000,0.0000,0.0000,1.0000,0.0000,0.0000,0.0000,-0.0986,-0.0843,0.0000,0.0000,0.0000,0.0000,0.0000,0.0000,-0.0000,-0.0180,0.0179,0.0180,0.0000,0.0000,-0.5474,0.6718,0.6718,0.6902,0.6718,0.5744,0.5385,0.5385,0.5384,5
11,28,1177881874183,-10.5660,-0.0986,-0.0843,-0.7890,0.8710,0.0010,1.1765,6448.6689,6448.6689,6640.4756,6451.4277,12.0143,0.0000,-1.4038,1.1597,0.3662,5.4848,-5.0248,-21.3412,0.0168,-0.0210,-0.0201,0.0000,0.0000,0.0000,0.0000,0.0000,0.0000,0.0000,0.0000,0.0000,0.0000,0.0000,0.0000,0.0000,0.0000,1.0000,0.0000,0.0000,0.0000,-0.0986,-0.0843,0.0000,0.0000,0.0000,0.0000,0.0000,0.0000,-0.0000,-0.0200,0.0015,0.0200,0.0000,0.0000,-0.5474,0.6718,0.6718,0.6902,0.6718,0.5682,0.5467,0.5467,0.5282,5
12,29,1177886846148,-10.5714,-0.0935,-0.0844,-0.6890,0.7510,0.0010,1.1765,6448.6689,6448.6689,6640.4756,6448.6689,12.0085,0.0000,-0.3052,1.4648,1.0986,4.7747,-13.1830,-10.7028,0.0172,-0.0203,-0.0200,0.0000,0.0000,0.0000,0.0000,0.0000,0.0000,0.0000,0.0000,0.0000,0.0000,0.0000,0.0000,0.0000,0.0000,1.0000,0.0000,0.0000,0.0000,-0.0935,-0.0844,0.0000,0.0000,0.0000,0.0000,0.0000,0.0000,-0.0000,0.0049,-0.0091,0.0220,0.0000,0.0000,-0.5489,0.6715,0.6715,0.6898,0.6715,0.5529,0.5400,0.5669,0.5358,5
13,30,1177891800366,-10.5714,-0.0935,-0.0844,-0.6890,0.7510,0.0010,1.1765,6448.6689,6448.6689,6640.4756,6448.6689,12.0037,0.0000,-0.3052,1.9531,0.6104,-0.5404,-20.0921,3.6519,0.0184,-0.0196,-0.0200,0.0000,0.0000,0.0000,0.0000,0.0000,0.0000,0.0000,0.0000,0.0000,0.0000,0.0000,0.0000,0.0000,0.0000,1.0000,0.0000,0.0000,0.0000,-0.0935,-0.0844,0.0000,0.0000,0.0000,0.0000,0.0000,0.0000,-0.0000,-0.0138,-0.0158,0.0240,0.0000,0.0000,-0.5489,0.6715,0.6715,0.6898,0.6715,0.5599,0.5517,0.5619,0.5221,5
14,31,1177896858942,-10.5714,-0.0935,-0.0844,-0.6890,0.7510,0.0010,1.1765,6598.4375,6448.6689,6640.4756,6448.6689,11.9984,0.0000,1.4038,0.0000,0.6104,-2.1112,-22.2065,15.2856,0.0205,-0.0197,-0.0200,0.0000,0.0000,0.0000,0.0000,0.0000,0.0000,0.0000,0.0000,0.0000,0.0000,0.0000,0.0000,0.0000,0.0000,1.0000,0.0000,0.0000,0.0000,-0.0935,-0.0844,0.0000,0.0000,0.0000,0.0000,0.0000,0.0000,-0.0000,-0.0260,-0.0162,0.0260,0.0000,0.0000,-0.5489,0.6715,0.6715,0.6898,0.6715,0.5668,0.5570,0.5570,0.5148,5
15,32,1177901880857,-10.5714,-0.0935,-0.0844,-0.6890,0.7510,0.0010,1.1765,6598.4375,6448.6689,6640.4756,6448.6689,11.9935,0.0000,1.7090,1.2207,0.2441,-6.9146,-20.4565,23.3963,0.0228,-0.0198,-0.0200,0.0000,0.0000,0.0000,0.0000,0.0000,0.0000,0.0000,0.0000,0.0000,0.0000,0.0000,0.0000,0.0000,0.0000,1.0000,0.0000,0.0000,0.0000,-0.0935,-0.0844,0.0000,0.0000,0.0000,0.0000,0.0000,0.0000,-0.0000,-0.0280,-0.0160,0.0280,0.0000,0.0000,-0.5489,0.6715,0.6715,0.6898,0.6715,0.5689,0.5569,0.5569,0.5129,5
16,33,1177906803997,-10.5714,-0.0935,-0.0844,-0.6890,0.7510,0.0010,1.1765,6598.4375,6500.2432,6640.4756,6448.6689,11.9901,0.0000,2.1362,-1.5869,-1.4038,-8.2272,-14.3648,23.9930,0.0250,-0.0207,-0.0202,0.0000,0.0000,0.0000,0.0000,0.0000,0.0000,0.0000,0.0000,0.0000,0.0000,0.0000,0.0000,0.0000,0.0000,1.0000,0.0000,0.0000,0.0000,-0.0935,-0.0844,0.0000,0.0000,0.0000,0.0000,0.0000,0.0000,-0.0000,-0.0300,-0.0114,0.0300,0.0000,0.0000,-0.5489,0.6715,0.6715,0.6898,0.6715,0.5732,0.5546,0.5546,0.5132,5
17,34,1178061812073,-10.4147,-0.2099,-0.0413,-0.6890,0.7310,0.0410,1.1765,6629.5171,6519.4316,6519.4316,6244.3271,11.9867,0.0000,3.4180,-1.8921,-0.4883,-6.6970,-6.4297,11.1468,0.0268,-0.0217,-0.0202,0.0000,0.0000,0.0000,0.0000,0.0000,0.0000,0.0000,0.0000,0.0000,0.0000,0.0000,0.0000,0.0000,0.0000,1.0000,0.0000,0.0000,0.0000,-0.2099,-0.0413,0.0000,0.0000,0.0000,0.0000,0.0000,0.0000,-0.0000,-0.0320,0.0320,0.0320,0.0000,0.0000,-0.5593,0.6862,0.6757,0.6757,0.6515,0.6073,0.5433,0.5433,0.5433,5
18,35,1179061596731,-10.5155,-0.0285,-0.1598,-0.1190,0.0510,0.0410,1.1765,6703.0938,6340.6479,6340.6479,6334.5645,11.9865,0.0000,-0.8545,2.9297,0.7935,10.3958,-12.4757,-28.7811,0.0243,-0.0120,-0.0202,0.0000,0.0000,0.0000,0.0000,0.0000,0.0000,0.0000,0.0000,0.0000,0.0000,0.0000,0.0000,0.0000,0.0000,1.0000,0.0000,0.0000,0.0000,-0.0285,-0.1598,0.0000,0.0000,0.0000,0.0000,0.0000,0.0000,-0.0000,0.0340,-0.0340,0.0340,0.0000,0.0000,-0.5711,0.6951,0.6602,0.6602,0.6602,0.5541,0.5541,0.6221,0.5541,5
19,35,1179121610712,-10.5391,-0.1092,-0.1000,-0.0890,0.1110,0.0310,1.1765,6404.7373,6404.7373,6790.1045,6408.2803,12.0073,0.0000,-1.3428,0.3052,0.6104,9.7575,-0.5274,-29.4017,0.0262,-0.0158,-0.0203,0.0000,0.0000,0.0000,0.0000,0.0000,0.0000,0.0000,0.0000,0.0000,0.0000,0.0000,0.0000,0.0000,0.0000,1.0000,0.0000,0.0000,0.0000,0.0000,0.0000,0.0000,0.0000,0.0000,0.0000,0.0000,0.0000,-0.0000,0.0360,0.0360,0.0360,0.0000,0.0000,-0.6003,0.6673,0.6673,0.7054,0.6673,0.6183,0.5463,0.6183,0.6183,5
20,35,1179126487904,-10.5391,-0.1092,-0.1000,-0.0890,0.1110,0.0310,1.1765,6404.7373,6404.7373,6785.8853,6408.2803,12.0293,0.0000,-0.6714,1.6479,0.7935,12.7700,-7.4078,-42.4628,0.0261,-0.0147,-0.0203,0.0000,0.0000,0.0000,0.0000,0.0000,0.0000,0.0000,0.0000,0.0000,0.0000,0.0000,0.0000,0.0000,0.0000,1.0000,0.0000,0.0000,0.0000,0.0000,0.0000,0.0000,0.0000,0.0000,0.0000,0.0000,0.0000,-0.0000,0.0229,0.0191,0.0380,0.0000,0.0000,-0.6003,0.6673,0.6673,0.7054,0.6673,0.6174,0.5603,0.6211,0.6023,5
21,35,1179131474121,-10.5391,-0.1092,-0.1000,-0.0890,0.1110,0.0310,1.1765,6404.7373,6404.7373,6785.8853,6408.2803,12.0298,0.0000,-0.7935,2.3193,0.4883,10.2213,-13.7583,-46.5682,0.0267,-0.0132,-0.0202,0.0000,0.0000,0.0000,0.0000,0.0000,0.0000,0.0000,0.0000,0.0000,0.0000,0.0000,0.0000,0.0000,0.0000,1.0000,0.0000,0.0000,0.0000,0.0000,0.0000,0.0000,0.0000,0.0000,0.0000,0.0000,0.0000,-0.0000,0.0101,0.0053,0.0400,0.0000,0.0000,-0.6003,0.6673,0.6673,0.7054,0.6673,0.6178,0.5726,0.6227,0.5880,5
22,35,1179136445214,-10.5391,-0.1092,-0.1000,-0.0890,0.1110,0.0310,1.1765,6404.7373,6404.7373,6785.8853,6408.2803,12.0298,0.0000,-0.3052,2.0752,0.6104,7.8495,-17.8314,-39.1999,0.0279,-0.0119,-0.0202,0.0000,0.0000,0.0000,0.0000,0.0000,0.0000,0.0000,0.0000,0.0000,0.0000,0.0000,0.0000,0.0000,0.0000,1.0000,0.0000,0.0000,0.0000,0.0000,0.0000,0.0000,0.0000,0.0000,0.0000,0.0000,0.0000,-0.0000,-0.0026,-0.0028,0.0420,0.0000,0.0000,-0.6003,0.6673,0.6673,0.7054,0.6673,0.6212,0.5819,0.6214,0.5766,5
23,35,1179141601236,-10.4943,-0.1365,-0.1087,-0.0790,0.0910,0.0510,1.1765,6404.7373,6404.7373,6785.8853,6765.0454,12.0300,0.0000,0.2441,2.3193,0.1221,3.6725,-18.0328,-24.4728,0.0295,-0.0109,-0.0202,0.0000,0.0000,0.0000,0.0000,0.0000,0.0000,0.0000,0.0000,0.0000,0.0000,0.0000,0.0000,0.0000,0.0000,1.0000,0.0000,0.0000,0.0000,0.0000,0.0000,0.0000,0.0000,0.0000,0.0000,0.0000,0.0000,-0.0000,-0.0141,-0.0070,0.0440,0.0000,0.0000,-0.6003,0.6668,0.6668,0.7047,0.7020,0.6259,0.5889,0.6187,0.5677,5
24,35,1179146510923,-10.4943,-0.1365,-0.1087,-0.0790,0.0910,0.0510,1.1765,6404.7373,6404.7373,6785.8853,6765.0454,12.0305,0.0000,1.2207,0.4883,-0.3662,-1.1046,-15.9231,-5.9386,0.0313,-0.0105,-0.0203,0.0000,0.0000,0.0000,0.0000,0.0000,0.0000,0.0000,0.0000,0.0000,0.0000,0.0000,0.0000,0.0000,0.0000,1.0000,0.0000,0.0000,0.0000,0.0000,0.0000,0.0000,0.0000,0.0000,0.0000,0.0000,0.0000,-0.0000,-0.0231,-0.0065,0.0460,0.0000,0.0000,-0.6003,0.6668,0.6668,0.7047,0.7020,0.6316,0.5921,0.6150,0.5626,5
25,35,1179151489973,-10.4943,-0.1365,-0.1087,-0.0790,0.0910,0.0510,1.1765,6404.7373,6404.7373,6785.8853,6765.0454,12.0310,0.0000,1.4038,-1.0986,-0.7324,-6.3695,-11.3298,7.5927,0.0329,-0.0107,-0.0203,0.0000,0.0000,0.0000,0.0000,0.0000,0.0000,0.0000,0.0000,0.0000,0.0000,0.0000,0.0000,0.0000,0.0000,1.0000,0.0000,0.0000,0.0000,0.0000,0.0000,0.0000,0.0000,0.0000,0.0000,0.0000,0.0000,-0.0000,-0.0286,-0.0024,0.0480,0.0000,0.0000,-0.6004,0.6668,0.6668,0.7047,0.7020,0.6375,0.5918,0.6113,0.5609,5
26,35,1179156555010,-10.4943,-0.1365,-0.1087,-0.0790,0.0910,0.0510,1.1765,6777.6157,6404.7373,6785.8853,6765.0454,12.0315,0.0000,1.7090,-0.7935,-1.3428,-8.6074,-1.6590,15.6294,0.0342,-0.0114,-0.0205,0.0000,0.0000,0.0000,0.0000,0.0000,0.0000,0.0000,0.0000,0.0000,0.0000,0.0000,0.0000,0.0000,0.0000,1.0000,0.0000,0.0000,0.0000,0.0000,0.0000,0.0000,0.0000,0.0000,0.0000,0.0000,0.0000,-0.0000,-0.0302,0.0035,0.0500,0.0000,0.0000,-0.6004,0.6668,0.6668,0.7047,0.7020,0.6422,0.5887,0.6085,0.5620,5
27,35,1179447962807,-10.4901,-0.1201,-0.1297,-0.0990,0.0910,0.0310,1.1765,6895.5493,6600.4268,6710.3633,6449.1851,12.0324,0.0000,2.1362,-1.8921,-0.7324,-8.7198,4.8210,17.5866,0.0346,-0.0124,-0.0206,0.0000,0.0000,0.0000,0.0000,0.0000,0.0000,0.0000,0.0000,0.0000,0.0000,0.0000,0.0000,0.0000,0.0000,1.0000,0.0000,0.0000,0.0000,0.0000,0.0000,0.0000,0.0000,0.0000,0.0000,0.0000,0.0000,-0.0000,-0.0262,0.0095,0.0517,0.0000,0.0000,-0.6004,0.7188,0.6857,0.6963,0.6711,0.6441,0.5829,0.6084,0.5662,5
28,35,1179506441334,-10.5013,-0.1302,-0.1102,-0.0690,0.0810,0.0410,1.1765,6901.3950,6563.4546,6705.1733,6468.7856,12.0334,0.0000,0.6714,-1.0376,0.3662,-13.2674,4.7803,17.4506,0.0246,-0.0160,-0.0202,0.0000,0.0000,0.0000,0.0000,0.0000,0.0000,0.0000,0.0000,0.0000,0.0000,0.0000,0.0000,0.0000,0.0000,1.0000,0.0000,0.0000,0.0000,0.0000,0.0000,0.0000,0.0000,0.0000,0.0000,0.0000,0.0000,-0.0000,0.0398,0.0297,0.0491,0.0000,0.0000,-0.6003,0.7195,0.6821,0.6958,0.6730,0.6198,0.5410,0.6299,0.6104,5
29,35,1179511496747,-10.5013,-0.1302,-0.1102,-0.0690,0.0810,0.0410,1.1765,6901.3950,6563.4546,6705.1733,6468.7856,12.0334,0.0000,0.1221,-1.9531,-1.5259,-8.6457,9.8483,0.3891,0.0242,-0.0175,-0.0203,0.0000,0.0000,0.0000,0.0000,0.0000,0.0000,0.0000,0.0000,0.0000,0.0000,0.0000,0.0000,0.0000,0.0000,1.0000,0.0000,0.0000,0.0000,0.0000,0.0000,0.0000,0.0000,0.0000,0.0000,0.0000,0.0000,-0.0000,0.0275,0.0307,0.0513,0.0000,0.0000,-0.6003,0.7195,0.6821,0.6958,0.6730,0.6275,0.5455,0.6244,0.6037,5
30,35,1179516548410,-10.5013,-0.1302,-0.1102,-0.0690,0.0810,0.0410,1.1765,6901.3950,6563.4546,6705.4912,6468.7856,12.0351,0.0000,1.0376,-3.7231,-0.9155,-3.9355,13.6289,-20.6275,0.0234,-0.0186,-0.0204,0.0000,0.0000,0.0000,0.0000,0.0000,0.0000,0.0000,0.0000,0.0000,0.0000,0.0000,0.0000,0.0000,0.0000,1.0000,0.0000,0.0000,0.0000,0.0000,0.0000,0.0000,0.0000,0.0000,0.0000,0.0000,0.0000,-0.0000,0.0219,0.0296,0.0527,0.0000,0.0000,-0.6003,0.7195,0.6821,0.6958,0.6730,0.6305,0.5481,0.6228,0.5997,5
31,35,1180062337348,-10.4381,-0.1538,-0.1322,-0.0990,0.0810,0.0010,1.1765,6828.3506,6367.4404,6786.4297,6659.4307,12.0365,0.0000,-0.0610,-1.0986,-0.7935,1.1477,15.4364,-39.2262,0.0220,-0.0191,-0.0204,0.0000,0.0000,0.0000,0.0000,0.0000,0.0000,0.0000,0.0000,0.0000,0.0000,0.0000,0.0000,0.0000,0.0000,1.0000,0.0000,0.0000,0.0000,0.0000,0.0000,0.0000,0.0000,0.0000,0.0000,0.0000,0.0000,-0.0000,0.0212,0.0246,0.0537,0.0000,0.0000,-0.6003,0.7104,0.6633,0.7050,0.6915,0.6288,0.5505,0.6255,0.5963,5
32,35,1180121528317,-10.4338,-0.1365,-0.1527,-0.1190,0.0610,-0.0090,1.1765,6817.5044,6379.0757,6796.3276,6636.0688,12.0370,0.0000,0.7324,-0.3662,-0.0000,-3.7394,-13.6480,-6.5950,0.0229,-0.0163,-0.0202,0.0000,0.0000,0.0000,0.0000,0.0000,0.0000,0.0000,0.0000,0.0000,0.0000,0.0000,0.0000,0.0000,0.0000,1.0000,0.0000,0.0000,0.0000,0.0000,0.0000,0.0000,0.0000,0.0000,0.0000,0.0000,0.0000,-0.0000,0.0070,0.0018,0.0522,0.0000,0.0000,-0.6002,0.7085,0.6642,0.7062,0.6892,0.6237,0.5697,0.6290,0.5785,5
33,35,1180126230415,-10.4338,-0.1365,-0.1527,-0.1190,0.0610,-0.0090,1.1765,6817.5044,6379.0757,6799.5083,6636.0688,12.0378,0.0000,1.2817,-0.4883,-1.0986,-7.6773,-7.2831,5.6689,0.0244,-0.0167,-0.0203,0.0000,0.0000,0.0000,0.0000,0.0000,0.0000,0.0000,0.0000,0.0000,0.0000,0.0000,0.0000,0.0000,0.0000,1.0000,0.0000,0.0000,0.0000,0.0000,0.0000,0.0000,0.0000,0.0000,0.0000,0.0000,0.0000,-0.0000,-0.0058,0.0050,0.0538,0.0000,0.0000,-0.6003,0.7085,0.6642,0.7062,0.6892,0.6326,0.5737,0.6218,0.5730,5
34,35,1180131418267,-10.4338,-0.1365,-0.1527,-0.1190,0.0610,-0.0090,1.1765,6817.5044,6379.0757,6799.5083,6636.0688,12.0380,0.0000,1.5259,-1.1597,-0.2441,-9.8842,0.0887,13.6840,0.0252,-0.0176,-0.0204,0.0000,0.0000,0.0000,0.0000,0.0000,0.0000,0.0000,0.0000,0.0000,0.0000,0.0000,0.0000,0.0000,0.0000,1.0000,0.0000,0.0000,0.0000,0.0000,0.0000,0.0000,0.0000,0.0000,0.0000,0.0000,0.0000,-0.0000,-0.0113,0.0101,0.0546,0.0000,0.0000,-0.6003,0.7085,0.6642,0.7062,0.6892,0.6382,0.5736,0.6169,0.5724,5
35,35,1180136428272,-10.4338,-0.1365,-0.1527,-0.1190,0.0610,-0.0090,1.1765,6817.5044,6379.0757,6799.5083,6636.0688,12.0380,0.0000,1.8311,-1.9531,-1.0986,-10.7927,4.8378,17.3360,0.0254,-0.0187,-0.0205,0.0000,0.0000,0.0000,0.0000,0.0000,0.0000,0.0000,0.0000,0.0000,0.0000,0.0000,0.0000,0.0000,0.0000,1.0000,0.0000,0.0000,0.0000,0.0000,0.0000,0.0000,0.0000,0.0000,0.0000,0.0000,0.0000,-0.0000,-0.0111,0.0154,0.0557,0.0000,0.0000,-0.6003,0.7085,0.6642,0.7062,0.6892,0.6414,0.5703,0.6149,0.5745,5
36,35,1181061975388,-10.4724,-0.1456,-0.1157,-0.0590,0.1110,0.0310,1.1765,6889.6069,6495.0493,6746.3120,6520.9272,12.0378,0.0000,1.4648,-2.0752,0.3052,-8.7676,11.8884,15.3644,0.0251,-0.0200,-0.0204,0.0000,0.0000,0.0000,0.0000,0.0000,0.0000,0.0000,0.0000,0.0000,0.0000,0.0000,0.0000,0.0000,0.0000,1.0000,0.0000,0.0000,0.0000,0.0000,0.0000,0.0000,0.0000,0.0000,0.0000,0.0000,0.0000,-0.0000,-0.0081,0.0198,0.0557,0.0000,0.0000,-0.6003,0.7186,0.6758,0.6998,0.6781,0.6421,0.5666,0.6142,0.5783,5
37,35,1181121121676,-10.5402,-0.1052,-0.1033,-0.1290,0.1510,-0.0390,1.1765,6897.3018,6484.0347,6755.1680,6551.4995,12.0385,0.0000,0.6714,3.1128,0.1221,8.6839,-18.4619,-30.0032,0.0263,-0.0208,-0.0204,0.0000,0.0000,0.0000,0.0000,0.0000,0.0000,0.0000,0.0000,0.0000,0.0000,0.0000,0.0000,0.0000,0.0000,1.0000,0.0000,0.0000,0.0000,0.0000,0.0000,0.0000,0.0000,0.0000,0.0000,0.0000,0.0000,-0.0000,-0.0148,0.0202,0.0551,0.0000,0.0000,-0.6003,0.7183,0.6746,0.7009,0.6811,0.6454,0.5701,0.6104,0.5754,5
38,35,1181125922509,-10.5402,-0.1052,-0.1033,-0.1290,0.1510,-0.0390,1.1765,6897.3018,6484.0347,6755.1680,6551.4995,12.0395,0.0000,0.7324,3.4180,0.3662,4.4424,-18.1167,-26.6616,0.0281,-0.0196,-0.0204,0.0000,0.0000,0.0000,0.0000,0.0000,0.0000,0.0000,0.0000,0.0000,0.0000,0.0000,0.0000,0.0000,0.0000,1.0000,0.0000,0.0000,0.0000,0.0000,0.0000,0.0000,0.0000,0.0000,0.0000,0.0000,0.0000,-0.0000,-0.0232,0.0083,0.0553,0.0000,0.0000,-0.6004,0.7183,0.6746,0.7009,0.6811,0.6438,0.5801,0.6122,0.5653,5
39,35,1181130826700,-10.5402,-0.1052,-0.1033,-0.1290,0.1510,-0.0390,1.1765,6897.3018,6476.9897,6755.1680,6551.4995,12.0387,0.0000,1.4648,1.5259,-0.2441,-2.8883,-16.0334,-17.6797,0.0299,-0.0189,-0.0204,0.0000,0.0000,0.0000,0.0000,0.0000,0.0000,0.0000,0.0000,0.0000,0.0000,0.0000,0.0000,0.0000,0.0000,1.0000,0.0000,0.0000,0.0000,0.0000,0.0000,0.0000,0.0000,0.0000,0.0000,0.0000,0.0000,-0.0000,-0.0293,0.0037,0.0559,0.0000,0.0000,-0.6004,0.7183,0.6746,0.7009,0.6811,0.6448,0.5852,0.6119,0.5596,5
40,35,1181135803671,-10.5402,-0.1052,-0.1033,-0.1290,0.1510,-0.0390,1.1765,6897.3018,6476.9897,6755.1680,6551.4995,12.0375,0.0000,1.0376,0.0000,-0.3052,-6.6444,-12.2840,-6.4016,0.0315,-0.0192,-0.0205,0.0000,0.0000,0.0000,0.0000,0.0000,0.0000,0.0000,0.0000,0.0000,0.0000,0.0000,0.0000,0.0000,0.0000,1.0000,0.0000,0.0000,0.0000,0.0000,0.0000,0.0000,0.0000,0.0000,0.0000,0.0000,0.0000,-0.0000,-0.0324,0.0056,0.0565,0.0000,0.0000,-0.6004,0.7183,0.6746,0.7009,0.6811,0.6477,0.5855,0.6097,0.5588,5
41,35,1181140843590,-10.5402,-0.1052,-0.1033,-0.1290,0.1510,-0.0390,1.1765,6897.3018,6476.9897,6732.7192,6551.4995,12.0368,0.0000,1.5869,-0.6714,-0.4272,-8.2631,-6.3865,4.2129,0.0328,-0.0199,-0.0205,0.0000,0.0000,0.0000,0.0000,0.0000,0.0000,0.0000,0.0000,0.0000,0.0000,0.0000,0.0000,0.0000,0.0000,1.0000,0.0000,0.0000,0.0000,0.0000,0.0000,0.0000,0.0000,0.0000,0.0000,0.0000,0.0000,-0.0000,-0.0329,0.0097,0.0571,0.0000,0.0000,-0.6004,0.7183,0.6746,0.7009,0.6811,0.6503,0.5835,0.6077,0.5603,5
42,35,1181145855472,-10.5402,-0.1052,-0.1033,-0.1290,0.1510,-0.0390,1.1765,6897.3018,6476.9897,6732.7192,6551.4995,12.0368,0.0000,1.7700,-1.8921,-0.8545,-8.9756,-0.1103,12.0108,0.0336,-0.0208,-0.0206,0.0000,0.0000,0.0000,0.0000,0.0000,0.0000,0.0000,0.0000,0.0000,0.0000,0.0000,0.0000,0.0000,0.0000,1.0000,0.0000,0.0000,0.0000,0.0000,0.0000,0.0000,0.0000,0.0000,0.0000,0.0000,0.0000,-0.0000,-0.0302,0.0143,0.0579,0.0000,0.0000,-0.6005,0.7183,0.6746,0.7009,0.6811,0.6517,0.5795,0.6072,0.5635,5
43,35,1181150844108,-10.5016,-0.1300,-0.1103,-0.1290,0.1510,-0.0390,1.1765,6897.3018,6476.9897,6732.7192,6431.9287,12.0356,0.0000,1.9531,-1.9531,-0.6714,-7.5602,5.2957,15.0350,0.0338,-0.0219,-0.0207,0.0000,0.0000,0.0000,0.0000,0.0000,0.0000,0.0000,0.0000,0.0000,0.0000,0.0000,0.0000,0.0000,0.0000,1.0000,0.0000,0.0000,0.0000,0.0000,0.0000,0.0000,0.0000,0.0000,0.0000,0.0000,0.0000,-0.0000,-0.0251,0.0180,0.0584,0.0000,0.0000,-0.6005,0.7192,0.6739,0.6985,0.6696,0.6512,0.5748,0.6081,0.5678,5
44,35,1181155890567,-10.5016,-0.1300,-0.1103,-0.1390,0.1710,0.0010,1.1765,6897.3018,6476.9897,6732.7192,6431.9287,12.0353,0.0000,1.0986,-0.6104,-0.1221,-7.0844,11.8956,13.9442,0.0334,-0.0227,-0.0207,0.0000,0.0000,0.0000,0.0000,0.0000,0.0000,0.0000,0.0000,0.0000,0.0000,0.0000,0.0000,0.0000,0.0000,1.0000,0.0000,0.0000,0.0000,0.0000,0.0000,0.0000,0.0000,0.0000,0.0000,0.0000,0.0000,-0.0000,-0.0180,0.0192,0.0583,0.0000,0.0000,-0.6005,0.7192,0.6739,0.6985,0.6696,0.6482,0.5707,0.6110,0.5720,5
45,35,1181613230189,-10.3946,0.1230,-0.1851,-0.0290,-0.0190,-0.0390,1.1765,6908.1187,6479.6479,6704.4072,6486.6450,12.0344,0.0000,0.9155,-1.4648,0.3662,-3.5266,14.3984,6.4589,0.0324,-0.0236,-0.0207,0.0000,0.0000,0.0000,0.0000,0.0000,0.0000,0.0000,0.0000,0.0000,0.0000,0.0000,0.0000,0.0000,0.0000,1.0000,0.0000,0.0000,0.0000,0.0000,0.0000,0.0000,0.0000,0.0000,0.0000,0.0000,0.0000,-0.0000,-0.0091,0.0203,0.0577,0.0000,0.0000,-0.6005,0.7205,0.6741,0.6958,0.6748,0.6440,0.5660,0.6146,0.5772,5
46,35,1181670797321,-10.5603,-0.0046,-0.1338,-0.0190,0.0210,-0.0090,1.1765,6885.9922,6454.0220,6726.4951,6518.6655,12.0353,0.0000,-0.3052,0.3662,0.1831,9.0856,-10.2534,-20.1883,0.0317,-0.0196,-0.0204,0.0000,0.0000,0.0000,0.0000,0.0000,0.0000,0.0000,0.0000,0.0000,0.0000,0.0000,0.0000,0.0000,0.0000,1.0000,0.0000,0.0000,0.0000,0.0000,0.0000,0.0000,0.0000,0.0000,0.0000,0.0000,0.0000,-0.0000,-0.0049,-0.0078,0.0557,0.0000,0.0000,-0.6004,0.7178,0.6718,0.6979,0.6779,0.6268,0.5789,0.6297,0.5662,5
47,35,1181675694055,-10.5603,-0.0046,-0.1338,-0.0190,0.0210,-0.0090,1.1765,6885.9922,6454.0220,6726.4951,6518.6655,12.0358,0.0000,0.3052,-0.6714,-0.9766,5.8100,-12.2744,-10.1753,0.0327,-0.0188,-0.0206,0.0000,0.0000,0.0000,0.0000,0.0000,0.0000,0.0000,0.0000,0.0000,0.0000,0.0000,0.0000,0.0000,0.0000,1.0000,0.0000,0.0000,0.0000,0.0000,0.0000,0.0000,0.0000,0.0000,0.0000,0.0000,0.0000,-0.0000,-0.0120,-0.0089,0.0568,0.0000,0.0000,-0.6004,0.7178,0.6718,0.6979,0.6779,0.6304,0.5824,0.6273,0.5616,5
48,35,1181680693647,-10.5603,-0.0046,-0.1338,-0.0190,0.0210,-0.0090,1.1765,6885.9922,6454.0220,6725.2324,6518.6655,12.0365,0.0000,1.8921,0.4272,0.7324,1.4130,-12.5237,-0.8115,0.0340,-0.0182,-0.0205,0.0000,0.0000,0.0000,0.0000,0.0000,0.0000,0.0000,0.0000,0.0000,0.0000,0.0000,0.0000,0.0000,0.0000,1.0000,0.0000,0.0000,0.0000,0.0000,0.0000,0.0000,0.0000,0.0000,0.0000,0.0000,0.0000,-0.0000,-0.0191,-0.0082,0.0565,0.0000,0.0000,-0.6004,0.7178,0.6718,0.6979,0.6779,0.6341,0.5858,0.6233,0.5586,5
49,35,1181685667160,-10.5603,-0.0046,-0.1338,-0.0190,0.0210,-0.0090,1.1765,6885.9922,6454.0220,6725.2324,6518.6655,12.0375,0.0000,1.6479,2.0142,-0.3052,-2.1184,-12.5093,8.2276,0.0354,-0.0178,-0.0206,0.0000,0.0000,0.0000,0.0000,0.0000,0.0000,0.0000,0.0000,0.0000,0.0000,0.0000,0.0000,0.0000,0.0000,1.0000,0.0000,0.0000,0.0000,0.0000,0.0000,0.0000,0.0000,0.0000,0.0000,0.0000,0.0000,-0.0000,-0.0242,-0.0060,0.0569,0.0000,0.0000,-0.6005,0.7178,0.6718,0.6979,0.6779,0.6381,0.5871,0.6198,0.5569,5
50,35,1181709712445,-10.3950,-0.0058,-0.2216,-0.0390,0.0010,-0.0390,1.1765,6852.7300,6572.4302,6752.9424,6400.8979,12.0385,0.0000,2.4414,0.1831,1.1597,-4.1005,-8.1893,16.5793,0.0368,-0.0180,-0.0205,0.0000,0.0000,0.0000,0.0000,0.0000,0.0000,0.0000,0.0000,0.0000,0.0000,0.0000,0.0000,0.0000,0.0000,1.0000,0.0000,0.0000,0.0000,0.0000,0.0000,0.0000,0.0000,0.0000,0.0000,0.0000,0.0000,-0.0000,-0.0285,-0.0014,0.0563,0.0000,0.0000,-0.6005,0.7134,0.6831,0.7006,0.6665,0.6422,0.5873,0.6151,0.5574,5
51,35,1181983970384,-10.3955,0.1993,-0.0970,-0.0290,-0.0590,-0.0890,1.1765,6877.0820,6574.1787,6728.0830,6404.7197,12.0392,0.0000,0.4272,-0.4883,0.3052,-12.7437,3.2724,19.7825,0.0388,-0.0205,-0.0204,0.0000,0.0000,0.0000,0.0000,0.0000,0.0000,0.0000,0.0000,0.0000,0.0000,0.0000,0.0000,0.0000,0.0000,1.0000,0.0000,0.0000,0.0000,0.0000,0.0000,0.0000,0.0000,0.0000,0.0000,0.0000,0.0000,-0.0000,-0.0346,0.0158,0.0559,0.0000,0.0000,-0.6006,0.7165,0.6832,0.6981,0.6669,0.6538,0.5820,0.6034,0.5632,5
52,35,1182065934457,-10.4520,-0.1010,-0.1681,-0.0290,-0.0390,-0.0790,1.1765,6938.9111,6549.2510,6668.4028,6442.8213,12.0399,0.0000,-1.8921,1.7090,-0.7324,12.2440,-9.4719,-38.0112,0.0306,-0.0198,-0.0206,0.0000,0.0000,0.0000,0.0000,0.0000,0.0000,0.0000,0.0000,0.0000,0.0000,0.0000,0.0000,0.0000,0.0000,1.0000,0.0000,0.0000,0.0000,0.0000,0.0000,0.0000,0.0000,0.0000,0.0000,0.0000,0.0000,-0.0000,0.0227,0.0081,0.0571,0.0000,0.0000,-0.6004,0.7252,0.6808,0.6923,0.6706,0.6216,0.5565,0.6362,0.5872,5
53,35,1183060380372,-10.3959,0.1713,-0.1406,-0.0390,0.0410,-0.0690,1.1765,6764.3291,6399.5601,6844.7021,6574.3486,12.0404,0.0000,-0.7935,1.7090,2.3193,3.9714,-15.2974,-1.2674,0.0313,-0.0184,-0.0204,0.0000,0.0000,0.0000,0.0000,0.0000,0.0000,0.0000,0.0000,0.0000,0.0000,0.0000,0.0000,0.0000,0.0000,1.0000,0.0000,0.0000,0.0000,0.0000,0.0000,0.0000,0.0000,0.0000,0.0000,0.0000,0.0000,-0.0000,0.0085,-0.0013,0.0554,0.0000,0.0000,-0.6004,0.7021,0.6664,0.7124,0.6833,0.6232,0.5691,0.6330,0.5763,5
53,35,1183060380372,-10.4057,0.0619,-0.2081,-0.0990,-0.0290,-0.0690,1.1765,6777.3735,6476.0879,6830.9385,6516.7397,12.0411,0.0000,1.5259,0.7324,-0.7324,0.3204,-11.9148,-13.8344,0.0312,-0.0245,-0.0210,0.0000,0.0000,0.0000,0.0000,0.0000,0.0000,0.0000,0.0000,0.0000,0.0000,0.0000,0.0000,0.0000,0.0000,1.0000,0.0000,0.0000,0.0000,0.0000,0.0000,0.0000,0.0000,0.0000,0.0000,0.0000,0.0000,-0.0000,0.0085,-0.0013,0.0554,0.0000,0.0000,-0.6004,-0.1000,-0.1000,-0.1000,-0.1000,0.6232,0.5691,0.6330,0.5763,5
53,35,1183060380372,-10.4057,0.0619,-0.2081,-0.0790,-0.0590,-0.0190,1.1765,6777.3735,6476.0879,6830.9385,6516.7397,12.0525,0.0000,1.4648,0.7935,1.0376,-2.2857,-7.9448,-14.9730,0.0324,-0.0244,-0.0210,0.0000,0.0000,0.0000,0.0000,0.0000,0.0000,0.0000,0.0000,0.0000,0.0000,0.0000,0.0000,0.0000,0.0000,1.0000,0.0000,0.0000,0.0000,0.0000,0.0000,0.0000,0.0000,0.0000,0.0000,0.0000,0.0000,-0.0000,0.0085,-0.0013,0.0554,0.0000,0.0000,-0.6004,-0.1000,-0.1000,-0.1000,-0.1000,0.6232,0.5691,0.6330,0.5763,5
53,35,1183060380372,-10.4057,0.0619,-0.2081,-0.0790,-0.0590,-0.0190,1.1765,6777.3735,6476.0879,6830.9385,6516.7397,12.0636,0.0000,1.0986,1.6479,-1.0376,-5.1477,-0.5802,-11.8366,0.0332,-0.0244,-0.0211,0.0000,0.0000,0.0000,0.0000,0.0000,0.0000,0.0000,0.0000,0.0000,0.0000,0.0000,0.0000,0.0000,0.0000,1.0000,0.0000,0.0000,0.0000,0.0000,0.0000,0.0000,0.0000,0.0000,0.0000,0.0000,0.0000,-0.0000,0.0085,-0.0013,0.0554,0.0000,0.0000,-0.6004,-0.1000,-0.1000,-0.1000,-0.1000,0.6232,0.5691,0.6330,0.5763,5
53,35,1183060380372,-10.4057,0.0619,-0.2081,-0.0790,-0.0590,-0.0190,1.1765,6780.9932,6476.0879,6830.9385,6516.7397,12.0735,0.0000,0.2441,0.0000,-0.0000,-7.6630,6.7437,-7.3659,0.0333,-0.0249,-0.0211,0.0000,0.0000,0.0000,0.0000,0.0000,0.0000,0.0000,0.0000,0.0000,0.0000,0.0000,0.0000,0.0000,0.0000,1.0000,0.0000,0.0000,0.0000,0.0000,0.0000,0.0000,0.0000,0.0000,0.0000,0.0000,0.0000,-0.0000,0.0085,-0.0013,0.0554,0.0000,0.0000,-0.6004,-0.1000,-0.1000,-0.1000,-0.1000,0.6232,0.5691,0.6330,0.5763,5
53,35,1183060380372,-10.4057,0.0619,-0.2081,-0.0790,-0.0590,-0.0190,1.1765,6780.9932,6476.0879,6830.9385,6516.7397,12.0832,0.0000,0.4883,-0.4272,-0.7935,-10.5058,12.8593,-2.2914,0.0326,-0.0256,-0.0211,0.0000,0.0000,0.0000,0.0000,0.0000,0.0000,0.0000,0.0000,0.0000,0.0000,0.0000,0.0000,0.0000,0.0000,1.0000,0.0000,0.0000,0.0000,0.0000,0.0000,0.0000,0.0000,0.0000,0.0000,0.0000,0.0000,-0.0000,0.0085,-0.0013,0.0554,0.0000,0.0000,-0.6004,-0.1000,-0.1000,-0.1000,-0.1000,0.6232,0.5691,0.6330,0.5763,5
53,35,1183060380372,-10.4057,0.0619,-0.2081,-0.0790,-0.0590,-0.0190,1.1765,6780.9932,6479.8638,6830.9385,6516.7397,12.0936,0.0000,0.0000,-2.1362,-0.3662,-8.7556,16.6543,-2.3988,0.0314,-0.0268,-0.0211,0.0000,0.0000,0.0000,0.0000,0.0000,0.0000,0.0000,0.0000,0.0000,0.0000,0.0000,0.0000,0.0000,0.0000,1.0000,0.0000,0.0000,0.0000,0.0000,0.0000,0.0000,0.0000,0.0000,0.0000,0.0000,0.0000,-0.0000,0.0085,-0.0013,0.0554,0.0000,0.0000,-0.6004,-0.1000,-0.1000,-0.1000,-0.1000,0.6232,0.5691,0.6330,0.5763,5
53,35,1183060380372,-10.4057,0.0619,-0.2081,-0.0790,-0.0590,-0.0190,1.1765,6780.9932,6479.8638,6830.9385,6516.7397,12.1040,0.0000,-0.7935,-4.1504,-0.6714,-3.2278,18.9006,-5.0005,0.0297,-0.0280,-0.0212,0.0000,0.0000,0.0000,0.0000,0.0000,0.0000,0.0000,0.0000,0.0000,0.0000,0.0000,0.0000,0.0000,0.0000,1.0000,0.0000,0.0000,0.0000,0.0000,0.0000,0.0000,0.0000,0.0000,0.0000,0.0000,0.0000,-0.0000,0.0085,-0.0013,0.0554,0.0000,0.0000,-0.6004,-0.1000,-0.1000,-0.1000,-0.1000,0.6232,0.5691,0.6330,0.5763,5
53,35,1183060380372,-10.4057,0.0619,-0.2081,-0.0790,-0.0590,-0.0190,1.1765,6780.9932,6479.8638,6834.4883,6516.7397,12.1146,0.0000,-1.4648,-2.7466,0.2441,4.4448,15.2255,-11.4165,0.0278,-0.0285,-0.0211,0.0000,0.0000,0.0000,0.0000,0.0000,0.0000,0.0000,0.0000,0.0000,0.0000,0.0000,0.0000,0.0000,0.0000,1.0000,0.0000,0.0000,0.0000,0.0000,0.0000,0.0000,0.0000,0.0000,0.0000,0.0000,0.0000,-0.0000,0.0085,-0.0013,0.0554,0.0000,0.0000,-0.6004,-0.1000,-0.1000,-0.1000,-0.1000,0.6232,0.5691,0.6330,0.5763,5
53,35,1183060380372,-10.4311,-0.1488,-0.1424,-0.0590,0.0610,-0.0390,1.1765,6777.1216,6476.0400,6830.5547,6516.6650,12.1248,0.0000,-2.0752,-0.2441,0.7935,10.6827,7.5684,-19.0593,0.0261,-0.0281,-0.0210,0.0000,0.0000,0.0000,0.0000,0.0000,0.0000,0.0000,0.0000,0.0000,0.0000,0.0000,0.0000,0.0000,0.0000,1.0000,0.0000,0.0000,0.0000,0.0000,0.0000,0.0000,0.0000,0.0000,0.0000,0.0000,0.0000,-0.0000,0.0085,-0.0013,0.0554,0.0000,0.0000,-0.6004,-0.1000,-0.1000,-0.1000,-0.1000,0.6232,0.5691,0.6330,0.5763,5
53,35,1183060380372,-10.3946,0.1149,-0.1901,-0.0590,-0.0490,-0.0790,1.1765,6773.9355,6472.7466,6829.5991,6514.8501,12.1352,0.0000,-1.7090,-1.4648,-7.2632,-0.6145,4.6772,-11.7602,0.0270,-0.0263,-0.0217,0.0000,0.0000,0.0000,0.0000,0.0000,0.0000,0.0000,0.0000,0.0000,0.0000,0.0000,0.0000,0.0000,0.0000,1.0000,0.0000,0.0000,0.0000,0.0000,0.0000,0.0000,0.0000,0.0000,0.0000,0.0000,0.0000,-0.0000,0.0085,-0.0013,0.0554,0.0000,0.0000,-0.6004,-0.1000,-0.1000,-0.1000,-0.1000,0.6232,0.5691,0.6330,0.5763,5
53,35,1183060380372,-10.3946,0.1149,-0.1901,-0.0590,-0.0490,-0.0790,1.1765,6773.9355,6472.7466,6829.5991,6514.8501,12.1453,0.0000,1.4648,1.4038,6.5308,4.9421,-5.9046,-9.2062,0.0266,-0.0262,-0.0212,0.0000,0.0000,0.0000,0.0000,0.0000,0.0000,0.0000,0.0000,0.0000,0.0000,0.0000,0.0000,0.0000,0.0000,1.0000,0.0000,0.0000,0.0000,0.0000,0.0000,0.0000,0.0000,0.0000,0.0000,0.0000,0.0000,-0.0000,0.0085,-0.0013,0.0554,0.0000,0.0000,-0.6004,-0.1000,-0.1000,-0.1000,-0.1000,0.6232,0.5691,0.6330,0.5763,5
53,35,1183060380372,-10.3946,0.1149,-0.1901,-0.0590,-0.0490,-0.0790,1.1765,6773.9355,6472.7466,6827.4136,6514.8501,12.1557,0.0000,-1.8311,-0.4272,-4.2114,-8.3133,4.8091,-11.5335,0.0271,-0.0257,-0.0216,0.0000,0.0000,0.0000,0.0000,0.0000,0.0000,0.0000,0.0000,0.0000,0.0000,0.0000,0.0000,0.0000,0.0000,1.0000,0.0000,0.0000,0.0000,0.0000,0.0000,0.0000,0.0000,0.0000,0.0000,0.0000,0.0000,-0.0000,0.0085,-0.0013,0.0554,0.0000,0.0000,-0.6004,-0.1000,-0.1000,-0.1000,-0.1000,0.6232,0.5691,0.6330,0.5763,5
53,35,1183060380372,-10.3946,0.1149,-0.1901,-0.0590,-0.0490,-0.0790,1.1765,6773.9355,6472.7466,6827.4136,6514.8501,12.1649,0.0000,0.4883,-2.2583,0.9766,7.4478,-3.3826,-10.3018,0.0266,-0.0267,-0.0215,0.0000,0.0000,0.0000,0.0000,0.0000,0.0000,0.0000,0.0000,0.0000,0.0000,0.0000,0.0000,0.0000,0.0000,1.0000,0.0000,0.0000,0.0000,0.0000,0.0000,0.0000,0.0000,0.0000,0.0000,0.0000,0.0000,-0.0000,0.0085,-0.0013,0.0554,0.0000,0.0000,-0.6004,-0.1000,-0.1000,-0.1000,-0.1000,0.6232,0.5691,0.6330,0.5763,5
53,35,1183060380372,-10.4295,0.1343,-0.1571,-0.1290,-0.1090,-0.0790,1.1765,6784.9702,6483.2627,6838.8623,6523.9727,12.1731,0.0000,-0.2441,4.0894,1.7700,-5.5924,-0.0767,-9.8722,0.0269,-0.0256,-0.0213,0.0000,0.0000,0.0000,0.0000,0.0000,0.0000,0.0000,0.0000,0.0000,0.0000,0.0000,0.0000,0.0000,0.0000,1.0000,0.0000,0.0000,0.0000,0.0000,0.0000,0.0000,0.0000,0.0000,0.0000,0.0000,0.0000,-0.0000,0.0085,-0.0013,0.0554,0.0000,0.0000,-0.6004,-0.1000,-0.1000,-0.1000,-0.1000,0.6232,0.5691,0.6330,0.5763,5
53,35,1183060380372,-10.3945,0.1183,-0.1880,-0.6490,0.6910,0.0010,1.1765,6888.5039,6595.3213,6828.1924,6513.8276,12.1811,0.0000,-2.9907,0.1221,3.7842,-0.9659,-2.8936,-13.5337,0.0264,-0.0253,-0.0214,0.0000,0.0000,0.0000,0.0000,0.0000,0.0000,0.0000,0.0000,0.0000,0.0000,0.0000,0.0000,0.0000,0.0000,1.0000,0.0000,0.0000,0.0000,0.0000,0.0000,0.0000,0.0000,0.0000,0.0000,0.0000,0.0000,-0.0000,0.0085,-0.0013,0.0554,0.0000,0.0000,-0.6004,-0.1000,-0.1000,-0.1000,-0.1000,0.6232,0.5691,0.6330,0.5763,5
53,35,1183060380372,-10.4201,-0.0482,-0.2061,-0.7390,0.1210,0.3710,1.1765,6878.6758,6588.4941,6933.3809,6626.0679,12.1898,0.0000,3.1738,-2.1362,-1.3428,1.4943,-0.4075,-8.6429,0.0269,-0.0255,-0.0215,0.0000,0.0000,0.0000,0.0000,0.0000,0.0000,0.0000,0.0000,0.0000,0.0000,0.0000,0.0000,0.0000,0.0000,1.0000,0.0000,0.0000,0.0000,0.0000,0.0000,0.0000,0.0000,0.0000,0.0000,0.0000,0.0000,-0.0000,0.0085,-0.0013,0.0554,0.0000,0.0000,-0.6004,-0.1000,-0.1000,-0.1000,-0.1000,0.6232,0.5691,0.6330,0.5763,5
53,35,1183060380372,-10.4102,-0.0499,-0.2107,-0.7890,0.1310,0.4110,1.1765,6895.9727,6605.7686,6950.6763,6647.5166,12.1997,0.0000,0.3052,0.0000,0.1831,-0.5260,-0.4267,-10.8293,0.0263,-0.0254,-0.0216,0.0000,0.0000,0.0000,0.0000,0.0000,0.0000,0.0000,0.0000,0.0000,0.0000,0.0000,0.0000,0.0000,0.0000,1.0000,0.0000,0.0000,0.0000,0.0000,0.0000,0.0000,0.0000,0.0000,0.0000,0.0000,0.0000,-0.0000,0.0085,-0.0013,0.0554,0.0000,0.0000,-0.6004,-0.1000,-0.1000,-0.1000,-0.1000,0.6232,0.5691,0.6330,0.5763,5
53,35,1183060380372,-10.4769,-0.1675,-0.0750,-0.0590,0.1310,-0.0390,1.1765,6785.1807,6483.7231,6838.9150,6524.3989,12.2096,0.0000,0.0000,0.8545,-0.4883,0.4328,-0.3308,-10.9272,0.0263,-0.0253,-0.0216,0.0000,0.0000,0.0000,0.0000,0.0000,0.0000,0.0000,0.0000,0.0000,0.0000,0.0000,0.0000,0.0000,0.0000,1.0000,0.0000,0.0000,0.0000,0.0000,0.0000,0.0000,0.0000,0.0000,0.0000,0.0000,0.0000,-0.0000,0.0085,-0.0013,0.0554,0.0000,0.0000,-0.6004,-0.1000,-0.1000,-0.1000,-0.1000,0.6232,0.5691,0.6330,0.5763,5
53,35,1183060380372,-10.4241,-0.2083,-0.0259,-0.0590,0.0310,0.0610,1.1765,6780.2031,6479.6519,6941.0083,6637.6011,12.2203,0.0000,-0.0610,-0.1831,0.7324,0.0717,-1.0980,-10.4522,0.0257,-0.0251,-0.0217,0.0000,0.0000,0.0000,0.0000,0.0000,0.0000,0.0000,0.0000,0.0000,0.0000,0.0000,0.0000,0.0000,0.0000,1.0000,0.0000,0.0000,0.0000,0.0000,0.0000,0.0000,0.0000,0.0000,0.0000,0.0000,0.0000,-0.0000,0.0085,-0.0013,0.0554,0.0000,0.0000,-0.6004,-0.1000,-0.1000,-0.1000,-0.1000,0.6232,0.5691,0.6330,0.5763,5
53,35,1183060380372,-10.4241,-0.2083,-0.0259,-0.0590,0.0310,0.0610,1.1765,6780.2031,6479.6519,6833.3462,6637.6011,12.2307,0.0000,-0.6714,-0.1831,-0.7935,-0.1578,0.8055,-10.4283,0.0257,-0.0251,-0.0217,0.0000,0.0000,0.0000,0.0000,0.0000,0.0000,0.0000,0.0000,0.0000,0.0000,0.0000,0.0000,0.0000,0.0000,1.0000,0.0000,0.0000,0.0000,0.0000,0.0000,0.0000,0.0000,0.0000,0.0000,0.0000,0.0000,-0.0000,0.0085,-0.0013,0.0554,0.0000,0.0000,-0.6004,-0.1000,-0.1000,-0.1000,-0.1000,0.6232,0.5691,0.6330,0.5763,5
53,35,1183060380372,-10.5651,-0.0945,-0.0899,-0.6890,0.7210,-0.0190,1.1765,6891.8433,6598.3042,6947.1343,6640.5024,12.2420,0.0000,0.2441,-0.7935,0.8545,-0.4447,-0.6545,-10.4975,0.0256,-0.0252,-0.0217,0.0000,0.0000,0.0000,0.0000,0.0000,0.0000,0.0000,0.0000,0.0000,0.0000,0.0000,0.0000,0.0000,0.0000,1.0000,0.0000,0.0000,0.0000,0.0000,0.0000,0.0000,0.0000,0.0000,0.0000,0.0000,0.0000,-0.0000,0.0085,-0.0013,0.0554,0.0000,0.0000,-0.6004,-0.1000,-0.1000,-0.1000,-0.1000,0.6232,0.5691,0.6330,0.5763,5
53,35,1183060380372,-10.5688,-0.0936,-0.0870,-0.6890,0.8010,0.0310,1.1765,6902.1538,6608.0342,6957.5444,6650.3140,12.2425,0.0000,-0.2441,-0.3662,0.1221,-0.0478,-0.2038,-10.8293,0.0250,-0.0251,-0.0218,0.0000,0.0000,0.0000,0.0000,0.0000,0.0000,0.0000,0.0000,0.0000,0.0000,0.0000,0.0000,0.0000,0.0000,1.0000,0.0000,0.0000,0.0000,0.0000,0.0000,0.0000,0.0000,0.0000,0.0000,0.0000,0.0000,-0.0000,0.0085,-0.0013,0.0554,0.0000,0.0000,-0.6004,-0.1000,-0.1000,-0.1000,-0.1000,0.6232,0.5691,0.6330,0.5763,5
53,35,1183060380372,-10.5689,-0.0922,-0.0884,-0.8190,0.8510,-0.0090,1.1765,6915.9414,6620.9331,6971.4844,6663.3335,12.2430,0.0000,-0.3052,-0.2441,-0.0610,-0.0574,0.0455,-10.8245,0.0250,-0.0251,-0.0218,0.0000,0.0000,0.0000,0.0000,0.0000,0.0000,0.0000,0.0000,0.0000,0.0000,0.0000,0.0000,0.0000,0.0000,1.0000,0.0000,0.0000,0.0000,0.0000,0.0000,0.0000,0.0000,0.0000,0.0000,0.0000,0.0000,-0.0000,0.0085,-0.0013,0.0554,0.0000,0.0000,-0.6004,-0.1000,-0.1000,-0.1000,-0.1000,0.6232,0.5691,0.6330,0.5763,5
53,35,1183060380372,-10.4147,-0.2139,-0.0147,-0.0590,0.1710,0.0110,1.1765,6796.2368,6494.5913,6850.1821,6647.7891,12.2435,0.0000,-0.3052,-0.3052,0.6714,0.1172,-0.1295,-10.6718,0.0246,-0.0250,-0.0218,0.0000,0.0000,0.0000,0.0000,0.0000,0.0000,0.0000,0.0000,0.0000,0.0000,0.0000,0.0000,0.0000,0.0000,1.0000,0.0000,0.0000,0.0000,0.0000,0.0000,0.0000,0.0000,0.0000,0.0000,0.0000,0.0000,-0.0000,0.0085,-0.0013,0.0554,0.0000,0.0000,-0.6004,-0.1000,-0.1000,-0.1000,-0.1000,0.6232,0.5691,0.6330,0.5763,5
53,35,1183060380372,-10.4147,-0.0993,-0.1888,-0.0790,0.0410,0.0510,1.1765,6783.7227,6482.9224,6837.0376,6523.5083,12.2447,0.0000,-0.0610,-0.6104,-0.3662,-0.4256,-0.0312,-10.6121,0.0246,-0.0250,-0.0218,0.0000,0.0000,0.0000,0.0000,0.0000,0.0000,0.0000,0.0000,0.0000,0.0000,0.0000,0.0000,0.0000,0.0000,1.0000,0.0000,0.0000,0.0000,0.0000,0.0000,0.0000,0.0000,0.0000,0.0000,0.0000,0.0000,-0.0000,0.0085,-0.0013,0.0554,0.0000,0.0000,-0.6004,-0.1000,-0.1000,-0.1000,-0.1000,0.6232,0.5691,0.6330,0.5763,5
53,35,1183060380372,-10.5693,-0.1017,-0.0768,-0.0390,0.0710,0.0010,1.1765,6780.9502,6479.9551,6839.3862,6525.2158,12.2457,0.0000,0.0000,-0.1221,-0.0000,-0.2463,-0.1630,-10.6145,0.0246,-0.0249,-0.0219,0.0000,0.0000,0.0000,0.0000,0.0000,0.0000,0.0000,0.0000,0.0000,0.0000,0.0000,0.0000,0.0000,0.0000,1.0000,0.0000,0.0000,0.0000,0.0000,0.0000,0.0000,0.0000,0.0000,0.0000,0.0000,0.0000,-0.0000,0.0085,-0.0013,0.0554,0.0000,0.0000,-0.6004,-0.1000,-0.1000,-0.1000,-0.1000,0.6232,0.5691,0.6330,0.5763,5
53,35,1183060380372,-10.4411,-0.1585,-0.1245,-0.1990,0.2510,0.1310,1.1765,6830.3540,6522.5503,6864.6558,6563.9644,12.2457,0.0000,-0.1221,-0.0610,-0.0610,-0.1291,-0.1366,-10.5954,0.0241,-0.0249,-0.0220,0.0000,0.0000,0.0000,0.0000,0.0000,0.0000,0.0000,0.0000,0.0000,0.0000,0.0000,0.0000,0.0000,0.0000,1.0000,0.0000,0.0000,0.0000,0.0000,0.0000,0.0000,0.0000,0.0000,0.0000,0.0000,0.0000,-0.0000,0.0085,-0.0013,0.0554,0.0000,0.0000,-0.6004,-0.1000,-0.1000,-0.1000,-0.1000,0.6232,0.5691,0.6330,0.5763,5
53,35,1183060380372,-10.4361,-0.1302,-0.1585,-0.0090,0.7910,0.4710,1.1765,6919.0469,6626.8853,6974.0879,6668.9004,12.2452,0.0000,0.0000,0.0000,-0.0000,-0.1769,-0.1223,-10.5453,0.0239,-0.0248,-0.0220,0.0000,0.0000,0.0000,0.0000,0.0000,0.0000,0.0000,0.0000,0.0000,0.0000,0.0000,0.0000,0.0000,0.0000,1.0000,0.0000,0.0000,0.0000,0.0000,0.0000,0.0000,0.0000,0.0000,0.0000,0.0000,0.0000,-0.0000,0.0085,-0.0013,0.0554,0.0000,0.0000,-0.6004,-0.1000,-0.1000,-0.1000,-0.1000,0.6232,0.5691,0.6330,0.5763,5
53,35,1183060380372,-10.4361,-0.1302,-0.1585,-0.0090,0.7910,0.4710,1.1765,6919.0469,6626.8853,6974.0879,6668.9004,12.2447,0.0000,-0.1831,-0.1221,-0.0000,-0.1554,-0.1414,-10.5882,0.0239,-0.0248,-0.0220,0.0000,0.0000,0.0000,0.0000,0.0000,0.0000,0.0000,0.0000,0.0000,0.0000,0.0000,0.0000,0.0000,0.0000,1.0000,0.0000,0.0000,0.0000,0.0000,0.0000,0.0000,0.0000,0.0000,0.0000,0.0000,0.0000,-0.0000,0.0085,-0.0013,0.0554,0.0000,0.0000,-0.6004,-0.1000,-0.1000,-0.1000,-0.1000,0.6232,0.5691,0.6330,0.5763,5
53,35,1183060380372,-10.3978,0.2176,-0.0350,-0.0290,-0.1790,-0.1490,1.1765,6782.1709,6480.1475,6836.2446,6520.8994,12.2445,0.0000,-0.1831,-0.1221,-0.1221,-0.1793,-0.1390,-10.6026,0.0238,-0.0248,-0.0220,0.0000,0.0000,0.0000,0.0000,0.0000,0.0000,0.0000,0.0000,0.0000,0.0000,0.0000,0.0000,0.0000,0.0000,1.0000,0.0000,0.0000,0.0000,0.0000,0.0000,0.0000,0.0000,0.0000,0.0000,0.0000,0.0000,-0.0000,0.0085,-0.0013,0.0554,0.0000,0.0000,-0.6004,-0.1000,-0.1000,-0.1000,-0.1000,0.6232,0.5691,0.6330,0.5763,5
53,35,1183060380372,-10.3984,0.2140,-0.0517,-0.0490,-0.0090,-0.0390,1.1765,6772.7109,6471.8330,6831.7256,6517.1880,12.2437,0.0000,-0.0610,-0.1831,0.3052,-0.1578,-0.1199,-10.5190,0.0230,-0.0246,-0.0221,0.0000,0.0000,0.0000,0.0000,0.0000,0.0000,0.0000,0.0000,0.0000,0.0000,0.0000,0.0000,0.0000,0.0000,1.0000,0.0000,0.0000,0.0000,0.0000,0.0000,0.0000,0.0000,0.0000,0.0000,0.0000,0.0000,-0.0000,0.0085,-0.0013,0.0554,0.0000,0.0000,-0.6004,-0.1000,-0.1000,-0.1000,-0.1000,0.6232,0.5691,0.6330,0.5763,5
53,35,1183060380372,-10.5675,-0.1067,-0.0722,-0.4690,0.6910,0.0110,1.1765,6874.8594,6582.5820,6929.9326,6624.6084,12.2437,0.0000,-0.1831,-0.1831,-0.0000,-0.1817,-0.1438,-10.5715,0.0230,-0.0246,-0.0221,0.0000,0.0000,0.0000,0.0000,0.0000,0.0000,0.0000,0.0000,0.0000,0.0000,0.0000,0.0000,0.0000,0.0000,1.0000,0.0000,0.0000,0.0000,0.0000,0.0000,0.0000,0.0000,0.0000,0.0000,0.0000,0.0000,-0.0000,0.0085,-0.0013,0.0554,0.0000,0.0000,-0.6004,-0.1000,-0.1000,-0.1000,-0.1000,0.6232,0.5691,0.6330,0.5763,5
53,35,1183060380372,-10.5608,-0.1102,-0.0753,-0.7890,0.8210,0.0110,1.1765,6913.0078,6618.3350,6968.4922,6631.6533,12.2437,0.0000,-0.0610,-0.1831,-0.0000,-0.1913,-0.1199,-10.5882,0.0229,-0.0246,-0.0221,0.0000,0.0000,0.0000,0.0000,0.0000,0.0000,0.0000,0.0000,0.0000,0.0000,0.0000,0.0000,0.0000,0.0000,1.0000,0.0000,0.0000,0.0000,0.0000,0.0000,0.0000,0.0000,0.0000,0.0000,0.0000,0.0000,-0.0000,0.0085,-0.0013,0.0554,0.0000,0.0000,-0.6004,-0.1000,-0.1000,-0.1000,-0.1000,0.6232,0.5691,0.6330,0.5763,5
53,35,1183060380372,-10.5214,-0.1044,-0.1200,-0.0090,0.1110,-0.0090,1.1765,6781.3770,6480.4272,6834.7637,6521.0337,12.2428,0.0000,-0.0610,-0.1831,0.1831,-0.1674,-0.1343,-10.5715,0.0229,-0.0246,-0.0221,0.0000,0.0000,0.0000,0.0000,0.0000,0.0000,0.0000,0.0000,0.0000,0.0000,0.0000,0.0000,0.0000,0.0000,1.0000,0.0000,0.0000,0.0000,0.0000,0.0000,0.0000,0.0000,0.0000,0.0000,0.0000,0.0000,-0.0000,0.0085,-0.0013,0.0554,0.0000,0.0000,-0.6004,-0.1000,-0.1000,-0.1000,-0.1000,0.6232,0.5691,0.6330,0.5763,5
53,35,1183060380372,-10.5526,-0.1216,-0.0678,-0.0590,0.0210,0.0210,1.1765,6779.2427,6478.4551,6845.1758,6530.4746,12.2433,0.0000,-0.2441,-0.1831,-0.0000,-0.1602,-0.1319,-10.6431,0.0223,-0.0243,-0.0222,0.0000,0.0000,0.0000,0.0000,0.0000,0.0000,0.0000,0.0000,0.0000,0.0000,0.0000,0.0000,0.0000,0.0000,1.0000,0.0000,0.0000,0.0000,0.0000,0.0000,0.0000,0.0000,0.0000,0.0000,0.0000,0.0000,-0.0000,0.0085,-0.0013,0.0554,0.0000,0.0000,-0.6004,-0.1000,-0.1000,-0.1000,-0.1000,0.6232,0.5691,0.6330,0.5763,5
53,35,1183060380372,-10.5526,-0.1216,-0.0678,-0.0590,0.0210,0.0210,1.1765,6779.2427,6478.4551,6832.5093,6530.4746,12.2433,0.0000,-0.1831,-0.1831,-0.0000,-0.1458,-0.1534,-10.5859,0.0222,-0.0243,-0.0222,0.0000,0.0000,0.0000,0.0000,0.0000,0.0000,0.0000,0.0000,0.0000,0.0000,0.0000,0.0000,0.0000,0.0000,1.0000,0.0000,0.0000,0.0000,0.0000,0.0000,0.0000,0.0000,0.0000,0.0000,0.0000,0.0000,-0.0000,0.0085,-0.0013,0.0554,0.0000,0.0000,-0.6004,-0.1000,-0.1000,-0.1000,-0.1000,0.6232,0.5691,0.6330,0.5763,5
53,35,1183060380372,-10.5156,-0.1623,0.0013,0.0010,0.1210,-0.0190,1.1765,6784.2051,6482.9272,6837.8213,6523.5771,12.2428,0.0000,-0.2441,-0.2441,0.1221,-0.1626,-0.0959,-10.6336,0.0222,-0.0243,-0.0222,0.0000,0.0000,0.0000,0.0000,0.0000,0.0000,0.0000,0.0000,0.0000,0.0000,0.0000,0.0000,0.0000,0.0000,1.0000,0.0000,0.0000,0.0000,0.0000,0.0000,0.0000,0.0000,0.0000,0.0000,0.0000,0.0000,-0.0000,0.0085,-0.0013,0.0554,0.0000,0.0000,-0.6004,-0.1000,-0.1000,-0.1000,-0.1000,0.6232,0.5691,0.6330,0.5763,5
53,35,1183060380372,-10.3946,-0.0886,-0.2036,-0.0690,0.0610,0.0210,1.1765,6783.9404,6482.9360,6825.5918,6511.9043,12.2433,0.0000,0.0000,0.0000,-0.0610,-0.1363,-0.1103,-10.5190,0.0213,-0.0241,-0.0224,0.0000,0.0000,0.0000,0.0000,0.0000,0.0000,0.0000,0.0000,0.0000,0.0000,0.0000,0.0000,0.0000,0.0000,1.0000,0.0000,0.0000,0.0000,0.0000,0.0000,0.0000,0.0000,0.0000,0.0000,0.0000,0.0000,-0.0000,0.0085,-0.0013,0.0554,0.0000,0.0000,-0.6004,-0.1000,-0.1000,-0.1000,-0.1000,0.6232,0.5691,0.6330,0.5763,5
53,35,1183060380372,-10.3946,-0.0886,-0.2036,-0.0690,0.0610,0.0210,1.1765,6783.9404,6482.9360,6837.3818,6511.9043,12.2433,0.0000,0.0000,0.0000,-0.0000,-0.1435,-0.1630,-10.5954,0.0213,-0.0241,-0.0224,0.0000,0.0000,0.0000,0.0000,0.0000,0.0000,0.0000,0.0000,0.0000,0.0000,0.0000,0.0000,0.0000,0.0000,1.0000,0.0000,0.0000,0.0000,0.0000,0.0000,0.0000,0.0000,0.0000,0.0000,0.0000,0.0000,-0.0000,0.0085,-0.0013,0.0554,0.0000,0.0000,-0.6004,-0.1000,-0.1000,-0.1000,-0.1000,0.6232,0.5691,0.6330,0.5763,5
53,35,1183060380372,-10.4164,-0.0339,-0.2096,-0.0190,-0.1390,-0.1190,1.1765,6775.1665,6474.1758,6828.5264,6514.7876,12.2437,0.0000,-0.0610,-0.1831,-0.0000,-0.1889,-0.1630,-10.6050,0.0213,-0.0241,-0.0224,0.0000,0.0000,0.0000,0.0000,0.0000,0.0000,0.0000,0.0000,0.0000,0.0000,0.0000,0.0000,0.0000,0.0000,1.0000,0.0000,0.0000,0.0000,0.0000,0.0000,0.0000,0.0000,0.0000,0.0000,0.0000,0.0000,-0.0000,0.0085,-0.0013,0.0554,0.0000,0.0000,-0.6004,-0.1000,-0.1000,-0.1000,-0.1000,0.6232,0.5691,0.6330,0.5763,5
