loop_index, counter, last_step_ns, T_ref, theta_ref, phi_ref, uwind, vwind, wwind, rho, rpm1, rpm2, rpm3, rpm4,v_batt,alt,gyro_roll,gyro_pitch,gyro_yaw,accel_X,accel_Y,accel_Z,roll,pitch,yaw,X,Y,Z,Xdot,Ydot,Zdot,x0,y0,z0,e.xbee_time,xbee_time_received_ns,xbee_x,xbee_y,xbee_z,xbee_qw,xbee_qx,xbee_qy,xbee_qz,sp_roll,sp_pitch,sp_yaw,sp_X,sp_Y,sp_Z,sp_Xdot,sp_Ydot,sp_Zdot,u_roll,u_pitch,u_yaw,u_X,u_Y,u_Z,mot_1,mot_2,mot_3,mot_4,flight mode
0,-1,0,-10.5305,-0.1407,0.0612,0.0310,0.0710,-0.0090,1.1647,23.4375,23.4375,23.4375,23.4375,12.2181,0.0000,-0.0610,-0.2441,-0.0000,-0.1530,-0.1726,-10.6121,0.0110,-0.0016,-0.0008,0.0000,0.0000,0.0000,0.0000,0.0000,0.0000,0.0000,0.0000,0.0000,0.0000,0.0000,0.0000,0.0000,0.0000,1.0000,0.0000,0.0000,0.0000,0.0000,0.0000,0.0000,0.0000,0.0000,0.0000,0.0000,0.0000,0.0000,0.0000,0.0000,0.0000,0.0000,0.0000,0.0000,-0.1000,-0.1000,-0.1000,-0.1000,4
0,-1,0,-10.5305,-0.1407,0.0612,0.0310,0.0710,-0.0090,1.1647,23.4375,23.4375,23.4375,23.4375,12.2181,0.0000,0.0000,0.0000,0.1221,-0.1458,-0.1654,-10.5572,0.0110,-0.0016,-0.0008,0.0000,0.0000,0.0000,0.0000,0.0000,0.0000,0.0000,0.0000,0.0000,0.0000,0.0000,0.0000,0.0000,0.0000,1.0000,0.0000,0.0000,0.0000,0.0000,0.0000,0.0000,0.0000,0.0000,0.0000,0.0000,0.0000,0.0000,0.0000,0.0000,0.0000,0.0000,0.0000,0.0000,-0.1000,-0.1000,-0.1000,-0.1000,4
0,-1,0,-10.5305,-0.1407,0.0612,0.0310,0.0710,-0.0090,1.1647,23.4375,23.4375,23.4375,23.4375,12.2184,0.0000,0.0610,-0.1831,0.1221,-0.1626,-0.1654,-10.5954,0.0110,-0.0017,-0.0008,0.0000,0.0000,0.0000,0.0000,0.0000,0.0000,0.0000,0.0000,0.0000,0.0000,0.0000,0.0000,0.0000,0.0000,1.0000,0.0000,0.0000,0.0000,0.0000,0.0000,0.0000,0.0000,0.0000,0.0000,0.0000,0.0000,0.0000,0.0000,0.0000,0.0000,0.0000,0.0000,0.0000,-0.1000,-0.1000,-0.1000,-0.1000,4
0,-1,0,-10.5305,-0.1407,0.0612,0.0310,0.0710,-0.0090,1.1647,23.4375,23.4375,23.4375,23.4375,12.2193,0.0000,0.0000,-0.1221,-0.0610,-0.1387,-0.2397,-10.6503,0.0110,-0.0017,-0.0008,0.0000,0.0000,0.0000,0.0000,0.0000,0.0000,0.0000,0.0000,0.0000,0.0000,0.0000,0.0000,0.0000,0.0000,1.0000,0.0000,0.0000,0.0000,0.0000,0.0000,0.0000,0.0000,0.0000,0.0000,0.0000,0.0000,0.0000,0.0000,0.0000,0.0000,0.0000,0.0000,0.0000,-0.1000,-0.1000,-0.1000,-0.1000,4
0,-1,0,-10.5305,-0.1407,0.0612,0.0310,0.0710,-0.0090,1.1647,23.4375,23.4375,23.4375,23.4375,12.2210,0.0000,-0.0610,-0.1221,-0.0000,-0.1291,-0.2158,-10.6073,0.0111,-0.0017,-0.0008,0.0000,0.0000,0.0000,0.0000,0.0000,0.0000,0.0000,0.0000,0.0000,0.0000,0.0000,0.0000,0.0000,0.0000,1.0000,0.0000,0.0000,0.0000,0.0000,0.0000,0.0000,0.0000,0.0000,0.0000,0.0000,0.0000,0.0000,0.0000,0.0000,0.0000,0.0000,0.0000,0.0000,-0.1000,-0.1000,-0.1000,-0.1000,4
0,-1,0,-10.5305,-0.1407,0.0612,0.0310,0.0710,-0.0090,1.1647,23.4375,23.4375,23.4375,23.4375,12.2220,0.0000,0.0000,-0.0610,-0.0000,-0.1721,-0.1534,-10.5811,0.0111,-0.0017,-0.0008,0.0000,0.0000,0.0000,0.0000,0.0000,0.0000,0.0000,0.0000,0.0000,0.0000,0.0000,0.0000,0.0000,0.0000,1.0000,0.0000,0.0000,0.0000,0.0000,0.0000,0.0000,0.0000,0.0000,0.0000,0.0000,0.0000,0.0000,0.0000,0.0000,0.0000,0.0000,0.0000,0.0000,-0.1000,-0.1000,-0.1000,-0.1000,4
0,-1,0,-10.5305,-0.1407,0.0612,0.0310,0.0710,-0.0090,1.1647,23.4375,23.4375,23.4375,23.4375,12.2234,0.0000,0.0000,-0.0610,-0.0000,-0.1650,-0.1822,-10.6002,0.0111,-0.0017,-0.0008,0.0000,0.0000,0.0000,0.0000,0.0000,0.0000,0.0000,0.0000,0.0000,0.0000,0.0000,0.0000,0.0000,0.0000,1.0000,0.0000,0.0000,0.0000,0.0000,0.0000,0.0000,0.0000,0.0000,0.0000,0.0000,0.0000,0.0000,0.0000,0.0000,0.0000,0.0000,0.0000,0.0000,-0.1000,-0.1000,-0.1000,-0.1000,4
0,-1,0,-10.5305,-0.1407,0.0612,0.0310,0.0710,-0.0090,1.1647,23.4375,23.4375,23.4375,23.4375,12.2246,0.0000,0.0610,0.0000,0.1831,-0.0861,-0.1918,-10.6145,0.0111,-0.0018,-0.0008,0.0000,0.0000,0.0000,0.0000,0.0000,0.0000,0.0000,0.0000,0.0000,0.0000,0.0000,0.0000,0.0000,0.0000,1.0000,0.0000,0.0000,0.0000,0.0000,0.0000,0.0000,0.0000,0.0000,0.0000,0.0000,0.0000,0.0000,0.0000,0.0000,0.0000,0.0000,0.0000,0.0000,-0.1000,-0.1000,-0.1000,-0.1000,4
0,-1,0,-10.5305,-0.1407,0.0612,0.0310,0.0710,-0.0090,1.1647,23.4375,23.4375,23.4375,23.4375,12.2256,0.0000,-0.0610,-0.1831,-0.0000,-0.1554,-0.1702,-10.6050,0.0111,-0.0018,-0.0008,0.0000,0.0000,0.0000,0.0000,0.0000,0.0000,0.0000,0.0000,0.0000,0.0000,0.0000,0.0000,0.0000,0.0000,1.0000,0.0000,0.0000,0.0000,0.0000,0.0000,0.0000,0.0000,0.0000,0.0000,0.0000,0.0000,0.0000,0.0000,0.0000,0.0000,0.0000,0.0000,0.0000,-0.1000,-0.1000,-0.1000,-0.1000,4
0,-1,0,-10.5305,-0.1407,0.0612,0.0310,0.0710,-0.0090,1.1647,23.4375,23.4375,23.4375,23.4375,12.2273,0.0000,0.0000,0.0000,-0.0000,-0.1315,-0.1846,-10.6217,0.0111,-0.0018,-0.0008,0.0000,0.0000,0.0000,0.0000,0.0000,0.0000,0.0000,0.0000,0.0000,0.0000,0.0000,0.0000,0.0000,0.0000,1.0000,0.0000,0.0000,0.0000,0.0000,0.0000,0.0000,0.0000,0.0000,0.0000,0.0000,0.0000,0.0000,0.0000,0.0000,0.0000,0.0000,0.0000,0.0000,-0.1000,-0.1000,-0.1000,-0.1000,4
0,-1,0,-10.5305,-0.1407,0.0612,0.0310,0.0710,-0.0090,1.1647,23.4375,23.4375,23.4375,23.4375,12.2285,0.0000,-0.0610,-0.2441,-0.0610,-0.1339,-0.2134,-10.6503,0.0111,-0.0018,-0.0009,0.0000,0.0000,0.0000,0.0000,0.0000,0.0000,0.0000,0.0000,0.0000,0.0000,0.0000,0.0000,0.0000,0.0000,1.0000,0.0000,0.0000,0.0000,0.0000,0.0000,0.0000,0.0000,0.0000,0.0000,0.0000,0.0000,0.0000,0.0000,0.0000,0.0000,0.0000,0.0000,0.0000,-0.1000,-0.1000,-0.1000,-0.1000,4
0,-1,0,-10.5305,-0.1407,0.0612,0.0310,0.0710,-0.0090,1.1647,23.4375,23.4375,23.4375,23.4375,12.2297,0.0000,0.0610,0.0000,0.1831,-0.1554,-0.2134,-10.6073,0.0112,-0.0018,-0.0008,0.0000,0.0000,0.0000,0.0000,0.0000,0.0000,0.0000,0.0000,0.0000,0.0000,0.0000,0.0000,0.0000,0.0000,1.0000,0.0000,0.0000,0.0000,0.0000,0.0000,0.0000,0.0000,0.0000,0.0000,0.0000,0.0000,0.0000,0.0000,0.0000,0.0000,0.0000,0.0000,0.0000,-0.1000,-0.1000,-0.1000,-0.1000,4
0,-1,0,-10.5305,-0.1407,0.0612,0.0310,0.0710,-0.0090,1.1647,23.4375,23.4375,23.4375,23.4375,12.2309,0.0000,0.0610,-0.0610,-0.1221,-0.1100,-0.2158,-10.6288,0.0112,-0.0018,-0.0009,0.0000,0.0000,0.0000,0.0000,0.0000,0.0000,0.0000,0.0000,0.0000,0.0000,0.0000,0.0000,0.0000,0.0000,1.0000,0.0000,0.0000,0.0000,0.0000,0.0000,0.0000,0.0000,0.0000,0.0000,0.0000,0.0000,0.0000,0.0000,0.0000,0.0000,0.0000,0.0000,0.0000,-0.1000,-0.1000,-0.1000,-0.1000,4
0,-1,0,-10.5305,-0.1407,0.0612,0.0310,0.0710,-0.0090,1.1647,23.4375,23.4375,23.4375,23.4375,12.2326,0.0000,-0.0610,-0.2441,-0.0000,-0.1387,-0.1870,-10.5548,0.0112,-0.0019,-0.0009,0.0000,0.0000,0.0000,0.0000,0.0000,0.0000,0.0000,0.0000,0.0000,0.0000,0.0000,0.0000,0.0000,0.0000,1.0000,0.0000,0.0000,0.0000,0.0000,0.0000,0.0000,0.0000,0.0000,0.0000,0.0000,0.0000,0.0000,0.0000,0.0000,0.0000,0.0000,0.0000,0.0000,-0.1000,-0.1000,-0.1000,-0.1000,4
0,-1,0,-10.5305,-0.1407,0.0612,0.0310,0.0710,-0.0090,1.1647,23.4375,23.4375,23.4375,23.4375,12.2343,0.0000,-0.2441,-0.1221,-0.0000,-0.1578,-0.2086,-10.5668,0.0112,-0.0019,-0.0009,0.0000,0.0000,0.0000,0.0000,0.0000,0.0000,0.0000,0.0000,0.0000,0.0000,0.0000,0.0000,0.0000,0.0000,1.0000,0.0000,0.0000,0.0000,0.0000,0.0000,0.0000,0.0000,0.0000,0.0000,0.0000,0.0000,0.0000,0.0000,0.0000,0.0000,0.0000,0.0000,0.0000,-0.1000,-0.1000,-0.1000,-0.1000,4
0,-1,0,-10.5305,-0.1407,0.0612,0.0310,0.0710,-0.0090,1.1647,23.4375,23.4375,23.4375,23.4375,12.2358,0.0000,-0.0610,-0.1831,-0.0000,-0.1769,-0.1894,-10.6264,0.0112,-0.0019,-0.0009,0.0000,0.0000,0.0000,0.0000,0.0000,0.0000,0.0000,0.0000,0.0000,0.0000,0.0000,0.0000,0.0000,0.0000,1.0000,0.0000,0.0000,0.0000,0.0000,0.0000,0.0000,0.0000,0.0000,0.0000,0.0000,0.0000,0.0000,0.0000,0.0000,0.0000,0.0000,0.0000,0.0000,-0.1000,-0.1000,-0.1000,-0.1000,4
0,-1,0,-10.5305,-0.1407,0.0612,0.0310,0.0710,-0.0090,1.1647,23.4375,23.4375,23.4375,23.4375,12.2375,0.0000,-0.1831,-0.0610,-0.0000,-0.0980,-0.2086,-10.6193,0.0112,-0.0019,-0.0009,0.0000,0.0000,0.0000,0.0000,0.0000,0.0000,0.0000,0.0000,0.0000,0.0000,0.0000,0.0000,0.0000,0.0000,1.0000,0.0000,0.0000,0.0000,0.0000,0.0000,0.0000,0.0000,0.0000,0.0000,0.0000,0.0000,0.0000,0.0000,0.0000,0.0000,0.0000,0.0000,0.0000,-0.1000,-0.1000,-0.1000,-0.1000,4
0,-1,0,-10.5305,-0.1407,0.0612,0.0310,0.0710,-0.0090,1.1647,23.4375,23.4375,23.4375,23.4375,12.2391,0.0000,0.0000,-0.1221,-0.0000,-0.1554,-0.1870,-10.6121,0.0112,-0.0019,-0.0009,0.0000,0.0000,0.0000,0.0000,0.0000,0.0000,0.0000,0.0000,0.0000,0.0000,0.0000,0.0000,0.0000,0.0000,1.0000,0.0000,0.0000,0.0000,0.0000,0.0000,0.0000,0.0000,0.0000,0.0000,0.0000,0.0000,0.0000,0.0000,0.0000,0.0000,0.0000,0.0000,0.0000,-0.1000,-0.1000,-0.1000,-0.1000,4
0,-1,0,-10.5305,-0.1407,0.0612,0.0310,0.0710,-0.0090,1.1647,23.4375,23.4375,23.4375,23.4375,12.2408,0.0000,-0.0610,-0.1831,-0.0000,-0.1363,-0.1678,-10.6264,0.0112,-0.0020,-0.0009,0.0000,0.0000,0.0000,0.0000,0.0000,0.0000,0.0000,0.0000,0.0000,0.0000,0.0000,0.0000,0.0000,0.0000,1.0000,0.0000,0.0000,0.0000,0.0000,0.0000,0.0000,0.0000,0.0000,0.0000,0.0000,0.0000,0.0000,0.0000,0.0000,0.0000,0.0000,0.0000,0.0000,-0.1000,-0.1000,-0.1000,-0.1000,4
0,-1,0,-10.5305,-0.1407,0.0612,0.0310,0.0710,-0.0090,1.1647,23.4375,23.4375,23.4375,23.4375,12.2423,0.0000,-0.0610,-0.1221,-0.0000,-0.1339,-0.1774,-10.6026,0.0112,-0.0020,-0.0009,0.0000,0.0000,0.0000,0.0000,0.0000,0.0000,0.0000,0.0000,0.0000,0.0000,0.0000,0.0000,0.0000,0.0000,1.0000,0.0000,0.0000,0.0000,0.0000,0.0000,0.0000,0.0000,0.0000,0.0000,0.0000,0.0000,0.0000,0.0000,0.0000,0.0000,0.0000,0.0000,0.0000,-0.1000,-0.1000,-0.1000,-0.1000,4
0,-1,0,-10.5305,-0.1407,0.0612,0.0310,0.0710,-0.0090,1.1647,23.4375,23.4375,23.4375,23.4375,12.2440,0.0000,0.0000,0.0000,-0.1221,-0.1243,-0.1702,-10.6217,0.0112,-0.0020,-0.0009,0.0000,0.0000,0.0000,0.0000,0.0000,0.0000,0.0000,0.0000,0.0000,0.0000,0.0000,0.0000,0.0000,0.0000,1.0000,0.0000,0.0000,0.0000,0.0000,0.0000,0.0000,0.0000,0.0000,0.0000,0.0000,0.0000,0.0000,0.0000,0.0000,0.0000,0.0000,0.0000,0.0000,-0.1000,-0.1000,-0.1000,-0.1000,4
0,-1,0,-10.5305,-0.1407,0.0612,0.0310,0.0710,-0.0090,1.1647,23.4375,23.4375,23.4375,23.4375,12.2452,0.0000,-0.1831,-0.1831,-0.0610,-0.1315,-0.2206,-10.6217,0.0112,-0.0020,-0.0009,0.0000,0.0000,0.0000,0.0000,0.0000,0.0000,0.0000,0.0000,0.0000,0.0000,0.0000,0.0000,0.0000,0.0000,1.0000,0.0000,0.0000,0.0000,0.0000,0.0000,0.0000,0.0000,0.0000,0.0000,0.0000,0.0000,0.0000,0.0000,0.0000,0.0000,0.0000,0.0000,0.0000,-0.1000,-0.1000,-0.1000,-0.1000,4
0,-1,0,-10.5305,-0.1407,0.0612,0.0310,0.0710,-0.0090,1.1647,23.4375,23.4375,23.4375,23.4375,12.2466,0.0000,-0.0610,-0.2441,-0.0000,-0.1506,-0.2062,-10.5310,0.0112,-0.0020,-0.0009,0.0000,0.0000,0.0000,0.0000,0.0000,0.0000,0.0000,0.0000,0.0000,0.0000,0.0000,0.0000,0.0000,0.0000,1.0000,0.0000,0.0000,0.0000,0.0000,0.0000,0.0000,0.0000,0.0000,0.0000,0.0000,0.0000,0.0000,0.0000,0.0000,0.0000,0.0000,0.0000,0.0000,-0.1000,-0.1000,-0.1000,-0.1000,4
0,-1,0,-10.5305,-0.1407,0.0612,0.0310,0.0710,-0.0090,1.1647,23.4375,23.4375,23.4375,23.4375,12.2466,0.0000,-0.0610,-0.2441,-0.0610,-0.1363,-0.2517,-10.5882,0.0113,-0.0021,-0.0009,0.0000,0.0000,0.0000,0.0000,0.0000,0.0000,0.0000,0.0000,0.0000,0.0000,0.0000,0.0000,0.0000,0.0000,1.0000,0.0000,0.0000,0.0000,0.0000,0.0000,0.0000,0.0000,0.0000,0.0000,0.0000,0.0000,0.0000,0.0000,0.0000,0.0000,0.0000,0.0000,0.0000,-0.1000,-0.1000,-0.1000,-0.1000,4
0,-1,0,-10.5305,-0.1407,0.0612,0.0310,0.0710,-0.0090,1.1647,23.4375,23.4375,23.4375,23.4375,12.2464,0.0000,-0.2441,-0.1831,-0.0000,-0.1243,-0.1894,-10.5835,0.0113,-0.0021,-0.0009,0.0000,0.0000,0.0000,0.0000,0.0000,0.0000,0.0000,0.0000,0.0000,0.0000,0.0000,0.0000,0.0000,0.0000,1.0000,0.0000,0.0000,0.0000,0.0000,0.0000,0.0000,0.0000,0.0000,0.0000,0.0000,0.0000,0.0000,0.0000,0.0000,0.0000,0.0000,0.0000,0.0000,-0.1000,-0.1000,-0.1000,-0.1000,4
0,-1,0,-10.5305,-0.1407,0.0612,0.0210,0.0610,0.0010,1.1647,23.4375,23.4375,23.4375,23.4375,12.2469,0.0000,-0.1831,-0.1221,-0.0610,-0.0837,-0.1942,-10.6193,0.0113,-0.0021,-0.0009,0.0000,0.0000,0.0000,0.0000,0.0000,0.0000,0.0000,0.0000,0.0000,0.0000,0.0000,0.0000,0.0000,0.0000,1.0000,0.0000,0.0000,0.0000,0.0000,0.0000,0.0000,0.0000,0.0000,0.0000,0.0000,0.0000,0.0000,0.0000,0.0000,0.0000,0.0000,0.0000,0.0000,-0.1000,-0.1000,-0.1000,-0.1000,4
0,-1,0,-10.5305,-0.1407,0.0612,0.0210,0.0610,0.0010,1.1647,23.4375,23.4375,23.4375,23.4375,12.2469,0.0000,0.0000,-0.0610,-0.0000,-0.1387,-0.1822,-10.6121,0.0113,-0.0021,-0.0009,0.0000,0.0000,0.0000,0.0000,0.0000,0.0000,0.0000,0.0000,0.0000,0.0000,0.0000,0.0000,0.0000,0.0000,1.0000,0.0000,0.0000,0.0000,0.0000,0.0000,0.0000,0.0000,0.0000,0.0000,0.0000,0.0000,0.0000,0.0000,0.0000,0.0000,0.0000,0.0000,0.0000,-0.1000,-0.1000,-0.1000,-0.1000,4
0,-1,0,-10.5305,-0.1407,0.0612,0.0210,0.0610,0.0010,1.1647,23.4375,23.4375,23.4375,23.4375,12.2466,0.0000,-0.2441,-0.3662,0.1221,-0.1506,-0.1774,-10.5906,0.0113,-0.0021,-0.0009,0.0000,0.0000,0.0000,0.0000,0.0000,0.0000,0.0000,0.0000,0.0000,0.0000,0.0000,0.0000,0.0000,0.0000,1.0000,0.0000,0.0000,0.0000,0.0000,0.0000,0.0000,0.0000,0.0000,0.0000,0.0000,0.0000,0.0000,0.0000,0.0000,0.0000,0.0000,0.0000,0.0000,-0.1000,-0.1000,-0.1000,-0.1000,4
0,-1,0,-10.5305,-0.1407,0.0612,0.0210,0.0610,0.0010,1.1647,23.4375,23.4375,23.4375,23.4375,12.2469,0.0000,-0.0610,-0.3052,-0.0000,-0.1387,-0.2158,-10.6479,0.0113,-0.0022,-0.0009,0.0000,0.0000,0.0000,0.0000,0.0000,0.0000,0.0000,0.0000,0.0000,0.0000,0.0000,0.0000,0.0000,0.0000,1.0000,0.0000,0.0000,0.0000,0.0000,0.0000,0.0000,0.0000,0.0000,0.0000,0.0000,0.0000,0.0000,0.0000,0.0000,0.0000,0.0000,0.0000,0.0000,-0.1000,-0.1000,-0.1000,-0.1000,4
0,-1,0,-10.5305,-0.1407,0.0612,0.0210,0.0610,0.0010,1.1647,23.4375,23.4375,23.4375,23.4375,12.2466,0.0000,-0.2441,-0.1831,-0.1221,-0.1315,-0.2877,-10.5835,0.0113,-0.0022,-0.0009,0.0000,0.0000,0.0000,0.0000,0.0000,0.0000,0.0000,0.0000,0.0000,0.0000,0.0000,0.0000,0.0000,0.0000,1.0000,0.0000,0.0000,0.0000,0.0000,0.0000,0.0000,0.0000,0.0000,0.0000,0.0000,0.0000,0.0000,0.0000,0.0000,0.0000,0.0000,0.0000,0.0000,-0.1000,-0.1000,-0.1000,-0.1000,4
0,-1,0,-10.5305,-0.1407,0.0612,0.0210,0.0610,0.0010,1.1647,23.4375,23.4375,23.4375,23.4375,12.2474,0.0000,0.0610,0.0000,-0.0000,-0.1650,-0.2014,-10.6766,0.0113,-0.0022,-0.0010,0.0000,0.0000,0.0000,0.0000,0.0000,0.0000,0.0000,0.0000,0.0000,0.0000,0.0000,0.0000,0.0000,0.0000,1.0000,0.0000,0.0000,0.0000,0.0000,0.0000,0.0000,0.0000,0.0000,0.0000,0.0000,0.0000,0.0000,0.0000,0.0000,0.0000,0.0000,0.0000,0.0000,-0.1000,-0.1000,-0.1000,-0.1000,4
0,-1,0,-10.5305,-0.1407,0.0612,0.0210,0.0610,0.0010,1.1647,23.4375,23.4375,23.4375,23.4375,12.2474,0.0000,-0.2441,-0.1221,-0.0000,-0.1172,-0.1798,-10.6121,0.0113,-0.0022,-0.0010,0.0000,0.0000,0.0000,0.0000,0.0000,0.0000,0.0000,0.0000,0.0000,0.0000,0.0000,0.0000,0.0000,0.0000,1.0000,0.0000,0.0000,0.0000,0.0000,0.0000,0.0000,0.0000,0.0000,0.0000,0.0000,0.0000,0.0000,0.0000,0.0000,0.0000,0.0000,0.0000,0.0000,-0.1000,-0.1000,-0.1000,-0.1000,4
0,-1,0,-10.5669,-0.1221,0.0419,0.0210,0.0610,0.0010,1.1647,23.4375,23.4375,23.4375,23.4375,12.2476,0.0000,-0.0610,-0.2441,-0.0610,-0.1363,-0.1630,-10.6217,0.0113,-0.0023,-0.0010,0.0000,0.0000,0.0000,0.0000,0.0000,0.0000,0.0000,0.0000,0.0000,0.0000,0.0000,0.0000,0.0000,0.0000,1.0000,0.0000,0.0000,0.0000,0.0000,0.0000,0.0000,0.0000,0.0000,0.0000,0.0000,0.0000,0.0000,0.0000,0.0000,0.0000,0.0000,0.0000,0.0000,-0.1000,-0.1000,-0.1000,-0.1000,4
0,-1,0,-10.5669,-0.1221,0.0419,0.0210,0.0610,0.0010,1.1647,23.4375,23.4375,23.4375,23.4375,12.2474,0.0000,-0.0610,-0.1831,-0.0000,-0.1411,-0.1846,-10.6264,0.0114,-0.0023,-0.0010,0.0000,0.0000,0.0000,0.0000,0.0000,0.0000,0.0000,0.0000,0.0000,0.0000,0.0000,0.0000,0.0000,0.0000,1.0000,0.0000,0.0000,0.0000,0.0000,0.0000,0.0000,0.0000,0.0000,0.0000,0.0000,0.0000,0.0000,0.0000,0.0000,0.0000,0.0000,0.0000,0.0000,-0.1000,-0.1000,-0.1000,-0.1000,4
0,-1,0,-10.5669,-0.1221,0.0419,0.0210,0.0610,0.0010,1.1647,23.4375,23.4375,23.4375,23.4375,12.2464,0.0000,0.0000,-0.0610,-0.0000,-0.1435,-0.1846,-10.5286,0.0114,-0.0024,-0.0010,0.0000,0.0000,0.0000,0.0000,0.0000,0.0000,0.0000,0.0000,0.0000,0.0000,0.0000,0.0000,0.0000,0.0000,1.0000,0.0000,0.0000,0.0000,0.0000,0.0000,0.0000,0.0000,0.0000,0.0000,0.0000,0.0000,0.0000,0.0000,0.0000,0.0000,0.0000,0.0000,0.0000,-0.1000,-0.1000,-0.1000,-0.1000,4
0,-1,0,-10.5669,-0.1221,0.0419,0.0210,0.0610,0.0010,1.1647,23.4375,23.4375,23.4375,23.4375,12.2462,0.0000,0.1221,-0.2441,-0.0000,-0.1458,-0.1606,-10.5954,0.0114,-0.0024,-0.0010,0.0000,0.0000,0.0000,0.0000,0.0000,0.0000,0.0000,0.0000,0.0000,0.0000,0.0000,0.0000,0.0000,0.0000,1.0000,0.0000,0.0000,0.0000,0.0000,0.0000,0.0000,0.0000,0.0000,0.0000,0.0000,0.0000,0.0000,0.0000,0.0000,0.0000,0.0000,0.0000,0.0000,-0.1000,-0.1000,-0.1000,-0.1000,4
0,-1,0,-10.5669,-0.1221,0.0419,0.0210,0.0610,0.0010,1.1647,23.4375,23.4375,23.4375,23.4375,12.2459,0.0000,0.0610,-0.0610,-0.0000,-0.1148,-0.1894,-10.6336,0.0114,-0.0024,-0.0010,0.0000,0.0000,0.0000,0.0000,0.0000,0.0000,0.0000,0.0000,0.0000,0.0000,0.0000,0.0000,0.0000,0.0000,1.0000,0.0000,0.0000,0.0000,0.0000,0.0000,0.0000,0.0000,0.0000,0.0000,0.0000,0.0000,0.0000,0.0000,0.0000,0.0000,0.0000,0.0000,0.0000,-0.1000,-0.1000,-0.1000,-0.1000,4
0,-1,0,-10.5669,-0.1221,0.0419,0.0210,0.0610,0.0010,1.1647,23.4375,23.4375,23.4375,23.4375,12.2454,0.0000,-0.0610,-0.1831,-0.0610,-0.1745,-0.1918,-10.5214,0.0115,-0.0025,-0.0010,0.0000,0.0000,0.0000,0.0000,0.0000,0.0000,0.0000,0.0000,0.0000,0.0000,0.0000,0.0000,0.0000,0.0000,1.0000,0.0000,0.0000,0.0000,0.0000,0.0000,0.0000,0.0000,0.0000,0.0000,0.0000,0.0000,0.0000,0.0000,0.0000,0.0000,0.0000,0.0000,0.0000,-0.1000,-0.1000,-0.1000,-0.1000,4
0,-1,0,-10.5669,-0.1221,0.0419,0.0210,0.0610,0.0010,1.1647,23.4375,23.4375,23.4375,23.4375,12.2452,0.0000,-0.0610,-0.1831,-0.0610,-0.1626,-0.1678,-10.6193,0.0115,-0.0025,-0.0010,0.0000,0.0000,0.0000,0.0000,0.0000,0.0000,0.0000,0.0000,0.0000,0.0000,0.0000,0.0000,0.0000,0.0000,1.0000,0.0000,0.0000,0.0000,0.0000,0.0000,0.0000,0.0000,0.0000,0.0000,0.0000,0.0000,0.0000,0.0000,0.0000,0.0000,0.0000,0.0000,0.0000,-0.1000,-0.1000,-0.1000,-0.1000,4
0,-1,0,-10.5669,-0.1221,0.0419,0.0210,0.0610,0.0010,1.1647,23.4375,23.4375,23.4375,23.4375,12.2449,0.0000,0.1221,-0.1221,-0.0000,-0.1195,-0.2206,-10.6145,0.0115,-0.0026,-0.0011,0.0000,0.0000,0.0000,0.0000,0.0000,0.0000,0.0000,0.0000,0.0000,0.0000,0.0000,0.0000,0.0000,0.0000,1.0000,0.0000,0.0000,0.0000,0.0000,0.0000,0.0000,0.0000,0.0000,0.0000,0.0000,0.0000,0.0000,0.0000,0.0000,0.0000,0.0000,0.0000,0.0000,-0.1000,-0.1000,-0.1000,-0.1000,4
0,-1,0,-10.5669,-0.1221,0.0419,0.0210,0.0610,0.0010,1.1647,23.4375,23.4375,23.4375,23.4375,12.2452,0.0000,-0.0610,-0.1221,-0.0000,-0.1626,-0.1846,-10.5930,0.0116,-0.0026,-0.0011,0.0000,0.0000,0.0000,0.0000,0.0000,0.0000,0.0000,0.0000,0.0000,0.0000,0.0000,0.0000,0.0000,0.0000,1.0000,0.0000,0.0000,0.0000,0.0000,0.0000,0.0000,0.0000,0.0000,0.0000,0.0000,0.0000,0.0000,0.0000,0.0000,0.0000,0.0000,0.0000,0.0000,-0.1000,-0.1000,-0.1000,-0.1000,4
0,-1,0,-10.5669,-0.1221,0.0419,0.0210,0.0610,0.0010,1.1647,23.4375,23.4375,23.4375,23.4375,12.2452,0.0000,-0.0610,-0.1831,-0.0000,-0.1482,-0.1990,-10.6527,0.0116,-0.0026,-0.0011,0.0000,0.0000,0.0000,0.0000,0.0000,0.0000,0.0000,0.0000,0.0000,0.0000,0.0000,0.0000,0.0000,0.0000,1.0000,0.0000,0.0000,0.0000,0.0000,0.0000,0.0000,0.0000,0.0000,0.0000,0.0000,0.0000,0.0000,0.0000,0.0000,0.0000,0.0000,0.0000,0.0000,-0.1000,-0.1000,-0.1000,-0.1000,4
0,-1,0,-10.5669,-0.1221,0.0419,0.0210,0.0610,0.0010,1.1647,23.4375,23.4375,23.4375,23.4375,12.2449,0.0000,0.0000,0.0000,0.1221,-0.1291,-0.1750,-10.5906,0.0116,-0.0026,-0.0010,0.0000,0.0000,0.0000,0.0000,0.0000,0.0000,0.0000,0.0000,0.0000,0.0000,0.0000,0.0000,0.0000,0.0000,1.0000,0.0000,0.0000,0.0000,0.0000,0.0000,0.0000,0.0000,0.0000,0.0000,0.0000,0.0000,0.0000,0.0000,0.0000,0.0000,0.0000,0.0000,0.0000,-0.1000,-0.1000,-0.1000,-0.1000,4
0,-1,0,-10.5669,-0.1221,0.0419,0.0210,0.0610,0.0010,1.1647,23.4375,23.4375,23.4375,23.4375,12.2459,0.0000,0.0610,-0.0610,-0.0610,-0.1578,-0.1798,-10.6240,0.0116,-0.0026,-0.0011,0.0000,0.0000,0.0000,0.0000,0.0000,0.0000,0.0000,0.0000,0.0000,0.0000,0.0000,0.0000,0.0000,0.0000,1.0000,0.0000,0.0000,0.0000,0.0000,0.0000,0.0000,0.0000,0.0000,0.0000,0.0000,0.0000,0.0000,0.0000,0.0000,0.0000,0.0000,0.0000,0.0000,-0.1000,-0.1000,-0.1000,-0.1000,4
0,-1,0,-10.5669,-0.1221,0.0419,0.0210,0.0610,0.0010,1.1647,23.4375,23.4375,23.4375,23.4375,12.2457,0.0000,0.0000,0.0000,-0.0000,-0.1482,-0.1846,-10.5668,0.0116,-0.0026,-0.0011,0.0000,0.0000,0.0000,0.0000,0.0000,0.0000,0.0000,0.0000,0.0000,0.0000,0.0000,0.0000,0.0000,0.0000,1.0000,0.0000,0.0000,0.0000,0.0000,0.0000,0.0000,0.0000,0.0000,0.0000,0.0000,0.0000,0.0000,0.0000,0.0000,0.0000,0.0000,0.0000,0.0000,-0.1000,-0.1000,-0.1000,-0.1000,4
0,-1,0,-10.5669,-0.1221,0.0419,0.0210,0.0610,0.0010,1.1647,23.4375,23.4375,23.4375,23.4375,12.2457,0.0000,0.0000,-0.1221,-0.0000,-0.1721,-0.1894,-10.5572,0.0116,-0.0027,-0.0011,0.0000,0.0000,0.0000,0.0000,0.0000,0.0000,0.0000,0.0000,0.0000,0.0000,0.0000,0.0000,0.0000,0.0000,1.0000,0.0000,0.0000,0.0000,0.0000,0.0000,0.0000,0.0000,0.0000,0.0000,0.0000,0.0000,0.0000,0.0000,0.0000,0.0000,0.0000,0.0000,0.0000,-0.1000,-0.1000,-0.1000,-0.1000,4
0,-1,0,-10.5669,-0.1221,0.0419,0.0210,0.0610,0.0010,1.1647,23.4375,23.4375,23.4375,23.4375,12.2457,0.0000,-0.0610,-0.1221,-0.0000,-0.1243,-0.1798,-10.6121,0.0116,-0.0027,-0.0011,0.0000,0.0000,0.0000,0.0000,0.0000,0.0000,0.0000,0.0000,0.0000,0.0000,0.0000,0.0000,0.0000,0.0000,1.0000,0.0000,0.0000,0.0000,0.0000,0.0000,0.0000,0.0000,0.0000,0.0000,0.0000,0.0000,0.0000,0.0000,0.0000,0.0000,0.0000,0.0000,0.0000,-0.1000,-0.1000,-0.1000,-0.1000,4
0,-1,0,-10.5669,-0.1221,0.0419,0.0210,0.0610,0.0010,1.1647,23.4375,23.4375,23.4375,23.4375,12.2466,0.0000,0.0610,-0.0610,-0.0000,-0.1243,-0.1798,-10.5954,0.0117,-0.0027,-0.0011,0.0000,0.0000,0.0000,0.0000,0.0000,0.0000,0.0000,0.0000,0.0000,0.0000,0.0000,0.0000,0.0000,0.0000,1.0000,0.0000,0.0000,0.0000,0.0000,0.0000,0.0000,0.0000,0.0000,0.0000,0.0000,0.0000,0.0000,0.0000,0.0000,0.0000,0.0000,0.0000,0.0000,-0.1000,-0.1000,-0.1000,-0.1000,4
0,-1,0,-10.5669,-0.1221,0.0419,0.0210,0.0610,0.0010,1.1647,23.4375,23.4375,23.4375,23.4375,12.2466,0.0000,0.0000,0.0000,-0.0000,-0.1411,-0.1534,-10.6002,0.0117,-0.0027,-0.0011,0.0000,0.0000,0.0000,0.0000,0.0000,0.0000,0.0000,0.0000,0.0000,0.0000,0.0000,0.0000,0.0000,0.0000,1.0000,0.0000,0.0000,0.0000,0.0000,0.0000,0.0000,0.0000,0.0000,0.0000,0.0000,0.0000,0.0000,0.0000,0.0000,0.0000,0.0000,0.0000,0.0000,-0.1000,-0.1000,-0.1000,-0.1000,4
0,-1,0,-10.5669,-0.1221,0.0419,0.0210,0.0610,0.0010,1.1647,23.4375,23.4375,23.4375,23.4375,12.2464,0.0000,0.0000,0.0000,-0.0000,-0.1195,-0.2086,-10.6288,0.0117,-0.0027,-0.0011,0.0000,0.0000,0.0000,0.0000,0.0000,0.0000,0.0000,0.0000,0.0000,0.0000,0.0000,0.0000,0.0000,0.0000,1.0000,0.0000,0.0000,0.0000,0.0000,0.0000,0.0000,0.0000,0.0000,0.0000,0.0000,0.0000,0.0000,0.0000,0.0000,0.0000,0.0000,0.0000,0.0000,-0.1000,-0.1000,-0.1000,-0.1000,4
0,-1,0,-10.5669,-0.1221,0.0419,0.0210,0.0610,0.0010,1.1647,23.4375,23.4375,23.4375,23.4375,12.2462,0.0000,-0.0610,-0.1221,-0.0000,-0.1458,-0.2038,-10.6408,0.0117,-0.0027,-0.0011,0.0000,0.0000,0.0000,0.0000,0.0000,0.0000,0.0000,0.0000,0.0000,0.0000,0.0000,0.0000,0.0000,0.0000,1.0000,0.0000,0.0000,0.0000,0.0000,0.0000,0.0000,0.0000,0.0000,0.0000,0.0000,0.0000,0.0000,0.0000,0.0000,0.0000,0.0000,0.0000,0.0000,-0.1000,-0.1000,-0.1000,-0.1000,4
0,-1,0,-10.5669,-0.1221,0.0419,0.0210,0.0610,0.0010,1.1647,23.4375,23.4375,23.4375,23.4375,12.2464,0.0000,-0.0610,-0.1221,-0.0000,-0.1937,-0.2325,-10.6193,0.0117,-0.0027,-0.0011,0.0000,0.0000,0.0000,0.0000,0.0000,0.0000,0.0000,0.0000,0.0000,0.0000,0.0000,0.0000,0.0000,0.0000,1.0000,0.0000,0.0000,0.0000,0.0000,0.0000,0.0000,0.0000,0.0000,0.0000,0.0000,0.0000,0.0000,0.0000,0.0000,0.0000,0.0000,0.0000,0.0000,-0.1000,-0.1000,-0.1000,-0.1000,4
0,-1,0,-10.5669,-0.1221,0.0419,0.0210,0.0610,0.0010,1.1647,23.4375,23.4375,23.4375,23.4375,12.2462,0.0000,0.0000,0.0000,0.1221,-0.1530,-0.1726,-10.5620,0.0117,-0.0028,-0.0011,0.0000,0.0000,0.0000,0.0000,0.0000,0.0000,0.0000,0.0000,0.0000,0.0000,0.0000,0.0000,0.0000,0.0000,1.0000,0.0000,0.0000,0.0000,0.0000,0.0000,0.0000,0.0000,0.0000,0.0000,0.0000,0.0000,0.0000,0.0000,0.0000,0.0000,0.0000,0.0000,0.0000,-0.1000,-0.1000,-0.1000,-0.1000,4
0,-1,0,-10.5669,-0.1221,0.0419,0.0210,0.0610,0.0010,1.1647,23.4375,23.4375,23.4375,23.4375,12.2462,0.0000,-0.0610,-0.1221,0.2441,-0.1363,-0.2086,-10.6097,0.0117,-0.0028,-0.0011,0.0000,0.0000,0.0000,0.0000,0.0000,0.0000,0.0000,0.0000,0.0000,0.0000,0.0000,0.0000,0.0000,0.0000,1.0000,0.0000,0.0000,0.0000,0.0000,0.0000,0.0000,0.0000,0.0000,0.0000,0.0000,0.0000,0.0000,0.0000,0.0000,0.0000,0.0000,0.0000,0.0000,-0.1000,-0.1000,-0.1000,-0.1000,4
0,-1,0,-10.5669,-0.1221,0.0419,0.0210,0.0610,0.0010,1.1647,23.4375,23.4375,23.4375,23.4375,12.2469,0.0000,-0.0610,-0.1221,-0.0000,-0.1363,-0.1750,-10.5524,0.0117,-0.0028,-0.0011,0.0000,0.0000,0.0000,0.0000,0.0000,0.0000,0.0000,0.0000,0.0000,0.0000,0.0000,0.0000,0.0000,0.0000,1.0000,0.0000,0.0000,0.0000,0.0000,0.0000,0.0000,0.0000,0.0000,0.0000,0.0000,0.0000,0.0000,0.0000,0.0000,0.0000,0.0000,0.0000,0.0000,-0.1000,-0.1000,-0.1000,-0.1000,4
0,-1,0,-10.5669,-0.1221,0.0419,0.0210,0.0610,0.0010,1.1647,23.4375,23.4375,23.4375,23.4375,12.2474,0.0000,-0.2441,-0.1831,-0.0610,-0.1339,-0.1486,-10.7171,0.0117,-0.0028,-0.0011,0.0000,0.0000,0.0000,0.0000,0.0000,0.0000,0.0000,0.0000,0.0000,0.0000,0.0000,0.0000,0.0000,0.0000,1.0000,0.0000,0.0000,0.0000,0.0000,0.0000,0.0000,0.0000,0.0000,0.0000,0.0000,0.0000,0.0000,0.0000,0.0000,0.0000,0.0000,0.0000,0.0000,-0.1000,-0.1000,-0.1000,-0.1000,4
0,-1,0,-10.5669,-0.1221,0.0419,0.0310,0.0610,-0.0190,1.1647,23.4375,23.4375,23.4375,23.4375,12.2474,0.0000,-0.0610,-0.1831,-0.0000,-0.1291,-0.1894,-10.6193,0.0117,-0.0028,-0.0011,0.0000,0.0000,0.0000,0.0000,0.0000,0.0000,0.0000,0.0000,0.0000,0.0000,0.0000,0.0000,0.0000,0.0000,1.0000,0.0000,0.0000,0.0000,0.0000,0.0000,0.0000,0.0000,0.0000,0.0000,0.0000,0.0000,0.0000,0.0000,0.0000,0.0000,0.0000,0.0000,0.0000,-0.1000,-0.1000,-0.1000,-0.1000,4
0,-1,0,-10.5669,-0.1221,0.0419,0.0310,0.0610,-0.0190,1.1647,23.4375,23.4375,23.4375,23.4375,12.2476,0.0000,0.0000,-0.1831,-0.0000,-0.1387,-0.1990,-10.5429,0.0117,-0.0029,-0.0011,0.0000,0.0000,0.0000,0.0000,0.0000,0.0000,0.0000,0.0000,0.0000,0.0000,0.0000,0.0000,0.0000,0.0000,1.0000,0.0000,0.0000,0.0000,0.0000,0.0000,0.0000,0.0000,0.0000,0.0000,0.0000,0.0000,0.0000,0.0000,0.0000,0.0000,0.0000,0.0000,0.0000,-0.1000,-0.1000,-0.1000,-0.1000,4
0,-1,0,-10.5669,-0.1221,0.0419,0.0310,0.0610,-0.0190,1.1647,23.4375,23.4375,23.4375,23.4375,12.2474,0.0000,0.0000,0.0000,-0.0000,-0.1602,-0.1990,-10.5930,0.0117,-0.0029,-0.0011,0.0000,0.0000,0.0000,0.0000,0.0000,0.0000,0.0000,0.0000,0.0000,0.0000,0.0000,0.0000,0.0000,0.0000,1.0000,0.0000,0.0000,0.0000,0.0000,0.0000,0.0000,0.0000,0.0000,0.0000,0.0000,0.0000,0.0000,0.0000,0.0000,0.0000,0.0000,0.0000,0.0000,-0.1000,-0.1000,-0.1000,-0.1000,4
0,-1,0,-10.4750,-0.1647,0.0831,0.0310,0.0610,-0.0190,1.1647,23.4375,23.4375,23.4375,23.4375,12.2476,0.0000,-0.0610,-0.2441,-0.0000,-0.1745,-0.2206,-10.6002,0.0118,-0.0029,-0.0011,0.0000,0.0000,0.0000,0.0000,0.0000,0.0000,0.0000,0.0000,0.0000,0.0000,0.0000,0.0000,0.0000,0.0000,1.0000,0.0000,0.0000,0.0000,0.0000,0.0000,0.0000,0.0000,0.0000,0.0000,0.0000,0.0000,0.0000,0.0000,0.0000,0.0000,0.0000,0.0000,0.0000,-0.1000,-0.1000,-0.1000,-0.1000,4
0,-1,0,-10.4750,-0.1647,0.0831,0.0310,0.0610,-0.0190,1.1647,23.4375,23.4375,23.4375,23.4375,12.2471,0.0000,-0.0610,-0.1221,-0.0000,-0.1339,-0.1702,-10.6097,0.0118,-0.0029,-0.0011,0.0000,0.0000,0.0000,0.0000,0.0000,0.0000,0.0000,0.0000,0.0000,0.0000,0.0000,0.0000,0.0000,0.0000,1.0000,0.0000,0.0000,0.0000,0.0000,0.0000,0.0000,0.0000,0.0000,0.0000,0.0000,0.0000,0.0000,0.0000,0.0000,0.0000,0.0000,0.0000,0.0000,-0.1000,-0.1000,-0.1000,-0.1000,4
0,-1,0,-10.4750,-0.1647,0.0831,0.0310,0.0610,-0.0190,1.1647,23.4375,23.4375,23.4375,23.4375,12.2471,0.0000,0.1831,-0.0610,-0.0000,-0.1076,-0.1894,-10.6312,0.0119,-0.0031,-0.0011,0.0000,0.0000,0.0000,0.0000,0.0000,0.0000,0.0000,0.0000,0.0000,0.0000,0.0000,0.0000,0.0000,0.0000,1.0000,0.0000,0.0000,0.0000,0.0000,0.0000,0.0000,0.0000,0.0000,0.0000,0.0000,0.0000,0.0000,0.0000,0.0000,0.0000,0.0000,0.0000,0.0000,-0.1000,-0.1000,-0.1000,-0.1000,4
0,-1,0,-10.4750,-0.1647,0.0831,0.0310,0.0610,-0.0190,1.1647,23.4375,23.4375,23.4375,23.4375,12.2471,0.0000,-0.0610,-0.1831,-0.0000,-0.1028,-0.2230,-10.5715,0.0119,-0.0031,-0.0011,0.0000,0.0000,0.0000,0.0000,0.0000,0.0000,0.0000,0.0000,0.0000,0.0000,0.0000,0.0000,0.0000,0.0000,1.0000,0.0000,0.0000,0.0000,0.0000,0.0000,0.0000,0.0000,0.0000,0.0000,0.0000,0.0000,0.0000,0.0000,0.0000,0.0000,0.0000,0.0000,0.0000,-0.1000,-0.1000,-0.1000,-0.1000,4
0,-1,0,-10.4750,-0.1647,0.0831,0.0310,0.0610,-0.0190,1.1647,23.4375,23.4375,23.4375,23.4375,12.2464,0.0000,0.0000,-0.0610,0.1221,-0.1793,-0.2182,-10.6169,0.0120,-0.0031,-0.0011,0.0000,0.0000,0.0000,0.0000,0.0000,0.0000,0.0000,0.0000,0.0000,0.0000,0.0000,0.0000,0.0000,0.0000,1.0000,0.0000,0.0000,0.0000,0.0000,0.0000,0.0000,0.0000,0.0000,0.0000,0.0000,0.0000,0.0000,0.0000,0.0000,0.0000,0.0000,0.0000,0.0000,-0.1000,-0.1000,-0.1000,-0.1000,4
0,-1,0,-10.4750,-0.1647,0.0831,0.0310,0.0610,-0.0190,1.1647,23.4375,23.4375,23.4375,23.4375,12.2466,0.0000,0.0610,-0.1221,-0.0000,-0.1387,-0.2062,-10.6646,0.0120,-0.0032,-0.0011,0.0000,0.0000,0.0000,0.0000,0.0000,0.0000,0.0000,0.0000,0.0000,0.0000,0.0000,0.0000,0.0000,0.0000,1.0000,0.0000,0.0000,0.0000,0.0000,0.0000,0.0000,0.0000,0.0000,0.0000,0.0000,0.0000,0.0000,0.0000,0.0000,0.0000,0.0000,0.0000,0.0000,-0.1000,-0.1000,-0.1000,-0.1000,4
0,-1,0,-10.4750,-0.1647,0.0831,0.0310,0.0610,-0.0190,1.1647,23.4375,23.4375,23.4375,23.4375,12.2466,0.0000,-0.0610,-0.1831,0.1221,-0.1482,-0.2325,-10.6002,0.0120,-0.0032,-0.0011,0.0000,0.0000,0.0000,0.0000,0.0000,0.0000,0.0000,0.0000,0.0000,0.0000,0.0000,0.0000,0.0000,0.0000,1.0000,0.0000,0.0000,0.0000,0.0000,0.0000,0.0000,0.0000,0.0000,0.0000,0.0000,0.0000,0.0000,0.0000,0.0000,0.0000,0.0000,0.0000,0.0000,-0.1000,-0.1000,-0.1000,-0.1000,4
0,-1,0,-10.4750,-0.1647,0.0831,0.0310,0.0610,-0.0190,1.1647,23.4375,23.4375,23.4375,23.4375,12.2466,0.0000,0.0000,0.0000,-0.0000,-0.1554,-0.1918,-10.5572,0.0120,-0.0032,-0.0011,0.0000,0.0000,0.0000,0.0000,0.0000,0.0000,0.0000,0.0000,0.0000,0.0000,0.0000,0.0000,0.0000,0.0000,1.0000,0.0000,0.0000,0.0000,0.0000,0.0000,0.0000,0.0000,0.0000,0.0000,0.0000,0.0000,0.0000,0.0000,0.0000,0.0000,0.0000,0.0000,0.0000,-0.1000,-0.1000,-0.1000,-0.1000,4
0,-1,0,-10.4750,-0.1647,0.0831,0.0310,0.0610,-0.0190,1.1647,23.4375,23.4375,23.4375,23.4375,12.2466,0.0000,0.0000,0.0000,-0.0000,-0.1674,-0.2062,-10.5978,0.0120,-0.0032,-0.0011,0.0000,0.0000,0.0000,0.0000,0.0000,0.0000,0.0000,0.0000,0.0000,0.0000,0.0000,0.0000,0.0000,0.0000,1.0000,0.0000,0.0000,0.0000,0.0000,0.0000,0.0000,0.0000,0.0000,0.0000,0.0000,0.0000,0.0000,0.0000,0.0000,0.0000,0.0000,0.0000,0.0000,-0.1000,-0.1000,-0.1000,-0.1000,4
0,-1,0,-10.4750,-0.1647,0.0831,0.0310,0.0610,-0.0190,1.1647,23.4375,23.4375,23.4375,23.4375,12.2469,0.0000,-0.0610,-0.2441,-0.0000,-0.1674,-0.1966,-10.6097,0.0120,-0.0032,-0.0011,0.0000,0.0000,0.0000,0.0000,0.0000,0.0000,0.0000,0.0000,0.0000,0.0000,0.0000,0.0000,0.0000,0.0000,1.0000,0.0000,0.0000,0.0000,0.0000,0.0000,0.0000,0.0000,0.0000,0.0000,0.0000,0.0000,0.0000,0.0000,0.0000,0.0000,0.0000,0.0000,0.0000,-0.1000,-0.1000,-0.1000,-0.1000,4
0,-1,0,-10.4750,-0.1647,0.0831,0.0310,0.0610,-0.0190,1.1647,23.4375,23.4375,23.4375,23.4375,12.2471,0.0000,0.0000,-0.1221,-0.0000,-0.1626,-0.1798,-10.5739,0.0120,-0.0033,-0.0011,0.0000,0.0000,0.0000,0.0000,0.0000,0.0000,0.0000,0.0000,0.0000,0.0000,0.0000,0.0000,0.0000,0.0000,1.0000,0.0000,0.0000,0.0000,0.0000,0.0000,0.0000,0.0000,0.0000,0.0000,0.0000,0.0000,0.0000,0.0000,0.0000,0.0000,0.0000,0.0000,0.0000,-0.1000,-0.1000,-0.1000,-0.1000,4
0,-1,0,-10.4750,-0.1647,0.0831,0.0310,0.0610,-0.0190,1.1647,23.4375,23.4375,23.4375,23.4375,12.2466,0.0000,0.0000,0.0000,-0.0000,-0.1482,-0.1414,-10.5763,0.0121,-0.0033,-0.0011,0.0000,0.0000,0.0000,0.0000,0.0000,0.0000,0.0000,0.0000,0.0000,0.0000,0.0000,0.0000,0.0000,0.0000,1.0000,0.0000,0.0000,0.0000,0.0000,0.0000,0.0000,0.0000,0.0000,0.0000,0.0000,0.0000,0.0000,0.0000,0.0000,0.0000,0.0000,0.0000,0.0000,-0.1000,-0.1000,-0.1000,-0.1000,4
0,-1,0,-10.4750,-0.1647,0.0831,0.0310,0.0610,-0.0190,1.1647,23.4375,23.4375,23.4375,23.4375,12.2466,0.0000,0.0610,-0.0610,0.1221,-0.1411,-0.1918,-10.5787,0.0121,-0.0033,-0.0011,0.0000,0.0000,0.0000,0.0000,0.0000,0.0000,0.0000,0.0000,0.0000,0.0000,0.0000,0.0000,0.0000,0.0000,1.0000,0.0000,0.0000,0.0000,0.0000,0.0000,0.0000,0.0000,0.0000,0.0000,0.0000,0.0000,0.0000,0.0000,0.0000,0.0000,0.0000,0.0000,0.0000,-0.1000,-0.1000,-0.1000,-0.1000,4
0,-1,0,-10.4750,-0.1647,0.0831,0.0310,0.0610,-0.0190,1.1647,23.4375,23.4375,23.4375,23.4375,12.2469,0.0000,0.0000,-0.0610,-0.0610,-0.1578,-0.1702,-10.6193,0.0121,-0.0033,-0.0011,0.0000,0.0000,0.0000,0.0000,0.0000,0.0000,0.0000,0.0000,0.0000,0.0000,0.0000,0.0000,0.0000,0.0000,1.0000,0.0000,0.0000,0.0000,0.0000,0.0000,0.0000,0.0000,0.0000,0.0000,0.0000,0.0000,0.0000,0.0000,0.0000,0.0000,0.0000,0.0000,0.0000,-0.1000,-0.1000,-0.1000,-0.1000,4
0,-1,0,-10.4750,-0.1647,0.0831,0.0310,0.0610,-0.0190,1.1647,23.4375,23.4375,23.4375,23.4375,12.2469,0.0000,0.0000,-0.1831,-0.0610,-0.1530,-0.1774,-10.5477,0.0121,-0.0033,-0.0011,0.0000,0.0000,0.0000,0.0000,0.0000,0.0000,0.0000,0.0000,0.0000,0.0000,0.0000,0.0000,0.0000,0.0000,1.0000,0.0000,0.0000,0.0000,0.0000,0.0000,0.0000,0.0000,0.0000,0.0000,0.0000,0.0000,0.0000,0.0000,0.0000,0.0000,0.0000,0.0000,0.0000,-0.1000,-0.1000,-0.1000,-0.1000,4
0,-1,0,-10.5687,-0.1211,0.0411,0.0310,0.0910,0.0010,1.1647,23.4375,23.4375,23.4375,23.4375,12.2469,0.0000,-0.0610,-0.2441,-0.0000,-0.1052,-0.2158,-10.6264,0.0121,-0.0034,-0.0011,0.0000,0.0000,0.0000,0.0000,0.0000,0.0000,0.0000,0.0000,0.0000,0.0000,0.0000,0.0000,0.0000,0.0000,1.0000,0.0000,0.0000,0.0000,0.0000,0.0000,0.0000,0.0000,0.0000,0.0000,0.0000,0.0000,0.0000,0.0000,0.0000,0.0000,0.0000,0.0000,0.0000,-0.1000,-0.1000,-0.1000,-0.1000,4
0,-1,0,-10.5687,-0.1211,0.0411,0.0310,0.0910,0.0010,1.1647,23.4375,23.4375,23.4375,23.4375,12.2454,0.0000,0.0000,0.0000,-0.0610,-0.1339,-0.2301,-10.5787,0.0122,-0.0035,-0.0011,0.0000,0.0000,0.0000,0.0000,0.0000,0.0000,0.0000,0.0000,0.0000,0.0000,0.0000,0.0000,0.0000,0.0000,1.0000,0.0000,0.0000,0.0000,0.0000,0.0000,0.0000,0.0000,0.0000,0.0000,0.0000,0.0000,0.0000,0.0000,0.0000,0.0000,0.0000,0.0000,0.0000,-0.1000,-0.1000,-0.1000,-0.1000,4
0,-1,0,-10.5687,-0.1211,0.0411,0.0310,0.0910,0.0010,1.1647,23.4375,23.4375,23.4375,23.4375,12.2442,0.0000,-0.0610,-0.1221,-0.0000,-0.1745,-0.2014,-10.5835,0.0122,-0.0035,-0.0011,0.0000,0.0000,0.0000,0.0000,0.0000,0.0000,0.0000,0.0000,0.0000,0.0000,0.0000,0.0000,0.0000,0.0000,1.0000,0.0000,0.0000,0.0000,0.0000,0.0000,0.0000,0.0000,0.0000,0.0000,0.0000,0.0000,0.0000,0.0000,0.0000,0.0000,0.0000,0.0000,0.0000,-0.1000,-0.1000,-0.1000,-0.1000,4
0,-1,0,-10.5687,-0.1211,0.0411,0.0310,0.0910,0.0010,1.1647,23.4375,23.4375,23.4375,23.4375,12.2430,0.0000,0.0000,-0.0610,-0.0610,-0.1124,-0.2349,-10.6312,0.0122,-0.0035,-0.0011,0.0000,0.0000,0.0000,0.0000,0.0000,0.0000,0.0000,0.0000,0.0000,0.0000,0.0000,0.0000,0.0000,0.0000,1.0000,0.0000,0.0000,0.0000,0.0000,0.0000,0.0000,0.0000,0.0000,0.0000,0.0000,0.0000,0.0000,0.0000,0.0000,0.0000,0.0000,0.0000,0.0000,-0.1000,-0.1000,-0.1000,-0.1000,4
0,-1,0,-10.5687,-0.1211,0.0411,0.0310,0.0910,0.0010,1.1647,23.4375,23.4375,23.4375,23.4375,12.2408,0.0000,0.0000,0.0000,0.1221,-0.1052,-0.2182,-10.5882,0.0122,-0.0035,-0.0011,0.0000,0.0000,0.0000,0.0000,0.0000,0.0000,0.0000,0.0000,0.0000,0.0000,0.0000,0.0000,0.0000,0.0000,1.0000,0.0000,0.0000,0.0000,0.0000,0.0000,0.0000,0.0000,0.0000,0.0000,0.0000,0.0000,0.0000,0.0000,0.0000,0.0000,0.0000,0.0000,0.0000,-0.1000,-0.1000,-0.1000,-0.1000,4
0,-1,0,-10.5687,-0.1211,0.0411,0.0310,0.0910,0.0010,1.1647,23.4375,23.4375,23.4375,23.4375,12.2394,0.0000,-0.0610,-0.2441,-0.0000,-0.1411,-0.1942,-10.6384,0.0123,-0.0036,-0.0011,0.0000,0.0000,0.0000,0.0000,0.0000,0.0000,0.0000,0.0000,0.0000,0.0000,0.0000,0.0000,0.0000,0.0000,1.0000,0.0000,0.0000,0.0000,0.0000,0.0000,0.0000,0.0000,0.0000,0.0000,0.0000,0.0000,0.0000,0.0000,0.0000,0.0000,0.0000,0.0000,0.0000,-0.1000,-0.1000,-0.1000,-0.1000,4
0,-1,0,-10.5687,-0.1211,0.0411,0.0310,0.0910,0.0010,1.1647,23.4375,23.4375,23.4375,23.4375,12.2384,0.0000,-0.0610,-0.1831,-0.0000,-0.1602,-0.2110,-10.6026,0.0123,-0.0036,-0.0011,0.0000,0.0000,0.0000,0.0000,0.0000,0.0000,0.0000,0.0000,0.0000,0.0000,0.0000,0.0000,0.0000,0.0000,1.0000,0.0000,0.0000,0.0000,0.0000,0.0000,0.0000,0.0000,0.0000,0.0000,0.0000,0.0000,0.0000,0.0000,0.0000,0.0000,0.0000,0.0000,0.0000,-0.1000,-0.1000,-0.1000,-0.1000,4
0,-1,0,-10.5687,-0.1211,0.0411,0.0310,0.0910,0.0010,1.1647,23.4375,23.4375,23.4375,23.4375,12.2379,0.0000,0.0000,0.0000,0.1221,-0.1674,-0.2110,-10.6384,0.0123,-0.0036,-0.0011,0.0000,0.0000,0.0000,0.0000,0.0000,0.0000,0.0000,0.0000,0.0000,0.0000,0.0000,0.0000,0.0000,0.0000,1.0000,0.0000,0.0000,0.0000,0.0000,0.0000,0.0000,0.0000,0.0000,0.0000,0.0000,0.0000,0.0000,0.0000,0.0000,0.0000,0.0000,0.0000,0.0000,-0.1000,-0.1000,-0.1000,-0.1000,4
0,-1,0,-10.5687,-0.1211,0.0411,0.0310,0.0910,0.0010,1.1647,23.4375,23.4375,23.4375,23.4375,12.2370,0.0000,-0.0610,-0.2441,-0.0000,-0.1243,-0.1846,-10.5787,0.0123,-0.0036,-0.0011,0.0000,0.0000,0.0000,0.0000,0.0000,0.0000,0.0000,0.0000,0.0000,0.0000,0.0000,0.0000,0.0000,0.0000,1.0000,0.0000,0.0000,0.0000,0.0000,0.0000,0.0000,0.0000,0.0000,0.0000,0.0000,0.0000,0.0000,0.0000,0.0000,0.0000,0.0000,0.0000,0.0000,-0.1000,-0.1000,-0.1000,-0.1000,4
0,-1,0,-10.5687,-0.1211,0.0411,0.0310,0.0910,0.0010,1.1647,23.4375,23.4375,23.4375,23.4375,12.2358,0.0000,-0.0610,-0.1221,-0.0000,-0.1387,-0.2110,-10.6551,0.0123,-0.0036,-0.0011,0.0000,0.0000,0.0000,0.0000,0.0000,0.0000,0.0000,0.0000,0.0000,0.0000,0.0000,0.0000,0.0000,0.0000,1.0000,0.0000,0.0000,0.0000,0.0000,0.0000,0.0000,0.0000,0.0000,0.0000,0.0000,0.0000,0.0000,0.0000,0.0000,0.0000,0.0000,0.0000,0.0000,-0.1000,-0.1000,-0.1000,-0.1000,4
0,-1,0,-10.5687,-0.1211,0.0411,0.0310,0.0910,0.0010,1.1647,23.4375,23.4375,23.4375,23.4375,12.2350,0.0000,0.0610,0.0000,-0.0000,-0.1626,-0.1846,-10.5954,0.0123,-0.0036,-0.0011,0.0000,0.0000,0.0000,0.0000,0.0000,0.0000,0.0000,0.0000,0.0000,0.0000,0.0000,0.0000,0.0000,0.0000,1.0000,0.0000,0.0000,0.0000,0.0000,0.0000,0.0000,0.0000,0.0000,0.0000,0.0000,0.0000,0.0000,0.0000,0.0000,0.0000,0.0000,0.0000,0.0000,-0.1000,-0.1000,-0.1000,-0.1000,4
0,-1,0,-10.5687,-0.1211,0.0411,0.0310,0.0910,0.0010,1.1647,23.4375,23.4375,23.4375,23.4375,12.2338,0.0000,-0.0610,-0.1831,0.1221,-0.1339,-0.2182,-10.5978,0.0123,-0.0037,-0.0011,0.0000,0.0000,0.0000,0.0000,0.0000,0.0000,0.0000,0.0000,0.0000,0.0000,0.0000,0.0000,0.0000,0.0000,1.0000,0.0000,0.0000,0.0000,0.0000,0.0000,0.0000,0.0000,0.0000,0.0000,0.0000,0.0000,0.0000,0.0000,0.0000,0.0000,0.0000,0.0000,0.0000,-0.1000,-0.1000,-0.1000,-0.1000,4
0,-1,0,-10.5687,-0.1211,0.0411,0.0310,0.0910,0.0010,1.1647,23.4375,23.4375,23.4375,23.4375,12.2329,0.0000,-0.1831,-0.1831,0.1221,-0.1124,-0.2014,-10.5572,0.0123,-0.0037,-0.0011,0.0000,0.0000,0.0000,0.0000,0.0000,0.0000,0.0000,0.0000,0.0000,0.0000,0.0000,0.0000,0.0000,0.0000,1.0000,0.0000,0.0000,0.0000,0.0000,0.0000,0.0000,0.0000,0.0000,0.0000,0.0000,0.0000,0.0000,0.0000,0.0000,0.0000,0.0000,0.0000,0.0000,-0.1000,-0.1000,-0.1000,-0.1000,4
0,-1,0,-10.5687,-0.1211,0.0411,0.0310,0.0910,0.0010,1.1647,23.4375,23.4375,23.4375,23.4375,12.2314,0.0000,-0.0610,-0.3052,-0.0000,-0.1602,-0.1942,-10.6050,0.0123,-0.0037,-0.0011,0.0000,0.0000,0.0000,0.0000,0.0000,0.0000,0.0000,0.0000,0.0000,0.0000,0.0000,0.0000,0.0000,0.0000,1.0000,0.0000,0.0000,0.0000,0.0000,0.0000,0.0000,0.0000,0.0000,0.0000,0.0000,0.0000,0.0000,0.0000,0.0000,0.0000,0.0000,0.0000,0.0000,-0.1000,-0.1000,-0.1000,-0.1000,4
0,-1,0,-10.5687,-0.1211,0.0411,0.0310,0.0910,0.0010,1.1647,23.4375,23.4375,23.4375,23.4375,12.2307,0.0000,-0.1831,-0.1831,-0.0000,-0.1172,-0.2086,-10.6408,0.0123,-0.0037,-0.0011,0.0000,0.0000,0.0000,0.0000,0.0000,0.0000,0.0000,0.0000,0.0000,0.0000,0.0000,0.0000,0.0000,0.0000,1.0000,0.0000,0.0000,0.0000,0.0000,0.0000,0.0000,0.0000,0.0000,0.0000,0.0000,0.0000,0.0000,0.0000,0.0000,0.0000,0.0000,0.0000,0.0000,-0.1000,-0.1000,-0.1000,-0.1000,4
0,-1,0,-10.5687,-0.1211,0.0411,0.0310,0.0910,0.0010,1.1647,23.4375,23.4375,23.4375,23.4375,12.2297,0.0000,-0.0610,-0.1221,-0.0000,-0.1650,-0.1630,-10.5787,0.0124,-0.0037,-0.0011,0.0000,0.0000,0.0000,0.0000,0.0000,0.0000,0.0000,0.0000,0.0000,0.0000,0.0000,0.0000,0.0000,0.0000,1.0000,0.0000,0.0000,0.0000,0.0000,0.0000,0.0000,0.0000,0.0000,0.0000,0.0000,0.0000,0.0000,0.0000,0.0000,0.0000,0.0000,0.0000,0.0000,-0.1000,-0.1000,-0.1000,-0.1000,4
0,-1,0,-10.5687,-0.1211,0.0411,0.0310,0.0910,0.0010,1.1647,23.4375,23.4375,23.4375,23.4375,12.2287,0.0000,0.0000,0.0000,-0.0000,-0.1506,-0.2038,-10.6312,0.0124,-0.0037,-0.0011,0.0000,0.0000,0.0000,0.0000,0.0000,0.0000,0.0000,0.0000,0.0000,0.0000,0.0000,0.0000,0.0000,0.0000,1.0000,0.0000,0.0000,0.0000,0.0000,0.0000,0.0000,0.0000,0.0000,0.0000,0.0000,0.0000,0.0000,0.0000,0.0000,0.0000,0.0000,0.0000,0.0000,-0.1000,-0.1000,-0.1000,-0.1000,4
0,-1,0,-10.5687,-0.1211,0.0411,0.0310,0.0910,0.0010,1.1647,23.4375,23.4375,23.4375,23.4375,12.2278,0.0000,0.0000,0.0000,-0.0610,-0.1482,-0.1918,-10.6312,0.0124,-0.0038,-0.0012,0.0000,0.0000,0.0000,0.0000,0.0000,0.0000,0.0000,0.0000,0.0000,0.0000,0.0000,0.0000,0.0000,0.0000,1.0000,0.0000,0.0000,0.0000,0.0000,0.0000,0.0000,0.0000,0.0000,0.0000,0.0000,0.0000,0.0000,0.0000,0.0000,0.0000,0.0000,0.0000,0.0000,-0.1000,-0.1000,-0.1000,-0.1000,4
0,-1,0,-10.5687,-0.1211,0.0411,0.0310,0.0910,0.0010,1.1647,23.4375,23.4375,23.4375,23.4375,12.2275,0.0000,0.0000,-0.1221,-0.0610,-0.1315,-0.2230,-10.6145,0.0124,-0.0038,-0.0012,0.0000,0.0000,0.0000,0.0000,0.0000,0.0000,0.0000,0.0000,0.0000,0.0000,0.0000,0.0000,0.0000,0.0000,1.0000,0.0000,0.0000,0.0000,0.0000,0.0000,0.0000,0.0000,0.0000,0.0000,0.0000,0.0000,0.0000,0.0000,0.0000,0.0000,0.0000,0.0000,0.0000,-0.1000,-0.1000,-0.1000,-0.1000,4
0,-1,0,-10.5687,-0.1211,0.0411,0.0310,0.0910,0.0010,1.1647,23.4375,23.4375,23.4375,23.4375,12.2254,0.0000,0.0000,-0.1221,-0.0000,-0.1195,-0.2661,-10.5954,0.0124,-0.0038,-0.0012,0.0000,0.0000,0.0000,0.0000,0.0000,0.0000,0.0000,0.0000,0.0000,0.0000,0.0000,0.0000,0.0000,0.0000,1.0000,0.0000,0.0000,0.0000,0.0000,0.0000,0.0000,0.0000,0.0000,0.0000,0.0000,0.0000,0.0000,0.0000,0.0000,0.0000,0.0000,0.0000,0.0000,-0.1000,-0.1000,-0.1000,-0.1000,4
0,-1,0,-10.5687,-0.1211,0.0411,0.0310,0.0910,0.0010,1.1647,23.4375,23.4375,23.4375,23.4375,12.2244,0.0000,-0.1221,-0.0610,-0.0000,-0.1458,-0.1870,-10.6288,0.0124,-0.0038,-0.0012,0.0000,0.0000,0.0000,0.0000,0.0000,0.0000,0.0000,0.0000,0.0000,0.0000,0.0000,0.0000,0.0000,0.0000,1.0000,0.0000,0.0000,0.0000,0.0000,0.0000,0.0000,0.0000,0.0000,0.0000,0.0000,0.0000,0.0000,0.0000,0.0000,0.0000,0.0000,0.0000,0.0000,-0.1000,-0.1000,-0.1000,-0.1000,4
0,-1,0,-10.5687,-0.1211,0.0411,0.0310,0.0910,0.0010,1.1647,23.4375,23.4375,23.4375,23.4375,12.2242,0.0000,0.0000,0.0000,-0.1221,-0.1291,-0.2397,-10.5477,0.0124,-0.0038,-0.0012,0.0000,0.0000,0.0000,0.0000,0.0000,0.0000,0.0000,0.0000,0.0000,0.0000,0.0000,0.0000,0.0000,0.0000,1.0000,0.0000,0.0000,0.0000,0.0000,0.0000,0.0000,0.0000,0.0000,0.0000,0.0000,0.0000,0.0000,0.0000,0.0000,0.0000,0.0000,0.0000,0.0000,-0.1000,-0.1000,-0.1000,-0.1000,4
0,-1,0,-10.5687,-0.1211,0.0411,0.0310,0.0910,0.0010,1.1647,23.4375,23.4375,23.4375,23.4375,12.2242,0.0000,0.0000,-0.1831,0.1831,-0.1530,-0.2158,-10.6861,0.0124,-0.0038,-0.0012,0.0000,0.0000,0.0000,0.0000,0.0000,0.0000,0.0000,0.0000,0.0000,0.0000,0.0000,0.0000,0.0000,0.0000,1.0000,0.0000,0.0000,0.0000,0.0000,0.0000,0.0000,0.0000,0.0000,0.0000,0.0000,0.0000,0.0000,0.0000,0.0000,0.0000,0.0000,0.0000,0.0000,-0.1000,-0.1000,-0.1000,-0.1000,4
0,-1,0,-10.5687,-0.1211,0.0411,0.0310,0.0910,-0.0390,1.1647,23.4375,23.4375,23.4375,23.4375,12.2242,0.0000,-0.0610,-0.1831,-0.0000,-0.1363,-0.2134,-10.6050,0.0125,-0.0039,-0.0012,0.0000,0.0000,0.0000,0.0000,0.0000,0.0000,0.0000,0.0000,0.0000,0.0000,0.0000,0.0000,0.0000,0.0000,1.0000,0.0000,0.0000,0.0000,0.0000,0.0000,0.0000,0.0000,0.0000,0.0000,0.0000,0.0000,0.0000,0.0000,0.0000,0.0000,0.0000,0.0000,0.0000,-0.1000,-0.1000,-0.1000,-0.1000,4
0,-1,0,-10.5687,-0.1211,0.0411,0.0310,0.0910,-0.0390,1.1647,23.4375,23.4375,23.4375,23.4375,12.2254,0.0000,-0.0610,-0.1831,-0.0000,-0.1339,-0.2110,-10.6169,0.0125,-0.0039,-0.0012,0.0000,0.0000,0.0000,0.0000,0.0000,0.0000,0.0000,0.0000,0.0000,0.0000,0.0000,0.0000,0.0000,0.0000,1.0000,0.0000,0.0000,0.0000,0.0000,0.0000,0.0000,0.0000,0.0000,0.0000,0.0000,0.0000,0.0000,0.0000,0.0000,0.0000,0.0000,0.0000,0.0000,-0.1000,-0.1000,-0.1000,-0.1000,4
0,-1,0,-10.4417,-0.1902,0.0643,0.0310,0.0910,-0.0390,1.1647,23.4375,23.4375,23.4375,23.4375,12.2251,0.0000,0.0000,-0.1221,0.1831,-0.1435,-0.2158,-10.5811,0.0125,-0.0039,-0.0012,0.0000,0.0000,0.0000,0.0000,0.0000,0.0000,0.0000,0.0000,0.0000,0.0000,0.0000,0.0000,0.0000,0.0000,1.0000,0.0000,0.0000,0.0000,0.0000,0.0000,0.0000,0.0000,0.0000,0.0000,0.0000,0.0000,0.0000,0.0000,0.0000,0.0000,0.0000,0.0000,0.0000,-0.1000,-0.1000,-0.1000,-0.1000,4
0,-1,0,-10.4417,-0.1902,0.0643,0.0310,0.0910,-0.0390,1.1647,23.4375,23.4375,23.4375,23.4375,12.2249,0.0000,-0.0610,-0.2441,-0.0000,-0.1506,-0.1630,-10.6431,0.0125,-0.0039,-0.0012,0.0000,0.0000,0.0000,0.0000,0.0000,0.0000,0.0000,0.0000,0.0000,0.0000,0.0000,0.0000,0.0000,0.0000,1.0000,0.0000,0.0000,0.0000,0.0000,0.0000,0.0000,0.0000,0.0000,0.0000,0.0000,0.0000,0.0000,0.0000,0.0000,0.0000,0.0000,0.0000,0.0000,-0.1000,-0.1000,-0.1000,-0.1000,4
0,-1,0,-10.4417,-0.1902,0.0643,0.0310,0.0910,-0.0390,1.1647,23.4375,23.4375,23.4375,23.4375,12.2244,0.0000,0.0000,-0.2441,-0.0610,-0.1315,-0.1750,-10.6264,0.0125,-0.0040,-0.0012,0.0000,0.0000,0.0000,0.0000,0.0000,0.0000,0.0000,0.0000,0.0000,0.0000,0.0000,0.0000,0.0000,0.0000,1.0000,0.0000,0.0000,0.0000,0.0000,0.0000,0.0000,0.0000,0.0000,0.0000,0.0000,0.0000,0.0000,0.0000,0.0000,0.0000,0.0000,0.0000,0.0000,-0.1000,-0.1000,-0.1000,-0.1000,4
0,-1,0,-10.4417,-0.1902,0.0643,0.0310,0.0910,-0.0390,1.1647,23.4375,23.4375,23.4375,23.4375,12.2242,0.0000,0.0000,-0.1831,-0.0000,-0.1530,-0.1918,-10.5859,0.0127,-0.0042,-0.0012,0.0000,0.0000,0.0000,0.0000,0.0000,0.0000,0.0000,0.0000,0.0000,0.0000,0.0000,0.0000,0.0000,0.0000,1.0000,0.0000,0.0000,0.0000,0.0000,0.0000,0.0000,0.0000,0.0000,0.0000,0.0000,0.0000,0.0000,0.0000,0.0000,0.0000,0.0000,0.0000,0.0000,-0.1000,-0.1000,-0.1000,-0.1000,4
0,-1,0,-10.4417,-0.1902,0.0643,0.0310,0.0910,-0.0390,1.1647,23.4375,23.4375,23.4375,23.4375,12.2242,0.0000,-0.0610,-0.1831,-0.0000,-0.1626,-0.1966,-10.5644,0.0127,-0.0042,-0.0012,0.0000,0.0000,0.0000,0.0000,0.0000,0.0000,0.0000,0.0000,0.0000,0.0000,0.0000,0.0000,0.0000,0.0000,1.0000,0.0000,0.0000,0.0000,0.0000,0.0000,0.0000,0.0000,0.0000,0.0000,0.0000,0.0000,0.0000,0.0000,0.0000,0.0000,0.0000,0.0000,0.0000,-0.1000,-0.1000,-0.1000,-0.1000,4
0,-1,0,-10.4417,-0.1902,0.0643,0.0310,0.0910,-0.0390,1.1647,23.4375,23.4375,23.4375,23.4375,12.2237,0.0000,-0.0610,-0.1831,-0.0000,-0.1052,-0.1990,-10.6193,0.0127,-0.0042,-0.0012,0.0000,0.0000,0.0000,0.0000,0.0000,0.0000,0.0000,0.0000,0.0000,0.0000,0.0000,0.0000,0.0000,0.0000,1.0000,0.0000,0.0000,0.0000,0.0000,0.0000,0.0000,0.0000,0.0000,0.0000,0.0000,0.0000,0.0000,0.0000,0.0000,0.0000,0.0000,0.0000,0.0000,-0.1000,-0.1000,-0.1000,-0.1000,4
0,-1,0,-10.4417,-0.1902,0.0643,0.0310,0.0910,-0.0390,1.1647,23.4375,23.4375,23.4375,23.4375,12.2237,0.0000,0.0000,0.0000,-0.0000,-0.1482,-0.2062,-10.6217,0.0127,-0.0042,-0.0012,0.0000,0.0000,0.0000,0.0000,0.0000,0.0000,0.0000,0.0000,0.0000,0.0000,0.0000,0.0000,0.0000,0.0000,1.0000,0.0000,0.0000,0.0000,0.0000,0.0000,0.0000,0.0000,0.0000,0.0000,0.0000,0.0000,0.0000,0.0000,0.0000,0.0000,0.0000,0.0000,0.0000,-0.1000,-0.1000,-0.1000,-0.1000,4
0,-1,0,-10.4417,-0.1902,0.0643,0.0310,0.0910,-0.0390,1.1647,23.4375,23.4375,23.4375,23.4375,12.2234,0.0000,0.0610,-0.1221,-0.0000,-0.1458,-0.2014,-10.6145,0.0127,-0.0042,-0.0013,0.0000,0.0000,0.0000,0.0000,0.0000,0.0000,0.0000,0.0000,0.0000,0.0000,0.0000,0.0000,0.0000,0.0000,1.0000,0.0000,0.0000,0.0000,0.0000,0.0000,0.0000,0.0000,0.0000,0.0000,0.0000,0.0000,0.0000,0.0000,0.0000,0.0000,0.0000,0.0000,0.0000,-0.1000,-0.1000,-0.1000,-0.1000,4
0,-1,0,-10.4417,-0.1902,0.0643,0.0310,0.0910,-0.0390,1.1647,23.4375,23.4375,23.4375,23.4375,12.2232,0.0000,0.0000,-0.1221,-0.0000,-0.1554,-0.1678,-10.5739,0.0127,-0.0043,-0.0013,0.0000,0.0000,0.0000,0.0000,0.0000,0.0000,0.0000,0.0000,0.0000,0.0000,0.0000,0.0000,0.0000,0.0000,1.0000,0.0000,0.0000,0.0000,0.0000,0.0000,0.0000,0.0000,0.0000,0.0000,0.0000,0.0000,0.0000,0.0000,0.0000,0.0000,0.0000,0.0000,0.0000,-0.1000,-0.1000,-0.1000,-0.1000,4
0,-1,0,-10.4417,-0.1902,0.0643,0.0310,0.0910,-0.0390,1.1647,23.4375,23.4375,23.4375,23.4375,12.2232,0.0000,0.0000,-0.0610,-0.0000,-0.1650,-0.1870,-10.5954,0.0128,-0.0043,-0.0013,0.0000,0.0000,0.0000,0.0000,0.0000,0.0000,0.0000,0.0000,0.0000,0.0000,0.0000,0.0000,0.0000,0.0000,1.0000,0.0000,0.0000,0.0000,0.0000,0.0000,0.0000,0.0000,0.0000,0.0000,0.0000,0.0000,0.0000,0.0000,0.0000,0.0000,0.0000,0.0000,0.0000,-0.1000,-0.1000,-0.1000,-0.1000,4
0,-1,0,-10.4417,-0.1902,0.0643,0.0310,0.0910,-0.0390,1.1647,23.4375,23.4375,23.4375,23.4375,12.2232,0.0000,0.0000,0.0000,-0.0610,-0.1267,-0.1774,-10.5644,0.0128,-0.0043,-0.0013,0.0000,0.0000,0.0000,0.0000,0.0000,0.0000,0.0000,0.0000,0.0000,0.0000,0.0000,0.0000,0.0000,0.0000,1.0000,0.0000,0.0000,0.0000,0.0000,0.0000,0.0000,0.0000,0.0000,0.0000,0.0000,0.0000,0.0000,0.0000,0.0000,0.0000,0.0000,0.0000,0.0000,-0.1000,-0.1000,-0.1000,-0.1000,4
0,-1,0,-10.4417,-0.1902,0.0643,0.0310,0.0910,-0.0390,1.1647,23.4375,23.4375,23.4375,23.4375,12.2234,0.0000,0.0000,-0.0610,0.1221,-0.1602,-0.1486,-10.6575,0.0128,-0.0043,-0.0013,0.0000,0.0000,0.0000,0.0000,0.0000,0.0000,0.0000,0.0000,0.0000,0.0000,0.0000,0.0000,0.0000,0.0000,1.0000,0.0000,0.0000,0.0000,0.0000,0.0000,0.0000,0.0000,0.0000,0.0000,0.0000,0.0000,0.0000,0.0000,0.0000,0.0000,0.0000,0.0000,0.0000,-0.1000,-0.1000,-0.1000,-0.1000,4
0,-1,0,-10.4417,-0.1902,0.0643,0.0310,0.0910,-0.0390,1.1647,23.4375,23.4375,23.4375,23.4375,12.2232,0.0000,0.0000,-0.0610,-0.0000,-0.1458,-0.2086,-10.6073,0.0128,-0.0043,-0.0013,0.0000,0.0000,0.0000,0.0000,0.0000,0.0000,0.0000,0.0000,0.0000,0.0000,0.0000,0.0000,0.0000,0.0000,1.0000,0.0000,0.0000,0.0000,0.0000,0.0000,0.0000,0.0000,0.0000,0.0000,0.0000,0.0000,0.0000,0.0000,0.0000,0.0000,0.0000,0.0000,0.0000,-0.1000,-0.1000,-0.1000,-0.1000,4
0,-1,0,-10.4417,-0.1902,0.0643,0.0310,0.0910,-0.0390,1.1647,23.4375,23.4375,23.4375,23.4375,12.2225,0.0000,-0.0610,-0.2441,-0.0000,-0.1650,-0.1750,-10.6217,0.0128,-0.0044,-0.0013,0.0000,0.0000,0.0000,0.0000,0.0000,0.0000,0.0000,0.0000,0.0000,0.0000,0.0000,0.0000,0.0000,0.0000,1.0000,0.0000,0.0000,0.0000,0.0000,0.0000,0.0000,0.0000,0.0000,0.0000,0.0000,0.0000,0.0000,0.0000,0.0000,0.0000,0.0000,0.0000,0.0000,-0.1000,-0.1000,-0.1000,-0.1000,4
0,-1,0,-10.4417,-0.1902,0.0643,0.0310,0.0910,-0.0390,1.1647,23.4375,23.4375,23.4375,23.4375,12.2232,0.0000,-0.0610,-0.2441,0.1221,-0.1482,-0.2325,-10.5930,0.0128,-0.0044,-0.0013,0.0000,0.0000,0.0000,0.0000,0.0000,0.0000,0.0000,0.0000,0.0000,0.0000,0.0000,0.0000,0.0000,0.0000,1.0000,0.0000,0.0000,0.0000,0.0000,0.0000,0.0000,0.0000,0.0000,0.0000,0.0000,0.0000,0.0000,0.0000,0.0000,0.0000,0.0000,0.0000,0.0000,-0.1000,-0.1000,-0.1000,-0.1000,4
0,-1,0,-10.4417,-0.1902,0.0643,0.0310,0.0910,-0.0390,1.1647,23.4375,23.4375,23.4375,23.4375,12.2237,0.0000,-0.0610,-0.1221,-0.0000,-0.1028,-0.2134,-10.5787,0.0128,-0.0044,-0.0013,0.0000,0.0000,0.0000,0.0000,0.0000,0.0000,0.0000,0.0000,0.0000,0.0000,0.0000,0.0000,0.0000,0.0000,1.0000,0.0000,0.0000,0.0000,0.0000,0.0000,0.0000,0.0000,0.0000,0.0000,0.0000,0.0000,0.0000,0.0000,0.0000,0.0000,0.0000,0.0000,0.0000,-0.1000,-0.1000,-0.1000,-0.1000,4
0,-1,0,-10.4417,-0.1902,0.0643,0.0510,0.0810,-0.0190,1.1647,23.4375,23.4375,23.4375,23.4375,12.2234,0.0000,0.0610,0.0000,0.1221,-0.1506,-0.1894,-10.6670,0.0128,-0.0044,-0.0013,0.0000,0.0000,0.0000,0.0000,0.0000,0.0000,0.0000,0.0000,0.0000,0.0000,0.0000,0.0000,0.0000,0.0000,1.0000,0.0000,0.0000,0.0000,0.0000,0.0000,0.0000,0.0000,0.0000,0.0000,0.0000,0.0000,0.0000,0.0000,0.0000,0.0000,0.0000,0.0000,0.0000,-0.1000,-0.1000,-0.1000,-0.1000,4
0,-1,0,-10.4417,-0.1902,0.0643,0.0510,0.0810,-0.0190,1.1647,23.4375,23.4375,23.4375,23.4375,12.2232,0.0000,0.0000,0.0000,-0.0000,-0.1387,-0.2110,-10.6169,0.0128,-0.0044,-0.0013,0.0000,0.0000,0.0000,0.0000,0.0000,0.0000,0.0000,0.0000,0.0000,0.0000,0.0000,0.0000,0.0000,0.0000,1.0000,0.0000,0.0000,0.0000,0.0000,0.0000,0.0000,0.0000,0.0000,0.0000,0.0000,0.0000,0.0000,0.0000,0.0000,0.0000,0.0000,0.0000,0.0000,-0.1000,-0.1000,-0.1000,-0.1000,4
0,-1,0,-10.4417,-0.1902,0.0643,0.0510,0.0810,-0.0190,1.1647,23.4375,23.4375,23.4375,23.4375,12.2232,0.0000,-0.1221,-0.0610,-0.0000,-0.1578,-0.1942,-10.6408,0.0128,-0.0044,-0.0013,0.0000,0.0000,0.0000,0.0000,0.0000,0.0000,0.0000,0.0000,0.0000,0.0000,0.0000,0.0000,0.0000,0.0000,1.0000,0.0000,0.0000,0.0000,0.0000,0.0000,0.0000,0.0000,0.0000,0.0000,0.0000,0.0000,0.0000,0.0000,0.0000,0.0000,0.0000,0.0000,0.0000,-0.1000,-0.1000,-0.1000,-0.1000,4
0,-1,0,-10.5009,-0.1448,0.0906,0.0510,0.0810,-0.0190,1.1647,23.4375,23.4375,23.4375,23.4375,12.2234,0.0000,0.0610,-0.0610,0.1221,-0.1124,-0.2277,-10.6240,0.0129,-0.0044,-0.0013,0.0000,0.0000,0.0000,0.0000,0.0000,0.0000,0.0000,0.0000,0.0000,0.0000,0.0000,0.0000,0.0000,0.0000,1.0000,0.0000,0.0000,0.0000,0.0000,0.0000,0.0000,0.0000,0.0000,0.0000,0.0000,0.0000,0.0000,0.0000,0.0000,0.0000,0.0000,0.0000,0.0000,-0.1000,-0.1000,-0.1000,-0.1000,4
0,-1,0,-10.5009,-0.1448,0.0906,0.0510,0.0810,-0.0190,1.1647,23.4375,23.4375,23.4375,23.4375,12.2234,0.0000,-0.1831,-0.2441,-0.0000,-0.1052,-0.2038,-10.5787,0.0129,-0.0045,-0.0013,0.0000,0.0000,0.0000,0.0000,0.0000,0.0000,0.0000,0.0000,0.0000,0.0000,0.0000,0.0000,0.0000,0.0000,1.0000,0.0000,0.0000,0.0000,0.0000,0.0000,0.0000,0.0000,0.0000,0.0000,0.0000,0.0000,0.0000,0.0000,0.0000,0.0000,0.0000,0.0000,0.0000,-0.1000,-0.1000,-0.1000,-0.1000,4
0,-1,0,-10.5009,-0.1448,0.0906,0.0510,0.0810,-0.0190,1.1647,23.4375,23.4375,23.4375,23.4375,12.2237,0.0000,-0.0610,-0.1221,-0.1221,-0.1626,-0.1558,-10.5859,0.0129,-0.0045,-0.0013,0.0000,0.0000,0.0000,0.0000,0.0000,0.0000,0.0000,0.0000,0.0000,0.0000,0.0000,0.0000,0.0000,0.0000,1.0000,0.0000,0.0000,0.0000,0.0000,0.0000,0.0000,0.0000,0.0000,0.0000,0.0000,0.0000,0.0000,0.0000,0.0000,0.0000,0.0000,0.0000,0.0000,-0.1000,-0.1000,-0.1000,-0.1000,4
0,-1,0,-10.5009,-0.1448,0.0906,0.0510,0.0810,-0.0190,1.1647,23.4375,23.4375,23.4375,23.4375,12.2234,0.0000,0.0610,0.0000,-0.0000,-0.1267,-0.1942,-10.6002,0.0129,-0.0045,-0.0013,0.0000,0.0000,0.0000,0.0000,0.0000,0.0000,0.0000,0.0000,0.0000,0.0000,0.0000,0.0000,0.0000,0.0000,1.0000,0.0000,0.0000,0.0000,0.0000,0.0000,0.0000,0.0000,0.0000,0.0000,0.0000,0.0000,0.0000,0.0000,0.0000,0.0000,0.0000,0.0000,0.0000,-0.1000,-0.1000,-0.1000,-0.1000,4
0,-1,0,-10.5009,-0.1448,0.0906,0.0510,0.0810,-0.0190,1.1647,23.4375,23.4375,23.4375,23.4375,12.2234,0.0000,0.0610,-0.1221,-0.0610,-0.1506,-0.1990,-10.6026,0.0130,-0.0046,-0.0013,0.0000,0.0000,0.0000,0.0000,0.0000,0.0000,0.0000,0.0000,0.0000,0.0000,0.0000,0.0000,0.0000,0.0000,1.0000,0.0000,0.0000,0.0000,0.0000,0.0000,0.0000,0.0000,0.0000,0.0000,0.0000,0.0000,0.0000,0.0000,0.0000,0.0000,0.0000,0.0000,0.0000,-0.1000,-0.1000,-0.1000,-0.1000,4
0,-1,0,-10.5009,-0.1448,0.0906,0.0510,0.0810,-0.0190,1.1647,23.4375,23.4375,23.4375,23.4375,12.2237,0.0000,0.0610,-0.0610,-0.0610,-0.1578,-0.1990,-10.6240,0.0130,-0.0046,-0.0013,0.0000,0.0000,0.0000,0.0000,0.0000,0.0000,0.0000,0.0000,0.0000,0.0000,0.0000,0.0000,0.0000,0.0000,1.0000,0.0000,0.0000,0.0000,0.0000,0.0000,0.0000,0.0000,0.0000,0.0000,0.0000,0.0000,0.0000,0.0000,0.0000,0.0000,0.0000,0.0000,0.0000,-0.1000,-0.1000,-0.1000,-0.1000,4
0,-1,0,-10.5009,-0.1448,0.0906,0.0510,0.0810,-0.0190,1.1647,23.4375,23.4375,23.4375,23.4375,12.2237,0.0000,0.0000,-0.1221,-0.0000,-0.1100,-0.2230,-10.6169,0.0130,-0.0047,-0.0013,0.0000,0.0000,0.0000,0.0000,0.0000,0.0000,0.0000,0.0000,0.0000,0.0000,0.0000,0.0000,0.0000,0.0000,1.0000,0.0000,0.0000,0.0000,0.0000,0.0000,0.0000,0.0000,0.0000,0.0000,0.0000,0.0000,0.0000,0.0000,0.0000,0.0000,0.0000,0.0000,0.0000,-0.1000,-0.1000,-0.1000,-0.1000,4
0,-1,0,-10.5009,-0.1448,0.0906,0.0510,0.0810,-0.0190,1.1647,23.4375,23.4375,23.4375,23.4375,12.2242,0.0000,-0.0610,-0.1221,-0.0000,-0.1650,-0.2158,-10.6264,0.0131,-0.0047,-0.0013,0.0000,0.0000,0.0000,0.0000,0.0000,0.0000,0.0000,0.0000,0.0000,0.0000,0.0000,0.0000,0.0000,0.0000,1.0000,0.0000,0.0000,0.0000,0.0000,0.0000,0.0000,0.0000,0.0000,0.0000,0.0000,0.0000,0.0000,0.0000,0.0000,0.0000,0.0000,0.0000,0.0000,-0.1000,-0.1000,-0.1000,-0.1000,4
0,-1,0,-10.5009,-0.1448,0.0906,0.0510,0.0810,-0.0190,1.1647,23.4375,23.4375,23.4375,23.4375,12.2244,0.0000,0.0610,-0.1831,-0.0000,-0.1913,-0.1774,-10.6264,0.0131,-0.0047,-0.0013,0.0000,0.0000,0.0000,0.0000,0.0000,0.0000,0.0000,0.0000,0.0000,0.0000,0.0000,0.0000,0.0000,0.0000,1.0000,0.0000,0.0000,0.0000,0.0000,0.0000,0.0000,0.0000,0.0000,0.0000,0.0000,0.0000,0.0000,0.0000,0.0000,0.0000,0.0000,0.0000,0.0000,-0.1000,-0.1000,-0.1000,-0.1000,4
0,-1,0,-10.5009,-0.1448,0.0906,0.0510,0.0810,-0.0190,1.1647,23.4375,23.4375,23.4375,23.4375,12.2242,0.0000,0.0000,-0.0610,-0.0000,-0.1482,-0.1870,-10.5691,0.0131,-0.0047,-0.0013,0.0000,0.0000,0.0000,0.0000,0.0000,0.0000,0.0000,0.0000,0.0000,0.0000,0.0000,0.0000,0.0000,0.0000,1.0000,0.0000,0.0000,0.0000,0.0000,0.0000,0.0000,0.0000,0.0000,0.0000,0.0000,0.0000,0.0000,0.0000,0.0000,0.0000,0.0000,0.0000,0.0000,-0.1000,-0.1000,-0.1000,-0.1000,4
0,-1,0,-10.5009,-0.1448,0.0906,0.0510,0.0810,-0.0190,1.1647,23.4375,23.4375,23.4375,23.4375,12.2237,0.0000,-0.0610,-0.1831,-0.0000,-0.1602,-0.1966,-10.6002,0.0131,-0.0048,-0.0013,0.0000,0.0000,0.0000,0.0000,0.0000,0.0000,0.0000,0.0000,0.0000,0.0000,0.0000,0.0000,0.0000,0.0000,1.0000,0.0000,0.0000,0.0000,0.0000,0.0000,0.0000,0.0000,0.0000,0.0000,0.0000,0.0000,0.0000,0.0000,0.0000,0.0000,0.0000,0.0000,0.0000,-0.1000,-0.1000,-0.1000,-0.1000,4
0,-1,0,-10.5009,-0.1448,0.0906,0.0510,0.0810,-0.0190,1.1647,23.4375,23.4375,23.4375,23.4375,12.2234,0.0000,-0.0610,-0.1221,-0.0610,-0.1626,-0.1966,-10.5596,0.0131,-0.0048,-0.0013,0.0000,0.0000,0.0000,0.0000,0.0000,0.0000,0.0000,0.0000,0.0000,0.0000,0.0000,0.0000,0.0000,0.0000,1.0000,0.0000,0.0000,0.0000,0.0000,0.0000,0.0000,0.0000,0.0000,0.0000,0.0000,0.0000,0.0000,0.0000,0.0000,0.0000,0.0000,0.0000,0.0000,-0.1000,-0.1000,-0.1000,-0.1000,4
0,-1,0,-10.5009,-0.1448,0.0906,0.0510,0.0810,-0.0190,1.1647,23.4375,23.4375,23.4375,23.4375,12.2237,0.0000,0.0000,-0.1221,-0.0000,-0.1578,-0.2110,-10.5954,0.0131,-0.0048,-0.0013,0.0000,0.0000,0.0000,0.0000,0.0000,0.0000,0.0000,0.0000,0.0000,0.0000,0.0000,0.0000,0.0000,0.0000,1.0000,0.0000,0.0000,0.0000,0.0000,0.0000,0.0000,0.0000,0.0000,0.0000,0.0000,0.0000,0.0000,0.0000,0.0000,0.0000,0.0000,0.0000,0.0000,-0.1000,-0.1000,-0.1000,-0.1000,4
0,-1,0,-10.5009,-0.1448,0.0906,0.0510,0.0810,-0.0190,1.1647,23.4375,23.4375,23.4375,23.4375,12.2222,0.0000,-0.0610,-0.2441,0.1221,-0.1530,-0.2110,-10.6479,0.0131,-0.0048,-0.0013,0.0000,0.0000,0.0000,0.0000,0.0000,0.0000,0.0000,0.0000,0.0000,0.0000,0.0000,0.0000,0.0000,0.0000,1.0000,0.0000,0.0000,0.0000,0.0000,0.0000,0.0000,0.0000,0.0000,0.0000,0.0000,0.0000,0.0000,0.0000,0.0000,0.0000,0.0000,0.0000,0.0000,-0.1000,-0.1000,-0.1000,-0.1000,4
0,-1,0,-10.5009,-0.1448,0.0906,0.0510,0.0810,-0.0190,1.1647,23.4375,23.4375,23.4375,23.4375,12.2225,0.0000,-0.0610,-0.2441,0.1831,-0.1291,-0.1702,-10.5930,0.0131,-0.0049,-0.0013,0.0000,0.0000,0.0000,0.0000,0.0000,0.0000,0.0000,0.0000,0.0000,0.0000,0.0000,0.0000,0.0000,0.0000,1.0000,0.0000,0.0000,0.0000,0.0000,0.0000,0.0000,0.0000,0.0000,0.0000,0.0000,0.0000,0.0000,0.0000,0.0000,0.0000,0.0000,0.0000,0.0000,-0.1000,-0.1000,-0.1000,-0.1000,4
0,-1,0,-10.5009,-0.1448,0.0906,0.0510,0.0810,-0.0190,1.1647,23.4375,23.4375,23.4375,23.4375,12.2232,0.0000,0.0000,-0.0610,-0.0000,-0.1243,-0.1774,-10.6193,0.0132,-0.0049,-0.0013,0.0000,0.0000,0.0000,0.0000,0.0000,0.0000,0.0000,0.0000,0.0000,0.0000,0.0000,0.0000,0.0000,0.0000,1.0000,0.0000,0.0000,0.0000,0.0000,0.0000,0.0000,0.0000,0.0000,0.0000,0.0000,0.0000,0.0000,0.0000,0.0000,0.0000,0.0000,0.0000,0.0000,-0.1000,-0.1000,-0.1000,-0.1000,4
