loop_index, counter, last_step_ns, T_ref, theta_ref, phi_ref, uwind, vwind, wwind, rho, rpm1, rpm2, rpm3, rpm4,v_batt,alt,gyro_roll,gyro_pitch,gyro_yaw,accel_X,accel_Y,accel_Z,roll,pitch,yaw,X,Y,Z,Xdot,Ydot,Zdot,x0,y0,z0,e.xbee_time,xbee_time_received_ns,xbee_x,xbee_y,xbee_z,xbee_qw,xbee_qx,xbee_qy,xbee_qz,sp_roll,sp_pitch,sp_yaw,sp_X,sp_Y,sp_Z,sp_Xdot,sp_Ydot,sp_Zdot,u_roll,u_pitch,u_yaw,u_X,u_Y,u_Z,mot_1,mot_2,mot_3,mot_4,thrust_mot1,thrust_mot2,thrust_mot3,thrust_mot4,flight_mode
0,-1,0,-10.4993,-0.0819,-0.1508,-0.8190,0.8510,-0.0290,1.1730,8025.5859,8025.5859,8025.5859,8025.5859,12.2297,0.0000,0.0000,0.0000,0.1221,-0.1435,-0.1175,-10.5620,0.0096,-0.0095,-0.0035,0.0000,0.0000,0.0000,0.0000,0.0000,0.0000,0.0000,0.0000,0.0000,0.0000,0.0000,0.0000,0.0000,0.0000,1.0000,0.0000,0.0000,0.0000,0.0000,0.0000,0.0000,0.0000,0.0000,0.0000,0.0000,0.0000,0.0000,0.0000,0.0000,0.0000,0.0000,0.0000,0.0000,-0.1000,-0.1000,-0.1000,-0.1000,0.0000,0.0000,0.0000,0.0000,4
0,-1,0,-10.4993,-0.0819,-0.1508,-0.8190,0.8510,-0.0290,1.1730,8025.5859,8025.5859,8025.5859,8025.5859,12.2316,0.0000,-0.0610,-0.1831,-0.0000,-0.1411,-0.1175,-10.6073,0.0096,-0.0095,-0.0035,0.0000,0.0000,0.0000,0.0000,0.0000,0.0000,0.0000,0.0000,0.0000,0.0000,0.0000,0.0000,0.0000,0.0000,1.0000,0.0000,0.0000,0.0000,0.0000,0.0000,0.0000,0.0000,0.0000,0.0000,0.0000,0.0000,0.0000,0.0000,0.0000,0.0000,0.0000,0.0000,0.0000,-0.1000,-0.1000,-0.1000,-0.1000,0.0000,0.0000,0.0000,0.0000,4
0,-1,0,-10.4993,-0.0819,-0.1508,-0.8190,0.8510,-0.0290,1.1730,8025.5859,8025.5859,8025.5859,8025.5859,12.2329,0.0000,-0.1221,-0.0610,-0.0000,-0.1769,-0.1295,-10.5644,0.0096,-0.0095,-0.0035,0.0000,0.0000,0.0000,0.0000,0.0000,0.0000,0.0000,0.0000,0.0000,0.0000,0.0000,0.0000,0.0000,0.0000,1.0000,0.0000,0.0000,0.0000,0.0000,0.0000,0.0000,0.0000,0.0000,0.0000,0.0000,0.0000,0.0000,0.0000,0.0000,0.0000,0.0000,0.0000,0.0000,-0.1000,-0.1000,-0.1000,-0.1000,0.0000,0.0000,0.0000,0.0000,4
0,-1,0,-10.4993,-0.0819,-0.1508,-0.8190,0.8510,-0.0290,1.1730,8025.5859,8025.5859,8025.5859,8025.5859,12.2343,0.0000,0.0610,-0.1221,-0.0000,-0.1482,-0.0959,-10.6360,0.0096,-0.0095,-0.0035,0.0000,0.0000,0.0000,0.0000,0.0000,0.0000,0.0000,0.0000,0.0000,0.0000,0.0000,0.0000,0.0000,0.0000,1.0000,0.0000,0.0000,0.0000,0.0000,0.0000,0.0000,0.0000,0.0000,0.0000,0.0000,0.0000,0.0000,0.0000,0.0000,0.0000,0.0000,0.0000,0.0000,-0.1000,-0.1000,-0.1000,-0.1000,0.0000,0.0000,0.0000,0.0000,4
0,-1,0,-10.4993,-0.0819,-0.1508,-0.8190,0.8510,-0.0290,1.1730,8025.5859,8025.5859,8025.5859,8025.5859,12.2358,0.0000,-0.0610,-0.1221,-0.0610,-0.1721,-0.1390,-10.5882,0.0096,-0.0095,-0.0035,0.0000,0.0000,0.0000,0.0000,0.0000,0.0000,0.0000,0.0000,0.0000,0.0000,0.0000,0.0000,0.0000,0.0000,1.0000,0.0000,0.0000,0.0000,0.0000,0.0000,0.0000,0.0000,0.0000,0.0000,0.0000,0.0000,0.0000,0.0000,0.0000,0.0000,0.0000,0.0000,0.0000,-0.1000,-0.1000,-0.1000,-0.1000,0.0000,0.0000,0.0000,0.0000,4
0,-1,0,-10.4993,-0.0819,-0.1508,-0.8190,0.8510,-0.0290,1.1730,8025.5859,8025.5859,8025.5859,8025.5859,12.2375,0.0000,-0.0610,-0.1221,-0.1221,-0.1602,-0.1390,-10.5119,0.0096,-0.0095,-0.0035,0.0000,0.0000,0.0000,0.0000,0.0000,0.0000,0.0000,0.0000,0.0000,0.0000,0.0000,0.0000,0.0000,0.0000,1.0000,0.0000,0.0000,0.0000,0.0000,0.0000,0.0000,0.0000,0.0000,0.0000,0.0000,0.0000,0.0000,0.0000,0.0000,0.0000,0.0000,0.0000,0.0000,-0.1000,-0.1000,-0.1000,-0.1000,0.0000,0.0000,0.0000,0.0000,4
0,-1,0,-10.5628,-0.0953,-0.0913,-0.7290,0.7710,0.0410,1.1730,8025.5859,8025.5859,8025.5859,8025.5859,12.2387,0.0000,-0.0610,-0.1831,-0.0000,-0.1626,-0.0983,-10.5763,0.0096,-0.0095,-0.0035,0.0000,0.0000,0.0000,0.0000,0.0000,0.0000,0.0000,0.0000,0.0000,0.0000,0.0000,0.0000,0.0000,0.0000,1.0000,0.0000,0.0000,0.0000,0.0000,0.0000,0.0000,0.0000,0.0000,0.0000,0.0000,0.0000,0.0000,0.0000,0.0000,0.0000,0.0000,0.0000,0.0000,-0.1000,-0.1000,-0.1000,-0.1000,0.0000,0.0000,0.0000,0.0000,4
0,-1,0,-10.5628,-0.0953,-0.0913,-0.7290,0.7710,0.0410,1.1730,8025.5859,8025.5859,8025.5859,8025.5859,12.2406,0.0000,0.0610,0.0000,-0.0000,-0.1219,-0.1462,-10.5954,0.0097,-0.0095,-0.0035,0.0000,0.0000,0.0000,0.0000,0.0000,0.0000,0.0000,0.0000,0.0000,0.0000,0.0000,0.0000,0.0000,0.0000,1.0000,0.0000,0.0000,0.0000,0.0000,0.0000,0.0000,0.0000,0.0000,0.0000,0.0000,0.0000,0.0000,0.0000,0.0000,0.0000,0.0000,0.0000,0.0000,-0.1000,-0.1000,-0.1000,-0.1000,0.0000,0.0000,0.0000,0.0000,4
0,-1,0,-10.5628,-0.0953,-0.0913,-0.7290,0.7710,0.0410,1.1730,8025.5859,8025.5859,8025.5859,8025.5859,12.2420,0.0000,-0.0610,-0.3052,0.1831,-0.1698,-0.1366,-10.5906,0.0097,-0.0096,-0.0035,0.0000,0.0000,0.0000,0.0000,0.0000,0.0000,0.0000,0.0000,0.0000,0.0000,0.0000,0.0000,0.0000,0.0000,1.0000,0.0000,0.0000,0.0000,0.0000,0.0000,0.0000,0.0000,0.0000,0.0000,0.0000,0.0000,0.0000,0.0000,0.0000,0.0000,0.0000,0.0000,0.0000,-0.1000,-0.1000,-0.1000,-0.1000,0.0000,0.0000,0.0000,0.0000,4
0,-1,0,-10.5628,-0.0953,-0.0913,-0.7290,0.7710,0.0410,1.1730,8025.5859,8025.5859,8025.5859,8025.5859,12.2435,0.0000,-0.0610,-0.2441,0.1831,-0.1674,-0.0959,-10.5763,0.0097,-0.0096,-0.0035,0.0000,0.0000,0.0000,0.0000,0.0000,0.0000,0.0000,0.0000,0.0000,0.0000,0.0000,0.0000,0.0000,0.0000,1.0000,0.0000,0.0000,0.0000,0.0000,0.0000,0.0000,0.0000,0.0000,0.0000,0.0000,0.0000,0.0000,0.0000,0.0000,0.0000,0.0000,0.0000,0.0000,-0.1000,-0.1000,-0.1000,-0.1000,0.0000,0.0000,0.0000,0.0000,4
0,-1,0,-10.5628,-0.0953,-0.0913,-0.7290,0.7710,0.0410,1.1730,8025.5859,8025.5859,8025.5859,8025.5859,12.2449,0.0000,-0.0610,-0.2441,0.1831,-0.1769,-0.1414,-10.5668,0.0097,-0.0096,-0.0035,0.0000,0.0000,0.0000,0.0000,0.0000,0.0000,0.0000,0.0000,0.0000,0.0000,0.0000,0.0000,0.0000,0.0000,1.0000,0.0000,0.0000,0.0000,0.0000,0.0000,0.0000,0.0000,0.0000,0.0000,0.0000,0.0000,0.0000,0.0000,0.0000,0.0000,0.0000,0.0000,0.0000,-0.1000,-0.1000,-0.1000,-0.1000,0.0000,0.0000,0.0000,0.0000,4
0,-1,0,-10.5628,-0.0953,-0.0913,-0.7290,0.7710,0.0410,1.1730,123.2422,8025.5859,8025.5859,8025.5859,12.2464,0.0000,-0.1831,-0.3052,0.1221,-0.1674,-0.1271,-10.6288,0.0097,-0.0096,-0.0035,0.0000,0.0000,0.0000,0.0000,0.0000,0.0000,0.0000,0.0000,0.0000,0.0000,0.0000,0.0000,0.0000,0.0000,1.0000,0.0000,0.0000,0.0000,0.0000,0.0000,0.0000,0.0000,0.0000,0.0000,0.0000,0.0000,0.0000,0.0000,0.0000,0.0000,0.0000,0.0000,0.0000,-0.1000,-0.1000,-0.1000,-0.1000,0.0000,0.0000,0.0000,0.0000,4
0,-1,0,-10.5628,-0.0953,-0.0913,-0.7290,0.7710,0.0410,1.1730,123.2422,8025.5859,8025.5859,8025.5859,12.2476,0.0000,0.0000,0.0000,-0.1221,-0.1530,-0.1031,-10.5715,0.0097,-0.0096,-0.0035,0.0000,0.0000,0.0000,0.0000,0.0000,0.0000,0.0000,0.0000,0.0000,0.0000,0.0000,0.0000,0.0000,0.0000,1.0000,0.0000,0.0000,0.0000,0.0000,0.0000,0.0000,0.0000,0.0000,0.0000,0.0000,0.0000,0.0000,0.0000,0.0000,0.0000,0.0000,0.0000,0.0000,-0.1000,-0.1000,-0.1000,-0.1000,0.0000,0.0000,0.0000,0.0000,4
0,-1,0,-10.5628,-0.0953,-0.0913,-0.7290,0.7710,0.0410,1.1730,123.2422,8025.5859,8025.5859,8025.5859,12.2493,0.0000,-0.0610,-0.1831,-0.0610,-0.1219,-0.0935,-10.6121,0.0097,-0.0096,-0.0035,0.0000,0.0000,0.0000,0.0000,0.0000,0.0000,0.0000,0.0000,0.0000,0.0000,0.0000,0.0000,0.0000,0.0000,1.0000,0.0000,0.0000,0.0000,0.0000,0.0000,0.0000,0.0000,0.0000,0.0000,0.0000,0.0000,0.0000,0.0000,0.0000,0.0000,0.0000,0.0000,0.0000,-0.1000,-0.1000,-0.1000,-0.1000,0.0000,0.0000,0.0000,0.0000,4
0,-1,0,-10.5628,-0.0953,-0.0913,-0.7290,0.7710,0.0410,1.1730,123.2422,8025.5859,8025.5859,8025.5859,12.2507,0.0000,-0.1831,-0.1221,-0.1221,-0.1745,-0.1079,-10.5596,0.0097,-0.0097,-0.0035,0.0000,0.0000,0.0000,0.0000,0.0000,0.0000,0.0000,0.0000,0.0000,0.0000,0.0000,0.0000,0.0000,0.0000,1.0000,0.0000,0.0000,0.0000,0.0000,0.0000,0.0000,0.0000,0.0000,0.0000,0.0000,0.0000,0.0000,0.0000,0.0000,0.0000,0.0000,0.0000,0.0000,-0.1000,-0.1000,-0.1000,-0.1000,0.0000,0.0000,0.0000,0.0000,4
0,-1,0,-10.4867,-0.1377,-0.1137,-0.1090,0.1310,0.0410,1.1730,8025.5859,8025.5859,8025.5859,8025.5859,12.2522,0.0000,-0.0610,-0.1221,-0.0000,-0.1530,-0.0887,-10.5763,0.0097,-0.0097,-0.0035,0.0000,0.0000,0.0000,0.0000,0.0000,0.0000,0.0000,0.0000,0.0000,0.0000,0.0000,0.0000,0.0000,0.0000,1.0000,0.0000,0.0000,0.0000,0.0000,0.0000,0.0000,0.0000,0.0000,0.0000,0.0000,0.0000,0.0000,0.0000,0.0000,0.0000,0.0000,0.0000,0.0000,-0.1000,-0.1000,-0.1000,-0.1000,0.0000,0.0000,0.0000,0.0000,4
0,-1,0,-10.5580,-0.0438,-0.1282,-0.1390,0.0910,0.0510,1.1730,8025.5859,8025.5859,8025.5859,8025.5859,12.2534,0.0000,-0.0610,-0.1831,0.1221,-0.1602,-0.1103,-10.5811,0.0102,-0.0112,-0.0041,0.0000,0.0000,0.0000,0.0000,0.0000,0.0000,0.0000,0.0000,0.0000,0.0000,0.0000,0.0000,0.0000,0.0000,1.0000,0.0000,0.0000,0.0000,0.0000,0.0000,0.0000,0.0000,0.0000,0.0000,0.0000,0.0000,0.0000,0.0000,0.0000,0.0000,0.0000,0.0000,0.0000,-0.1000,-0.1000,-0.1000,-0.1000,0.0000,0.0000,0.0000,0.0000,4
0,-1,0,-10.5580,-0.0438,-0.1282,-0.1390,0.0910,0.0510,1.1730,8025.5859,8025.5859,8025.5859,8025.5859,12.2549,0.0000,-0.0610,-0.1221,0.1221,-0.1578,-0.0959,-10.5739,0.0102,-0.0112,-0.0041,0.0000,0.0000,0.0000,0.0000,0.0000,0.0000,0.0000,0.0000,0.0000,0.0000,0.0000,0.0000,0.0000,0.0000,1.0000,0.0000,0.0000,0.0000,0.0000,0.0000,0.0000,0.0000,0.0000,0.0000,0.0000,0.0000,0.0000,0.0000,0.0000,0.0000,0.0000,0.0000,0.0000,-0.1000,-0.1000,-0.1000,-0.1000,0.0000,0.0000,0.0000,0.0000,4
0,-1,0,-10.4664,-0.1043,-0.1576,-0.1390,0.0910,0.0510,1.1730,8025.5859,8025.5859,8025.5859,8025.5859,12.2563,0.0000,-0.1831,-0.2441,-0.0000,-0.1458,-0.1199,-10.6479,0.0102,-0.0112,-0.0041,0.0000,0.0000,0.0000,0.0000,0.0000,0.0000,0.0000,0.0000,0.0000,0.0000,0.0000,0.0000,0.0000,0.0000,1.0000,0.0000,0.0000,0.0000,0.0000,0.0000,0.0000,0.0000,0.0000,0.0000,0.0000,0.0000,0.0000,0.0000,0.0000,0.0000,0.0000,0.0000,0.0000,-0.1000,-0.1000,-0.1000,-0.1000,0.0000,0.0000,0.0000,0.0000,4
0,-1,0,-10.4664,-0.1043,-0.1576,-0.2390,0.0610,0.0710,1.1730,8025.5859,8025.5859,8025.5859,8025.5859,12.2575,0.0000,-0.0610,-0.1221,-0.0000,-0.1937,-0.1438,-10.5190,0.0102,-0.0112,-0.0041,0.0000,0.0000,0.0000,0.0000,0.0000,0.0000,0.0000,0.0000,0.0000,0.0000,0.0000,0.0000,0.0000,0.0000,1.0000,0.0000,0.0000,0.0000,0.0000,0.0000,0.0000,0.0000,0.0000,0.0000,0.0000,0.0000,0.0000,0.0000,0.0000,0.0000,0.0000,0.0000,0.0000,-0.1000,-0.1000,-0.1000,-0.1000,0.0000,0.0000,0.0000,0.0000,4
0,-1,0,-10.4664,-0.1043,-0.1576,-0.2390,0.0610,0.0710,1.1730,8025.5859,8025.5859,8025.5859,8025.5859,12.2575,0.0000,-0.1831,-0.1221,-0.0000,-0.1267,-0.1462,-10.6097,0.0102,-0.0113,-0.0041,0.0000,0.0000,0.0000,0.0000,0.0000,0.0000,0.0000,0.0000,0.0000,0.0000,0.0000,0.0000,0.0000,0.0000,1.0000,0.0000,0.0000,0.0000,0.0000,0.0000,0.0000,0.0000,0.0000,0.0000,0.0000,0.0000,0.0000,0.0000,0.0000,0.0000,0.0000,0.0000,0.0000,-0.1000,-0.1000,-0.1000,-0.1000,0.0000,0.0000,0.0000,0.0000,4
0,-1,0,-10.4664,-0.1043,-0.1576,-0.2390,0.0610,0.0710,1.1730,8025.5859,8025.5859,8025.5859,8025.5859,12.2568,0.0000,-0.0610,-0.2441,-0.0000,-0.1411,-0.0815,-10.5381,0.0102,-0.0113,-0.0041,0.0000,0.0000,0.0000,0.0000,0.0000,0.0000,0.0000,0.0000,0.0000,0.0000,0.0000,0.0000,0.0000,0.0000,1.0000,0.0000,0.0000,0.0000,0.0000,0.0000,0.0000,0.0000,0.0000,0.0000,0.0000,0.0000,0.0000,0.0000,0.0000,0.0000,0.0000,0.0000,0.0000,-0.1000,-0.1000,-0.1000,-0.1000,0.0000,0.0000,0.0000,0.0000,4
0,-1,0,-10.4664,-0.1043,-0.1576,-0.2390,0.0610,0.0710,1.1730,8025.5859,8025.5859,8025.5859,8025.5859,12.2568,0.0000,0.0610,0.0000,-0.0000,-0.1626,-0.1103,-10.5668,0.0102,-0.0113,-0.0041,0.0000,0.0000,0.0000,0.0000,0.0000,0.0000,0.0000,0.0000,0.0000,0.0000,0.0000,0.0000,0.0000,0.0000,1.0000,0.0000,0.0000,0.0000,0.0000,0.0000,0.0000,0.0000,0.0000,0.0000,0.0000,0.0000,0.0000,0.0000,0.0000,0.0000,0.0000,0.0000,0.0000,-0.1000,-0.1000,-0.1000,-0.1000,0.0000,0.0000,0.0000,0.0000,4
0,-1,0,-10.4664,-0.1043,-0.1576,-0.2390,0.0610,0.0710,1.1730,123.2422,8025.5859,8025.5859,8025.5859,12.2565,0.0000,-0.0610,-0.1831,-0.0000,-0.1435,-0.1199,-10.6050,0.0102,-0.0113,-0.0041,0.0000,0.0000,0.0000,0.0000,0.0000,0.0000,0.0000,0.0000,0.0000,0.0000,0.0000,0.0000,0.0000,0.0000,1.0000,0.0000,0.0000,0.0000,0.0000,0.0000,0.0000,0.0000,0.0000,0.0000,0.0000,0.0000,0.0000,0.0000,0.0000,0.0000,0.0000,0.0000,0.0000,-0.1000,-0.1000,-0.1000,-0.1000,0.0000,0.0000,0.0000,0.0000,4
0,-1,0,-10.4664,-0.1043,-0.1576,-0.2390,0.0610,0.0710,1.1730,123.2422,8025.5859,8025.5859,8025.5859,12.2565,0.0000,-0.0610,-0.1221,0.1831,-0.1602,-0.1199,-10.5930,0.0102,-0.0113,-0.0041,0.0000,0.0000,0.0000,0.0000,0.0000,0.0000,0.0000,0.0000,0.0000,0.0000,0.0000,0.0000,0.0000,0.0000,1.0000,0.0000,0.0000,0.0000,0.0000,0.0000,0.0000,0.0000,0.0000,0.0000,0.0000,0.0000,0.0000,0.0000,0.0000,0.0000,0.0000,0.0000,0.0000,-0.1000,-0.1000,-0.1000,-0.1000,0.0000,0.0000,0.0000,0.0000,4
0,-1,0,-10.4664,-0.1043,-0.1576,-0.2390,0.0610,0.0710,1.1730,123.2422,8025.5859,8025.5859,8025.5859,12.2563,0.0000,-0.1831,-0.1221,-0.0610,-0.1530,-0.0887,-10.5501,0.0102,-0.0113,-0.0041,0.0000,0.0000,0.0000,0.0000,0.0000,0.0000,0.0000,0.0000,0.0000,0.0000,0.0000,0.0000,0.0000,0.0000,1.0000,0.0000,0.0000,0.0000,0.0000,0.0000,0.0000,0.0000,0.0000,0.0000,0.0000,0.0000,0.0000,0.0000,0.0000,0.0000,0.0000,0.0000,0.0000,-0.1000,-0.1000,-0.1000,-0.1000,0.0000,0.0000,0.0000,0.0000,4
0,-1,0,-10.4664,-0.1043,-0.1576,-0.2390,0.0610,0.0710,1.1730,123.2422,123.2422,8025.5859,8025.5859,12.2561,0.0000,0.0610,-0.0610,-0.0000,-0.1745,-0.1031,-10.5787,0.0102,-0.0113,-0.0041,0.0000,0.0000,0.0000,0.0000,0.0000,0.0000,0.0000,0.0000,0.0000,0.0000,0.0000,0.0000,0.0000,0.0000,1.0000,0.0000,0.0000,0.0000,0.0000,0.0000,0.0000,0.0000,0.0000,0.0000,0.0000,0.0000,0.0000,0.0000,0.0000,0.0000,0.0000,0.0000,0.0000,-0.1000,-0.1000,-0.1000,-0.1000,0.0000,0.0000,0.0000,0.0000,4
0,-1,0,-10.4664,-0.1043,-0.1576,-0.2390,0.0610,0.0710,1.1730,123.2422,123.2422,8025.5859,8025.5859,12.2553,0.0000,0.0000,0.0000,-0.0610,-0.1650,-0.1534,-10.6026,0.0102,-0.0113,-0.0041,0.0000,0.0000,0.0000,0.0000,0.0000,0.0000,0.0000,0.0000,0.0000,0.0000,0.0000,0.0000,0.0000,0.0000,1.0000,0.0000,0.0000,0.0000,0.0000,0.0000,0.0000,0.0000,0.0000,0.0000,0.0000,0.0000,0.0000,0.0000,0.0000,0.0000,0.0000,0.0000,0.0000,-0.1000,-0.1000,-0.1000,-0.1000,0.0000,0.0000,0.0000,0.0000,4
0,-1,0,-10.4664,-0.1043,-0.1576,-0.2390,0.0610,0.0710,1.1730,123.2422,123.2422,8025.5859,8025.5859,12.2551,0.0000,0.0000,0.0000,-0.0000,-0.1411,-0.1558,-10.6169,0.0103,-0.0113,-0.0041,0.0000,0.0000,0.0000,0.0000,0.0000,0.0000,0.0000,0.0000,0.0000,0.0000,0.0000,0.0000,0.0000,0.0000,1.0000,0.0000,0.0000,0.0000,0.0000,0.0000,0.0000,0.0000,0.0000,0.0000,0.0000,0.0000,0.0000,0.0000,0.0000,0.0000,0.0000,0.0000,0.0000,-0.1000,-0.1000,-0.1000,-0.1000,0.0000,0.0000,0.0000,0.0000,4
0,-1,0,-10.5029,-0.0860,-0.1463,-0.1790,0.1410,-0.0090,1.1730,8025.5859,8025.5859,8025.5859,8025.5859,12.2539,0.0000,0.0610,0.0000,-0.0000,-0.1482,-0.1486,-10.6288,0.0103,-0.0114,-0.0042,0.0000,0.0000,0.0000,0.0000,0.0000,0.0000,0.0000,0.0000,0.0000,0.0000,0.0000,0.0000,0.0000,0.0000,1.0000,0.0000,0.0000,0.0000,0.0000,0.0000,0.0000,0.0000,0.0000,0.0000,0.0000,0.0000,0.0000,0.0000,0.0000,0.0000,0.0000,0.0000,0.0000,-0.1000,-0.1000,-0.1000,-0.1000,0.0000,0.0000,0.0000,0.0000,4
0,-1,0,-10.5029,-0.0860,-0.1463,-0.1790,0.1410,-0.0090,1.1730,8025.5859,8025.5859,8025.5859,8025.5859,12.2527,0.0000,-0.2441,-0.1221,-0.0000,-0.1387,-0.1127,-10.5668,0.0103,-0.0114,-0.0042,0.0000,0.0000,0.0000,0.0000,0.0000,0.0000,0.0000,0.0000,0.0000,0.0000,0.0000,0.0000,0.0000,0.0000,1.0000,0.0000,0.0000,0.0000,0.0000,0.0000,0.0000,0.0000,0.0000,0.0000,0.0000,0.0000,0.0000,0.0000,0.0000,0.0000,0.0000,0.0000,0.0000,-0.1000,-0.1000,-0.1000,-0.1000,0.0000,0.0000,0.0000,0.0000,4
0,-1,0,-10.5029,-0.0860,-0.1463,-0.1790,0.1410,-0.0090,1.1730,8025.5859,8025.5859,8025.5859,8025.5859,12.2517,0.0000,-0.1831,-0.3662,-0.0000,-0.1674,-0.1079,-10.5381,0.0103,-0.0115,-0.0042,0.0000,0.0000,0.0000,0.0000,0.0000,0.0000,0.0000,0.0000,0.0000,0.0000,0.0000,0.0000,0.0000,0.0000,1.0000,0.0000,0.0000,0.0000,0.0000,0.0000,0.0000,0.0000,0.0000,0.0000,0.0000,0.0000,0.0000,0.0000,0.0000,0.0000,0.0000,0.0000,0.0000,-0.1000,-0.1000,-0.1000,-0.1000,0.0000,0.0000,0.0000,0.0000,4
0,-1,0,-10.5029,-0.0860,-0.1463,-0.1790,0.1410,-0.0090,1.1730,8025.5859,8025.5859,8025.5859,8025.5859,12.2510,0.0000,-0.0610,-0.2441,-0.0610,-0.1745,-0.1271,-10.6002,0.0103,-0.0115,-0.0042,0.0000,0.0000,0.0000,0.0000,0.0000,0.0000,0.0000,0.0000,0.0000,0.0000,0.0000,0.0000,0.0000,0.0000,1.0000,0.0000,0.0000,0.0000,0.0000,0.0000,0.0000,0.0000,0.0000,0.0000,0.0000,0.0000,0.0000,0.0000,0.0000,0.0000,0.0000,0.0000,0.0000,-0.1000,-0.1000,-0.1000,-0.1000,0.0000,0.0000,0.0000,0.0000,4
0,-1,0,-10.5029,-0.0860,-0.1463,-0.1790,0.1410,-0.0090,1.1730,8025.5859,8025.5859,8025.5859,8025.5859,12.2500,0.0000,0.0610,0.0000,-0.0000,-0.1458,-0.1343,-10.6837,0.0103,-0.0115,-0.0042,0.0000,0.0000,0.0000,0.0000,0.0000,0.0000,0.0000,0.0000,0.0000,0.0000,0.0000,0.0000,0.0000,0.0000,1.0000,0.0000,0.0000,0.0000,0.0000,0.0000,0.0000,0.0000,0.0000,0.0000,0.0000,0.0000,0.0000,0.0000,0.0000,0.0000,0.0000,0.0000,0.0000,-0.1000,-0.1000,-0.1000,-0.1000,0.0000,0.0000,0.0000,0.0000,4
0,-1,0,-10.5029,-0.0860,-0.1463,-0.1790,0.1410,-0.0090,1.1730,8025.5859,8025.5859,8025.5859,8025.5859,12.2488,0.0000,-0.0610,-0.1831,0.1831,-0.1650,-0.1366,-10.5620,0.0103,-0.0115,-0.0042,0.0000,0.0000,0.0000,0.0000,0.0000,0.0000,0.0000,0.0000,0.0000,0.0000,0.0000,0.0000,0.0000,0.0000,1.0000,0.0000,0.0000,0.0000,0.0000,0.0000,0.0000,0.0000,0.0000,0.0000,0.0000,0.0000,0.0000,0.0000,0.0000,0.0000,0.0000,0.0000,0.0000,-0.1000,-0.1000,-0.1000,-0.1000,0.0000,0.0000,0.0000,0.0000,4
0,-1,0,-10.5029,-0.0860,-0.1463,-0.1790,0.1410,-0.0090,1.1730,8025.5859,8025.5859,8025.5859,8025.5859,12.2478,0.0000,-0.3052,-0.3052,-0.0610,-0.1841,-0.1390,-10.5763,0.0103,-0.0115,-0.0042,0.0000,0.0000,0.0000,0.0000,0.0000,0.0000,0.0000,0.0000,0.0000,0.0000,0.0000,0.0000,0.0000,0.0000,1.0000,0.0000,0.0000,0.0000,0.0000,0.0000,0.0000,0.0000,0.0000,0.0000,0.0000,0.0000,0.0000,0.0000,0.0000,0.0000,0.0000,0.0000,0.0000,-0.1000,-0.1000,-0.1000,-0.1000,0.0000,0.0000,0.0000,0.0000,4
0,-1,0,-10.5029,-0.0860,-0.1463,-0.1790,0.1410,-0.0090,1.1730,8025.5859,8025.5859,8025.5859,8025.5859,12.2471,0.0000,-0.0610,-0.1221,-0.0610,-0.1961,-0.1007,-10.5811,0.0103,-0.0116,-0.0042,0.0000,0.0000,0.0000,0.0000,0.0000,0.0000,0.0000,0.0000,0.0000,0.0000,0.0000,0.0000,0.0000,0.0000,1.0000,0.0000,0.0000,0.0000,0.0000,0.0000,0.0000,0.0000,0.0000,0.0000,0.0000,0.0000,0.0000,0.0000,0.0000,0.0000,0.0000,0.0000,0.0000,-0.1000,-0.1000,-0.1000,-0.1000,0.0000,0.0000,0.0000,0.0000,4
0,-1,0,-10.5029,-0.0860,-0.1463,-0.1790,0.1410,-0.0090,1.1730,8025.5859,8025.5859,8025.5859,8025.5859,12.2459,0.0000,-0.0610,-0.1831,-0.0000,-0.1602,-0.1486,-10.6336,0.0103,-0.0116,-0.0042,0.0000,0.0000,0.0000,0.0000,0.0000,0.0000,0.0000,0.0000,0.0000,0.0000,0.0000,0.0000,0.0000,0.0000,1.0000,0.0000,0.0000,0.0000,0.0000,0.0000,0.0000,0.0000,0.0000,0.0000,0.0000,0.0000,0.0000,0.0000,0.0000,0.0000,0.0000,0.0000,0.0000,-0.1000,-0.1000,-0.1000,-0.1000,0.0000,0.0000,0.0000,0.0000,4
0,-1,0,-10.5029,-0.0860,-0.1463,-0.1790,0.1410,-0.0090,1.1730,8025.5859,8025.5859,8025.5859,8025.5859,12.2447,0.0000,-0.1831,-0.1221,-0.0000,-0.2367,-0.1079,-10.5930,0.0103,-0.0116,-0.0042,0.0000,0.0000,0.0000,0.0000,0.0000,0.0000,0.0000,0.0000,0.0000,0.0000,0.0000,0.0000,0.0000,0.0000,1.0000,0.0000,0.0000,0.0000,0.0000,0.0000,0.0000,0.0000,0.0000,0.0000,0.0000,0.0000,0.0000,0.0000,0.0000,0.0000,0.0000,0.0000,0.0000,-0.1000,-0.1000,-0.1000,-0.1000,0.0000,0.0000,0.0000,0.0000,4
0,-1,0,-10.5029,-0.0860,-0.1463,-0.1790,0.1410,-0.0090,1.1730,8025.5859,8025.5859,8025.5859,8025.5859,12.2437,0.0000,0.0000,0.0610,-0.0610,-0.1578,-0.1343,-10.5739,0.0103,-0.0116,-0.0042,0.0000,0.0000,0.0000,0.0000,0.0000,0.0000,0.0000,0.0000,0.0000,0.0000,0.0000,0.0000,0.0000,0.0000,1.0000,0.0000,0.0000,0.0000,0.0000,0.0000,0.0000,0.0000,0.0000,0.0000,0.0000,0.0000,0.0000,0.0000,0.0000,0.0000,0.0000,0.0000,0.0000,-0.1000,-0.1000,-0.1000,-0.1000,0.0000,0.0000,0.0000,0.0000,4
0,-1,0,-10.5584,-0.0839,-0.1060,-0.1790,0.1410,-0.0090,1.1730,8025.5859,8025.5859,8025.5859,8025.5859,12.2423,0.0000,-0.1221,-0.0610,-0.0000,-0.1698,-0.1366,-10.5238,0.0103,-0.0116,-0.0042,0.0000,0.0000,0.0000,0.0000,0.0000,0.0000,0.0000,0.0000,0.0000,0.0000,0.0000,0.0000,0.0000,0.0000,1.0000,0.0000,0.0000,0.0000,0.0000,0.0000,0.0000,0.0000,0.0000,0.0000,0.0000,0.0000,0.0000,0.0000,0.0000,0.0000,0.0000,0.0000,0.0000,-0.1000,-0.1000,-0.1000,-0.1000,0.0000,0.0000,0.0000,0.0000,4
0,-1,0,-10.5584,-0.0839,-0.1060,-0.1090,0.0810,0.0110,1.1730,8025.5859,8025.5859,8025.5859,8025.5859,12.2416,0.0000,0.0000,-0.0610,-0.0610,-0.2008,-0.0983,-10.5739,0.0103,-0.0116,-0.0042,0.0000,0.0000,0.0000,0.0000,0.0000,0.0000,0.0000,0.0000,0.0000,0.0000,0.0000,0.0000,0.0000,0.0000,1.0000,0.0000,0.0000,0.0000,0.0000,0.0000,0.0000,0.0000,0.0000,0.0000,0.0000,0.0000,0.0000,0.0000,0.0000,0.0000,0.0000,0.0000,0.0000,-0.1000,-0.1000,-0.1000,-0.1000,0.0000,0.0000,0.0000,0.0000,4
0,-1,0,-10.5584,-0.0839,-0.1060,-0.1090,0.0810,0.0110,1.1730,8025.5859,8025.5859,8025.5859,8025.5859,12.2411,0.0000,-0.0610,-0.2441,-0.0000,-0.1291,-0.0695,-10.6670,0.0103,-0.0116,-0.0042,0.0000,0.0000,0.0000,0.0000,0.0000,0.0000,0.0000,0.0000,0.0000,0.0000,0.0000,0.0000,0.0000,0.0000,1.0000,0.0000,0.0000,0.0000,0.0000,0.0000,0.0000,0.0000,0.0000,0.0000,0.0000,0.0000,0.0000,0.0000,0.0000,0.0000,0.0000,0.0000,0.0000,-0.1000,-0.1000,-0.1000,-0.1000,0.0000,0.0000,0.0000,0.0000,4
0,-1,0,-10.5584,-0.0839,-0.1060,-0.1090,0.0810,0.0110,1.1730,8025.5859,8025.5859,8025.5859,8025.5859,12.2401,0.0000,-0.0610,-0.1221,-0.0610,-0.1937,-0.0935,-10.5978,0.0103,-0.0116,-0.0043,0.0000,0.0000,0.0000,0.0000,0.0000,0.0000,0.0000,0.0000,0.0000,0.0000,0.0000,0.0000,0.0000,0.0000,1.0000,0.0000,0.0000,0.0000,0.0000,0.0000,0.0000,0.0000,0.0000,0.0000,0.0000,0.0000,0.0000,0.0000,0.0000,0.0000,0.0000,0.0000,0.0000,-0.1000,-0.1000,-0.1000,-0.1000,0.0000,0.0000,0.0000,0.0000,4
0,-1,0,-10.5413,-0.1340,-0.0598,-0.0990,0.2210,0.0210,1.1730,123.2422,123.2422,123.2422,123.2422,12.2389,0.0000,0.0000,0.0000,-0.0000,-0.1267,-0.1271,-10.5071,0.0103,-0.0116,-0.0043,0.0000,0.0000,0.0000,0.0000,0.0000,0.0000,0.0000,0.0000,0.0000,0.0000,0.0000,0.0000,0.0000,0.0000,1.0000,0.0000,0.0000,0.0000,0.0000,0.0000,0.0000,0.0000,0.0000,0.0000,0.0000,0.0000,0.0000,0.0000,0.0000,0.0000,0.0000,0.0000,0.0000,-0.1000,-0.1000,-0.1000,-0.1000,0.0000,0.0000,0.0000,0.0000,4
0,-1,0,-10.4238,-0.2106,0.0002,-0.8290,0.9110,-0.0090,1.1730,8025.5859,8025.5859,8025.5859,123.2422,12.2377,0.0000,-0.0610,-0.1831,0.1831,-0.1267,-0.1055,-10.5572,0.0105,-0.0126,-0.0045,0.0000,0.0000,0.0000,0.0000,0.0000,0.0000,0.0000,0.0000,0.0000,0.0000,0.0000,0.0000,0.0000,0.0000,1.0000,0.0000,0.0000,0.0000,0.0000,0.0000,0.0000,0.0000,0.0000,0.0000,0.0000,0.0000,0.0000,0.0000,0.0000,0.0000,0.0000,0.0000,0.0000,-0.1000,-0.1000,-0.1000,-0.1000,0.0000,0.0000,0.0000,0.0000,4
0,-1,0,-10.4238,-0.2106,0.0002,-0.8290,0.9110,-0.0090,1.1730,8025.5859,8025.5859,8025.5859,123.2422,12.2372,0.0000,-0.0610,-0.1221,-0.1221,-0.1506,-0.1031,-10.5811,0.0105,-0.0126,-0.0045,0.0000,0.0000,0.0000,0.0000,0.0000,0.0000,0.0000,0.0000,0.0000,0.0000,0.0000,0.0000,0.0000,0.0000,1.0000,0.0000,0.0000,0.0000,0.0000,0.0000,0.0000,0.0000,0.0000,0.0000,0.0000,0.0000,0.0000,0.0000,0.0000,0.0000,0.0000,0.0000,0.0000,-0.1000,-0.1000,-0.1000,-0.1000,0.0000,0.0000,0.0000,0.0000,4
0,-1,0,-10.4238,-0.2106,0.0002,-0.8290,0.9110,-0.0090,1.1730,8025.5859,8025.5859,8025.5859,123.2422,12.2362,0.0000,0.0000,-0.1221,0.1221,-0.1721,-0.1223,-10.5524,0.0105,-0.0126,-0.0045,0.0000,0.0000,0.0000,0.0000,0.0000,0.0000,0.0000,0.0000,0.0000,0.0000,0.0000,0.0000,0.0000,0.0000,1.0000,0.0000,0.0000,0.0000,0.0000,0.0000,0.0000,0.0000,0.0000,0.0000,0.0000,0.0000,0.0000,0.0000,0.0000,0.0000,0.0000,0.0000,0.0000,-0.1000,-0.1000,-0.1000,-0.1000,0.0000,0.0000,0.0000,0.0000,4
0,-1,0,-10.4238,-0.2106,0.0002,-0.8290,0.9110,-0.0090,1.1730,8025.5859,8025.5859,8025.5859,123.2422,12.2358,0.0000,-0.0610,-0.1221,-0.0000,-0.1411,-0.0911,-10.6026,0.0105,-0.0126,-0.0045,0.0000,0.0000,0.0000,0.0000,0.0000,0.0000,0.0000,0.0000,0.0000,0.0000,0.0000,0.0000,0.0000,0.0000,1.0000,0.0000,0.0000,0.0000,0.0000,0.0000,0.0000,0.0000,0.0000,0.0000,0.0000,0.0000,0.0000,0.0000,0.0000,0.0000,0.0000,0.0000,0.0000,-0.1000,-0.1000,-0.1000,-0.1000,0.0000,0.0000,0.0000,0.0000,4
0,-1,0,-10.5690,-0.0946,-0.0857,-0.0590,0.8310,-0.1090,1.1730,8025.5859,8025.5859,8025.5859,8025.5859,12.2355,0.0000,-0.0610,-0.1221,-0.0610,-0.1506,-0.1343,-10.5429,0.0105,-0.0126,-0.0045,0.0000,0.0000,0.0000,0.0000,0.0000,0.0000,0.0000,0.0000,0.0000,0.0000,0.0000,0.0000,0.0000,0.0000,1.0000,0.0000,0.0000,0.0000,0.0000,0.0000,0.0000,0.0000,0.0000,0.0000,0.0000,0.0000,0.0000,0.0000,0.0000,0.0000,0.0000,0.0000,0.0000,-0.1000,-0.1000,-0.1000,-0.1000,0.0000,0.0000,0.0000,0.0000,4
0,-1,0,-10.5690,-0.0946,-0.0857,-0.0590,0.8310,-0.1090,1.1730,8025.5859,8025.5859,8025.5859,8025.5859,12.2358,0.0000,0.0610,-0.1221,-0.0000,-0.1674,-0.1414,-10.5429,0.0105,-0.0127,-0.0045,0.0000,0.0000,0.0000,0.0000,0.0000,0.0000,0.0000,0.0000,0.0000,0.0000,0.0000,0.0000,0.0000,0.0000,1.0000,0.0000,0.0000,0.0000,0.0000,0.0000,0.0000,0.0000,0.0000,0.0000,0.0000,0.0000,0.0000,0.0000,0.0000,0.0000,0.0000,0.0000,0.0000,-0.1000,-0.1000,-0.1000,-0.1000,0.0000,0.0000,0.0000,0.0000,4
0,-1,0,-10.5690,-0.0946,-0.0857,-0.0590,0.8310,-0.1090,1.1730,8025.5859,8025.5859,8025.5859,8025.5859,12.2360,0.0000,0.0000,-0.1221,-0.0000,-0.1482,-0.1223,-10.5978,0.0106,-0.0127,-0.0045,0.0000,0.0000,0.0000,0.0000,0.0000,0.0000,0.0000,0.0000,0.0000,0.0000,0.0000,0.0000,0.0000,0.0000,1.0000,0.0000,0.0000,0.0000,0.0000,0.0000,0.0000,0.0000,0.0000,0.0000,0.0000,0.0000,0.0000,0.0000,0.0000,0.0000,0.0000,0.0000,0.0000,-0.1000,-0.1000,-0.1000,-0.1000,0.0000,0.0000,0.0000,0.0000,4
0,-1,0,-10.5690,-0.0946,-0.0857,-0.0590,0.8310,-0.1090,1.1730,8025.5859,8025.5859,8025.5859,8025.5859,12.2362,0.0000,-0.1221,-0.0610,-0.0610,-0.1554,-0.0767,-10.5644,0.0106,-0.0127,-0.0045,0.0000,0.0000,0.0000,0.0000,0.0000,0.0000,0.0000,0.0000,0.0000,0.0000,0.0000,0.0000,0.0000,0.0000,1.0000,0.0000,0.0000,0.0000,0.0000,0.0000,0.0000,0.0000,0.0000,0.0000,0.0000,0.0000,0.0000,0.0000,0.0000,0.0000,0.0000,0.0000,0.0000,-0.1000,-0.1000,-0.1000,-0.1000,0.0000,0.0000,0.0000,0.0000,4
0,-1,0,-10.5690,-0.0946,-0.0857,-0.0590,0.8310,-0.1090,1.1730,123.2422,8025.5859,8025.5859,8025.5859,12.2360,0.0000,0.0000,0.0000,-0.1221,-0.1435,-0.1486,-10.5811,0.0106,-0.0127,-0.0046,0.0000,0.0000,0.0000,0.0000,0.0000,0.0000,0.0000,0.0000,0.0000,0.0000,0.0000,0.0000,0.0000,0.0000,1.0000,0.0000,0.0000,0.0000,0.0000,0.0000,0.0000,0.0000,0.0000,0.0000,0.0000,0.0000,0.0000,0.0000,0.0000,0.0000,0.0000,0.0000,0.0000,-0.1000,-0.1000,-0.1000,-0.1000,0.0000,0.0000,0.0000,0.0000,4
0,-1,0,-10.5690,-0.0946,-0.0857,-0.0590,0.8310,-0.1090,1.1730,123.2422,8025.5859,8025.5859,8025.5859,12.2362,0.0000,-0.0610,-0.1221,-0.0610,-0.1458,-0.1678,-10.6073,0.0106,-0.0127,-0.0046,0.0000,0.0000,0.0000,0.0000,0.0000,0.0000,0.0000,0.0000,0.0000,0.0000,0.0000,0.0000,0.0000,0.0000,1.0000,0.0000,0.0000,0.0000,0.0000,0.0000,0.0000,0.0000,0.0000,0.0000,0.0000,0.0000,0.0000,0.0000,0.0000,0.0000,0.0000,0.0000,0.0000,-0.1000,-0.1000,-0.1000,-0.1000,0.0000,0.0000,0.0000,0.0000,4
0,-1,0,-10.5690,-0.0946,-0.0857,-0.0590,0.8310,-0.1090,1.1730,123.2422,8025.5859,8025.5859,8025.5859,12.2358,0.0000,0.0000,0.0000,-0.0000,-0.1913,-0.0959,-10.5763,0.0106,-0.0127,-0.0046,0.0000,0.0000,0.0000,0.0000,0.0000,0.0000,0.0000,0.0000,0.0000,0.0000,0.0000,0.0000,0.0000,0.0000,1.0000,0.0000,0.0000,0.0000,0.0000,0.0000,0.0000,0.0000,0.0000,0.0000,0.0000,0.0000,0.0000,0.0000,0.0000,0.0000,0.0000,0.0000,0.0000,-0.1000,-0.1000,-0.1000,-0.1000,0.0000,0.0000,0.0000,0.0000,4
0,-1,0,-10.5690,-0.0946,-0.0857,-0.0590,0.8310,-0.1090,1.1730,123.2422,123.2422,8025.5859,8025.5859,12.2358,0.0000,0.0610,0.0000,0.1221,-0.1817,-0.1390,-10.5835,0.0106,-0.0127,-0.0046,0.0000,0.0000,0.0000,0.0000,0.0000,0.0000,0.0000,0.0000,0.0000,0.0000,0.0000,0.0000,0.0000,0.0000,1.0000,0.0000,0.0000,0.0000,0.0000,0.0000,0.0000,0.0000,0.0000,0.0000,0.0000,0.0000,0.0000,0.0000,0.0000,0.0000,0.0000,0.0000,0.0000,-0.1000,-0.1000,-0.1000,-0.1000,0.0000,0.0000,0.0000,0.0000,4
0,-1,0,-10.5690,-0.0946,-0.0857,-0.0590,0.8310,-0.1090,1.1730,123.2422,123.2422,8025.5859,8025.5859,12.2360,0.0000,-0.1221,0.0000,-0.0000,-0.1913,-0.1678,-10.5453,0.0106,-0.0127,-0.0046,0.0000,0.0000,0.0000,0.0000,0.0000,0.0000,0.0000,0.0000,0.0000,0.0000,0.0000,0.0000,0.0000,0.0000,1.0000,0.0000,0.0000,0.0000,0.0000,0.0000,0.0000,0.0000,0.0000,0.0000,0.0000,0.0000,0.0000,0.0000,0.0000,0.0000,0.0000,0.0000,0.0000,-0.1000,-0.1000,-0.1000,-0.1000,0.0000,0.0000,0.0000,0.0000,4
0,-1,0,-10.5690,-0.0946,-0.0857,-0.0590,0.8310,-0.1090,1.1730,123.2422,123.2422,8025.5859,8025.5859,12.2362,0.0000,-0.0610,-0.2441,0.1221,-0.1769,-0.0983,-10.6121,0.0106,-0.0127,-0.0046,0.0000,0.0000,0.0000,0.0000,0.0000,0.0000,0.0000,0.0000,0.0000,0.0000,0.0000,0.0000,0.0000,0.0000,1.0000,0.0000,0.0000,0.0000,0.0000,0.0000,0.0000,0.0000,0.0000,0.0000,0.0000,0.0000,0.0000,0.0000,0.0000,0.0000,0.0000,0.0000,0.0000,-0.1000,-0.1000,-0.1000,-0.1000,0.0000,0.0000,0.0000,0.0000,4
0,-1,0,-10.5690,-0.0946,-0.0857,-0.0590,0.8310,-0.1090,1.1730,123.2422,123.2422,8025.5859,8025.5859,12.2362,0.0000,-0.0610,-0.1221,0.1831,-0.1100,-0.1127,-10.5286,0.0106,-0.0127,-0.0046,0.0000,0.0000,0.0000,0.0000,0.0000,0.0000,0.0000,0.0000,0.0000,0.0000,0.0000,0.0000,0.0000,0.0000,1.0000,0.0000,0.0000,0.0000,0.0000,0.0000,0.0000,0.0000,0.0000,0.0000,0.0000,0.0000,0.0000,0.0000,0.0000,0.0000,0.0000,0.0000,0.0000,-0.1000,-0.1000,-0.1000,-0.1000,0.0000,0.0000,0.0000,0.0000,4
0,-1,0,-10.5433,-0.1078,-0.0970,-0.7790,0.8610,-0.0890,1.1730,123.2422,123.2422,123.2422,123.2422,12.2362,0.0000,-0.0610,-0.1221,-0.0000,-0.1721,-0.1103,-10.5763,0.0106,-0.0127,-0.0046,0.0000,0.0000,0.0000,0.0000,0.0000,0.0000,0.0000,0.0000,0.0000,0.0000,0.0000,0.0000,0.0000,0.0000,1.0000,0.0000,0.0000,0.0000,0.0000,0.0000,0.0000,0.0000,0.0000,0.0000,0.0000,0.0000,0.0000,0.0000,0.0000,0.0000,0.0000,0.0000,0.0000,-0.1000,-0.1000,-0.1000,-0.1000,0.0000,0.0000,0.0000,0.0000,4
0,-1,0,-10.5536,-0.1026,-0.0927,-0.0190,0.7110,0.3810,1.1730,123.2422,123.2422,123.2422,123.2422,12.2360,0.0000,-0.0610,-0.1831,0.1831,-0.1984,-0.1390,-10.5715,0.0107,-0.0129,-0.0046,0.0000,0.0000,0.0000,0.0000,0.0000,0.0000,0.0000,0.0000,0.0000,0.0000,0.0000,0.0000,0.0000,0.0000,1.0000,0.0000,0.0000,0.0000,0.0000,0.0000,0.0000,0.0000,0.0000,0.0000,0.0000,0.0000,0.0000,0.0000,0.0000,0.0000,0.0000,0.0000,0.0000,-0.1000,-0.1000,-0.1000,-0.1000,0.0000,0.0000,0.0000,0.0000,4
0,-1,0,-10.5536,-0.1026,-0.0927,-0.0190,0.7110,0.3810,1.1730,123.2422,123.2422,123.2422,123.2422,12.2353,0.0000,-0.1831,-0.0610,-0.0000,-0.1674,-0.1127,-10.5548,0.0107,-0.0129,-0.0046,0.0000,0.0000,0.0000,0.0000,0.0000,0.0000,0.0000,0.0000,0.0000,0.0000,0.0000,0.0000,0.0000,0.0000,1.0000,0.0000,0.0000,0.0000,0.0000,0.0000,0.0000,0.0000,0.0000,0.0000,0.0000,0.0000,0.0000,0.0000,0.0000,0.0000,0.0000,0.0000,0.0000,-0.1000,-0.1000,-0.1000,-0.1000,0.0000,0.0000,0.0000,0.0000,4
0,-1,0,-10.5536,-0.1026,-0.0927,-0.0190,0.7110,0.3810,1.1730,123.2422,123.2422,123.2422,123.2422,12.2355,0.0000,-0.0610,-0.1831,-0.0610,-0.1554,-0.0935,-10.6503,0.0107,-0.0129,-0.0046,0.0000,0.0000,0.0000,0.0000,0.0000,0.0000,0.0000,0.0000,0.0000,0.0000,0.0000,0.0000,0.0000,0.0000,1.0000,0.0000,0.0000,0.0000,0.0000,0.0000,0.0000,0.0000,0.0000,0.0000,0.0000,0.0000,0.0000,0.0000,0.0000,0.0000,0.0000,0.0000,0.0000,-0.1000,-0.1000,-0.1000,-0.1000,0.0000,0.0000,0.0000,0.0000,4
0,-1,0,-10.5536,-0.1026,-0.0927,-0.0190,0.7110,0.3810,1.1730,123.2422,123.2422,123.2422,123.2422,12.2355,0.0000,-0.0610,-0.1831,-0.0000,-0.1674,-0.1271,-10.5715,0.0107,-0.0130,-0.0046,0.0000,0.0000,0.0000,0.0000,0.0000,0.0000,0.0000,0.0000,0.0000,0.0000,0.0000,0.0000,0.0000,0.0000,1.0000,0.0000,0.0000,0.0000,0.0000,0.0000,0.0000,0.0000,0.0000,0.0000,0.0000,0.0000,0.0000,0.0000,0.0000,0.0000,0.0000,0.0000,0.0000,-0.1000,-0.1000,-0.1000,-0.1000,0.0000,0.0000,0.0000,0.0000,4
0,-1,0,-10.4194,-0.2117,-0.0056,-0.0190,0.7110,0.3810,1.1730,123.2422,123.2422,123.2422,123.2422,12.2353,0.0000,0.0000,0.0000,-0.0000,-0.1411,-0.1414,-10.6050,0.0107,-0.0130,-0.0046,0.0000,0.0000,0.0000,0.0000,0.0000,0.0000,0.0000,0.0000,0.0000,0.0000,0.0000,0.0000,0.0000,0.0000,1.0000,0.0000,0.0000,0.0000,0.0000,0.0000,0.0000,0.0000,0.0000,0.0000,0.0000,0.0000,0.0000,0.0000,0.0000,0.0000,0.0000,0.0000,0.0000,-0.1000,-0.1000,-0.1000,-0.1000,0.0000,0.0000,0.0000,0.0000,4
0,-1,0,-10.4194,-0.2117,-0.0056,-0.3190,0.7810,-0.0490,1.1730,123.2422,123.2422,123.2422,123.2422,12.2348,0.0000,-0.2441,-0.1831,-0.0000,-0.1769,-0.1726,-10.5739,0.0107,-0.0130,-0.0046,0.0000,0.0000,0.0000,0.0000,0.0000,0.0000,0.0000,0.0000,0.0000,0.0000,0.0000,0.0000,0.0000,0.0000,1.0000,0.0000,0.0000,0.0000,0.0000,0.0000,0.0000,0.0000,0.0000,0.0000,0.0000,0.0000,0.0000,0.0000,0.0000,0.0000,0.0000,0.0000,0.0000,-0.1000,-0.1000,-0.1000,-0.1000,0.0000,0.0000,0.0000,0.0000,4
0,-1,0,-10.4194,-0.2117,-0.0056,-0.3190,0.7810,-0.0490,1.1730,123.2422,123.2422,123.2422,123.2422,12.2348,0.0000,-0.0610,-0.1831,-0.0000,-0.1435,-0.1151,-10.6002,0.0107,-0.0130,-0.0046,0.0000,0.0000,0.0000,0.0000,0.0000,0.0000,0.0000,0.0000,0.0000,0.0000,0.0000,0.0000,0.0000,0.0000,1.0000,0.0000,0.0000,0.0000,0.0000,0.0000,0.0000,0.0000,0.0000,0.0000,0.0000,0.0000,0.0000,0.0000,0.0000,0.0000,0.0000,0.0000,0.0000,-0.1000,-0.1000,-0.1000,-0.1000,0.0000,0.0000,0.0000,0.0000,4
0,-1,0,-10.5510,-0.1298,-0.0528,-0.7690,0.8210,-0.0490,1.1730,123.2422,123.2422,123.2422,123.2422,12.2343,0.0000,-0.1221,-0.0610,-0.0000,-0.1793,-0.1175,-10.5572,0.0107,-0.0130,-0.0047,0.0000,0.0000,0.0000,0.0000,0.0000,0.0000,0.0000,0.0000,0.0000,0.0000,0.0000,0.0000,0.0000,0.0000,1.0000,0.0000,0.0000,0.0000,0.0000,0.0000,0.0000,0.0000,0.0000,0.0000,0.0000,0.0000,0.0000,0.0000,0.0000,0.0000,0.0000,0.0000,0.0000,-0.1000,-0.1000,-0.1000,-0.1000,0.0000,0.0000,0.0000,0.0000,4
0,-1,0,-10.5510,-0.1298,-0.0528,-0.7690,0.8210,-0.0490,1.1730,123.2422,123.2422,123.2422,123.2422,12.2348,0.0000,-0.1221,-0.0610,-0.0000,-0.1793,-0.0887,-10.5524,0.0107,-0.0130,-0.0047,0.0000,0.0000,0.0000,0.0000,0.0000,0.0000,0.0000,0.0000,0.0000,0.0000,0.0000,0.0000,0.0000,0.0000,1.0000,0.0000,0.0000,0.0000,0.0000,0.0000,0.0000,0.0000,0.0000,0.0000,0.0000,0.0000,0.0000,0.0000,0.0000,0.0000,0.0000,0.0000,0.0000,-0.1000,-0.1000,-0.1000,-0.1000,0.0000,0.0000,0.0000,0.0000,4
0,-1,0,-10.5558,-0.1001,-0.0933,-0.7690,0.8210,-0.0490,1.1730,123.2422,123.2422,123.2422,123.2422,12.2345,0.0000,0.0000,0.0610,-0.0610,-0.1721,-0.1151,-10.5620,0.0107,-0.0130,-0.0047,0.0000,0.0000,0.0000,0.0000,0.0000,0.0000,0.0000,0.0000,0.0000,0.0000,0.0000,0.0000,0.0000,0.0000,1.0000,0.0000,0.0000,0.0000,0.0000,0.0000,0.0000,0.0000,0.0000,0.0000,0.0000,0.0000,0.0000,0.0000,0.0000,0.0000,0.0000,0.0000,0.0000,-0.1000,-0.1000,-0.1000,-0.1000,0.0000,0.0000,0.0000,0.0000,4
0,-1,0,-10.4137,0.1251,-0.1734,-0.1390,-0.0990,-0.0990,1.1730,123.2422,123.2422,123.2422,123.2422,12.2338,0.0000,-0.1221,-0.0610,-0.0000,-0.1650,-0.1199,-10.5381,0.0107,-0.0130,-0.0047,0.0000,0.0000,0.0000,0.0000,0.0000,0.0000,0.0000,0.0000,0.0000,0.0000,0.0000,0.0000,0.0000,0.0000,1.0000,0.0000,0.0000,0.0000,0.0000,0.0000,0.0000,0.0000,0.0000,0.0000,0.0000,0.0000,0.0000,0.0000,0.0000,0.0000,0.0000,0.0000,0.0000,-0.1000,-0.1000,-0.1000,-0.1000,0.0000,0.0000,0.0000,0.0000,4
0,-1,0,-10.4032,0.0300,-0.2160,-0.1090,-0.0690,-0.0590,1.1730,8025.5859,8025.5859,123.2422,123.2422,12.2336,0.0000,-0.0610,-0.3052,-0.0000,-0.1626,-0.1702,-10.5477,0.0111,-0.0139,-0.0049,0.0000,0.0000,0.0000,0.0000,0.0000,0.0000,0.0000,0.0000,0.0000,0.0000,0.0000,0.0000,0.0000,0.0000,1.0000,0.0000,0.0000,0.0000,0.0000,0.0000,0.0000,0.0000,0.0000,0.0000,0.0000,0.0000,0.0000,0.0000,0.0000,0.0000,0.0000,0.0000,0.0000,-0.1000,-0.1000,-0.1000,-0.1000,0.0000,0.0000,0.0000,0.0000,4
0,-1,0,-10.4032,0.0300,-0.2160,-0.1090,-0.0690,-0.0590,1.1730,8025.5859,8025.5859,8025.5859,123.2422,12.2331,0.0000,-0.0610,-0.1221,-0.0610,-0.1602,-0.1151,-10.5095,0.0111,-0.0139,-0.0049,0.0000,0.0000,0.0000,0.0000,0.0000,0.0000,0.0000,0.0000,0.0000,0.0000,0.0000,0.0000,0.0000,0.0000,1.0000,0.0000,0.0000,0.0000,0.0000,0.0000,0.0000,0.0000,0.0000,0.0000,0.0000,0.0000,0.0000,0.0000,0.0000,0.0000,0.0000,0.0000,0.0000,-0.1000,-0.1000,-0.1000,-0.1000,0.0000,0.0000,0.0000,0.0000,4
0,-1,0,-10.4032,0.0300,-0.2160,-0.1090,-0.0690,-0.0590,1.1730,8025.5859,8025.5859,8025.5859,123.2422,12.2333,0.0000,-0.0610,-0.1221,-0.0610,-0.1602,-0.0935,-10.5596,0.0111,-0.0139,-0.0049,0.0000,0.0000,0.0000,0.0000,0.0000,0.0000,0.0000,0.0000,0.0000,0.0000,0.0000,0.0000,0.0000,0.0000,1.0000,0.0000,0.0000,0.0000,0.0000,0.0000,0.0000,0.0000,0.0000,0.0000,0.0000,0.0000,0.0000,0.0000,0.0000,0.0000,0.0000,0.0000,0.0000,-0.1000,-0.1000,-0.1000,-0.1000,0.0000,0.0000,0.0000,0.0000,4
0,-1,0,-10.4032,0.0300,-0.2160,-0.1090,-0.0690,-0.0590,1.1730,8025.5859,8025.5859,8025.5859,123.2422,12.2336,0.0000,0.0000,0.0000,-0.0610,-0.1291,-0.0983,-10.5644,0.0111,-0.0139,-0.0049,0.0000,0.0000,0.0000,0.0000,0.0000,0.0000,0.0000,0.0000,0.0000,0.0000,0.0000,0.0000,0.0000,0.0000,1.0000,0.0000,0.0000,0.0000,0.0000,0.0000,0.0000,0.0000,0.0000,0.0000,0.0000,0.0000,0.0000,0.0000,0.0000,0.0000,0.0000,0.0000,0.0000,-0.1000,-0.1000,-0.1000,-0.1000,0.0000,0.0000,0.0000,0.0000,4
0,-1,0,-10.4666,-0.1619,-0.0972,-0.0490,0.0810,-0.0290,1.1730,8025.5859,8025.5859,8025.5859,8025.5859,12.2331,0.0000,-0.1831,-0.1831,-0.0000,-0.1984,-0.1343,-10.5954,0.0111,-0.0139,-0.0049,0.0000,0.0000,0.0000,0.0000,0.0000,0.0000,0.0000,0.0000,0.0000,0.0000,0.0000,0.0000,0.0000,0.0000,1.0000,0.0000,0.0000,0.0000,0.0000,0.0000,0.0000,0.0000,0.0000,0.0000,0.0000,0.0000,0.0000,0.0000,0.0000,0.0000,0.0000,0.0000,0.0000,-0.1000,-0.1000,-0.1000,-0.1000,0.0000,0.0000,0.0000,0.0000,4
0,-1,0,-10.4315,-0.0796,-0.1896,-0.0790,-0.0390,-0.1090,1.1730,123.2422,123.2422,8025.5859,8025.5859,12.2329,0.0000,0.0000,-0.0610,-0.0000,-0.1052,-0.1175,-10.5811,0.0111,-0.0142,-0.0050,0.0000,0.0000,0.0000,0.0000,0.0000,0.0000,0.0000,0.0000,0.0000,0.0000,0.0000,0.0000,0.0000,0.0000,1.0000,0.0000,0.0000,0.0000,0.0000,0.0000,0.0000,0.0000,0.0000,0.0000,0.0000,0.0000,0.0000,0.0000,0.0000,0.0000,0.0000,0.0000,0.0000,-0.1000,-0.1000,-0.1000,-0.1000,0.0000,0.0000,0.0000,0.0000,4
0,-1,0,-10.5083,-0.0642,-0.1537,-0.0990,-0.0090,-0.0690,1.1730,8025.5859,8025.5859,8025.5859,8025.5859,12.2326,0.0000,-0.0610,-0.1221,-0.0000,-0.1865,-0.1774,-10.5620,0.0111,-0.0142,-0.0050,0.0000,0.0000,0.0000,0.0000,0.0000,0.0000,0.0000,0.0000,0.0000,0.0000,0.0000,0.0000,0.0000,0.0000,1.0000,0.0000,0.0000,0.0000,0.0000,0.0000,0.0000,0.0000,0.0000,0.0000,0.0000,0.0000,0.0000,0.0000,0.0000,0.0000,0.0000,0.0000,0.0000,-0.1000,-0.1000,-0.1000,-0.1000,0.0000,0.0000,0.0000,0.0000,4
0,-1,0,-10.3996,0.1072,-0.1920,-0.0890,-0.0490,-0.0790,1.1730,8025.5859,8025.5859,8025.5859,8025.5859,12.2341,0.0000,-0.1221,-0.0610,0.1221,-0.1650,-0.1271,-10.6002,0.0113,-0.0144,-0.0051,0.0000,0.0000,0.0000,0.0000,0.0000,0.0000,0.0000,0.0000,0.0000,0.0000,0.0000,0.0000,0.0000,0.0000,1.0000,0.0000,0.0000,0.0000,0.0000,0.0000,0.0000,0.0000,0.0000,0.0000,0.0000,0.0000,0.0000,0.0000,0.0000,0.0000,0.0000,0.0000,0.0000,-0.1000,-0.1000,-0.1000,-0.1000,0.0000,0.0000,0.0000,0.0000,4
0,-1,0,-10.5529,-0.0860,-0.1093,-0.0790,0.0510,-0.0190,1.1730,8025.5859,8025.5859,8025.5859,8025.5859,12.2353,0.0000,-0.0610,-0.2441,-0.0000,-0.1865,-0.1366,-10.5524,0.0114,-0.0152,-0.0053,0.0000,0.0000,0.0000,0.0000,0.0000,0.0000,0.0000,0.0000,0.0000,0.0000,0.0000,0.0000,0.0000,0.0000,1.0000,0.0000,0.0000,0.0000,0.0000,0.0000,0.0000,0.0000,0.0000,0.0000,0.0000,0.0000,0.0000,0.0000,0.0000,0.0000,0.0000,0.0000,0.0000,-0.1000,-0.1000,-0.1000,-0.1000,0.0000,0.0000,0.0000,0.0000,4
0,-1,0,-10.5529,-0.0860,-0.1093,-0.0790,0.0510,-0.0190,1.1730,8025.5859,8025.5859,8025.5859,8025.5859,12.2365,0.0000,-0.0610,-0.1831,-0.0000,-0.1984,-0.1462,-10.5691,0.0115,-0.0152,-0.0053,0.0000,0.0000,0.0000,0.0000,0.0000,0.0000,0.0000,0.0000,0.0000,0.0000,0.0000,0.0000,0.0000,0.0000,1.0000,0.0000,0.0000,0.0000,0.0000,0.0000,0.0000,0.0000,0.0000,0.0000,0.0000,0.0000,0.0000,0.0000,0.0000,0.0000,0.0000,0.0000,0.0000,-0.1000,-0.1000,-0.1000,-0.1000,0.0000,0.0000,0.0000,0.0000,4
0,-1,0,-10.5529,-0.0860,-0.1093,-0.0790,0.0510,-0.0190,1.1730,8025.5859,8025.5859,8025.5859,8025.5859,12.2377,0.0000,-0.1831,-0.1221,-0.0610,-0.1506,-0.1151,-10.5715,0.0115,-0.0153,-0.0053,0.0000,0.0000,0.0000,0.0000,0.0000,0.0000,0.0000,0.0000,0.0000,0.0000,0.0000,0.0000,0.0000,0.0000,1.0000,0.0000,0.0000,0.0000,0.0000,0.0000,0.0000,0.0000,0.0000,0.0000,0.0000,0.0000,0.0000,0.0000,0.0000,0.0000,0.0000,0.0000,0.0000,-0.1000,-0.1000,-0.1000,-0.1000,0.0000,0.0000,0.0000,0.0000,4
0,-1,0,-10.4997,-0.0935,-0.1437,-0.0790,0.0510,-0.0190,1.1730,8025.5859,8025.5859,8025.5859,8025.5859,12.2387,0.0000,-0.1831,-0.1221,-0.0000,-0.1698,-0.0719,-10.5596,0.0114,-0.0153,-0.0053,0.0000,0.0000,0.0000,0.0000,0.0000,0.0000,0.0000,0.0000,0.0000,0.0000,0.0000,0.0000,0.0000,0.0000,1.0000,0.0000,0.0000,0.0000,0.0000,0.0000,0.0000,0.0000,0.0000,0.0000,0.0000,0.0000,0.0000,0.0000,0.0000,0.0000,0.0000,0.0000,0.0000,-0.1000,-0.1000,-0.1000,-0.1000,0.0000,0.0000,0.0000,0.0000,4
0,-1,0,-10.4997,-0.0935,-0.1437,-0.0690,-0.0090,-0.0990,1.1730,8025.5859,8025.5859,8025.5859,8025.5859,12.2391,0.0000,-0.0610,-0.1831,-0.0610,-0.1626,-0.1079,-10.6336,0.0114,-0.0153,-0.0053,0.0000,0.0000,0.0000,0.0000,0.0000,0.0000,0.0000,0.0000,0.0000,0.0000,0.0000,0.0000,0.0000,0.0000,1.0000,0.0000,0.0000,0.0000,0.0000,0.0000,0.0000,0.0000,0.0000,0.0000,0.0000,0.0000,0.0000,0.0000,0.0000,0.0000,0.0000,0.0000,0.0000,-0.1000,-0.1000,-0.1000,-0.1000,0.0000,0.0000,0.0000,0.0000,4
0,-1,0,-10.4997,-0.0935,-0.1437,-0.0690,-0.0090,-0.0990,1.1730,8025.5859,8025.5859,8025.5859,8025.5859,12.2413,0.0000,-0.0610,-0.1831,0.1221,-0.1650,-0.1414,-10.6288,0.0114,-0.0153,-0.0053,0.0000,0.0000,0.0000,0.0000,0.0000,0.0000,0.0000,0.0000,0.0000,0.0000,0.0000,0.0000,0.0000,0.0000,1.0000,0.0000,0.0000,0.0000,0.0000,0.0000,0.0000,0.0000,0.0000,0.0000,0.0000,0.0000,0.0000,0.0000,0.0000,0.0000,0.0000,0.0000,0.0000,-0.1000,-0.1000,-0.1000,-0.1000,0.0000,0.0000,0.0000,0.0000,4
0,-1,0,-10.3970,0.0290,-0.2188,-0.0990,-0.0590,-0.0490,1.1730,8025.5859,8025.5859,8025.5859,8025.5859,12.2425,0.0000,-0.0610,-0.1221,0.1221,-0.1315,-0.1055,-10.5811,0.0115,-0.0153,-0.0053,0.0000,0.0000,0.0000,0.0000,0.0000,0.0000,0.0000,0.0000,0.0000,0.0000,0.0000,0.0000,0.0000,0.0000,1.0000,0.0000,0.0000,0.0000,0.0000,0.0000,0.0000,0.0000,0.0000,0.0000,0.0000,0.0000,0.0000,0.0000,0.0000,0.0000,0.0000,0.0000,0.0000,-0.1000,-0.1000,-0.1000,-0.1000,0.0000,0.0000,0.0000,0.0000,4
0,-1,0,-10.3982,-0.0651,-0.2105,-0.0590,-0.0590,-0.0590,1.1730,8025.5859,8025.5859,8025.5859,8025.5859,12.2425,0.0000,-0.1831,-0.1221,-0.0610,-0.1769,-0.1750,-10.5954,0.0115,-0.0156,-0.0055,0.0000,0.0000,0.0000,0.0000,0.0000,0.0000,0.0000,0.0000,0.0000,0.0000,0.0000,0.0000,0.0000,0.0000,1.0000,0.0000,0.0000,0.0000,0.0000,0.0000,0.0000,0.0000,0.0000,0.0000,0.0000,0.0000,0.0000,0.0000,0.0000,0.0000,0.0000,0.0000,0.0000,-0.1000,-0.1000,-0.1000,-0.1000,0.0000,0.0000,0.0000,0.0000,4
0,-1,0,-10.3950,0.0291,-0.2197,-0.0690,-0.0090,-0.0890,1.1730,8025.5859,8025.5859,8025.5859,8025.5859,12.2425,0.0000,-0.0610,-0.1831,-0.0000,-0.1841,-0.1271,-10.6384,0.0115,-0.0157,-0.0055,0.0000,0.0000,0.0000,0.0000,0.0000,0.0000,0.0000,0.0000,0.0000,0.0000,0.0000,0.0000,0.0000,0.0000,1.0000,0.0000,0.0000,0.0000,0.0000,0.0000,0.0000,0.0000,0.0000,0.0000,0.0000,0.0000,0.0000,0.0000,0.0000,0.0000,0.0000,0.0000,0.0000,-0.1000,-0.1000,-0.1000,-0.1000,0.0000,0.0000,0.0000,0.0000,4
0,-1,0,-10.3967,0.1449,-0.1673,-0.0590,0.0810,-0.0290,1.1730,8025.5859,8025.5859,8025.5859,8025.5859,12.2420,0.0000,-0.0610,-0.1831,-0.0000,-0.1698,-0.1343,-10.5811,0.0117,-0.0165,-0.0060,0.0000,0.0000,0.0000,0.0000,0.0000,0.0000,0.0000,0.0000,0.0000,0.0000,0.0000,0.0000,0.0000,0.0000,1.0000,0.0000,0.0000,0.0000,0.0000,0.0000,0.0000,0.0000,0.0000,0.0000,0.0000,0.0000,0.0000,0.0000,0.0000,0.0000,0.0000,0.0000,0.0000,-0.1000,-0.1000,-0.1000,-0.1000,0.0000,0.0000,0.0000,0.0000,4
0,-1,0,-10.3967,0.1449,-0.1673,-0.0590,0.0810,-0.0290,1.1730,8025.5859,8025.5859,8025.5859,8025.5859,12.2418,0.0000,0.0610,0.0610,-0.0610,-0.1554,-0.1510,-10.5691,0.0117,-0.0165,-0.0060,0.0000,0.0000,0.0000,0.0000,0.0000,0.0000,0.0000,0.0000,0.0000,0.0000,0.0000,0.0000,0.0000,0.0000,1.0000,0.0000,0.0000,0.0000,0.0000,0.0000,0.0000,0.0000,0.0000,0.0000,0.0000,0.0000,0.0000,0.0000,0.0000,0.0000,0.0000,0.0000,0.0000,-0.1000,-0.1000,-0.1000,-0.1000,0.0000,0.0000,0.0000,0.0000,4
0,-1,0,-10.3967,0.1449,-0.1673,-0.0590,0.0810,-0.0290,1.1730,8025.5859,8025.5859,8025.5859,8025.5859,12.2425,0.0000,0.0000,-0.1221,0.1831,-0.1769,-0.1151,-10.5644,0.0117,-0.0165,-0.0060,0.0000,0.0000,0.0000,0.0000,0.0000,0.0000,0.0000,0.0000,0.0000,0.0000,0.0000,0.0000,0.0000,0.0000,1.0000,0.0000,0.0000,0.0000,0.0000,0.0000,0.0000,0.0000,0.0000,0.0000,0.0000,0.0000,0.0000,0.0000,0.0000,0.0000,0.0000,0.0000,0.0000,-0.1000,-0.1000,-0.1000,-0.1000,0.0000,0.0000,0.0000,0.0000,4
0,-1,0,-10.3967,0.1449,-0.1673,-0.0590,0.0810,-0.0290,1.1730,8025.5859,8025.5859,8025.5859,8025.5859,12.2420,0.0000,-0.0610,-0.1831,-0.0000,-0.1841,-0.1390,-10.5429,0.0117,-0.0165,-0.0060,0.0000,0.0000,0.0000,0.0000,0.0000,0.0000,0.0000,0.0000,0.0000,0.0000,0.0000,0.0000,0.0000,0.0000,1.0000,0.0000,0.0000,0.0000,0.0000,0.0000,0.0000,0.0000,0.0000,0.0000,0.0000,0.0000,0.0000,0.0000,0.0000,0.0000,0.0000,0.0000,0.0000,-0.1000,-0.1000,-0.1000,-0.1000,0.0000,0.0000,0.0000,0.0000,4
0,-1,0,-10.4715,-0.1511,-0.1092,-0.0390,-0.0090,-0.0390,1.1730,8025.5859,8025.5859,8025.5859,8025.5859,12.2420,0.0000,-0.1221,-0.0610,-0.0000,-0.1530,-0.1606,-10.5620,0.0117,-0.0165,-0.0060,0.0000,0.0000,0.0000,0.0000,0.0000,0.0000,0.0000,0.0000,0.0000,0.0000,0.0000,0.0000,0.0000,0.0000,1.0000,0.0000,0.0000,0.0000,0.0000,0.0000,0.0000,0.0000,0.0000,0.0000,0.0000,0.0000,0.0000,0.0000,0.0000,0.0000,0.0000,0.0000,0.0000,-0.1000,-0.1000,-0.1000,-0.1000,0.0000,0.0000,0.0000,0.0000,4
0,-1,0,-10.4715,-0.1511,-0.1092,-0.0390,-0.0090,-0.0390,1.1730,8025.5859,8025.5859,8025.5859,8025.5859,12.2413,0.0000,-0.0610,-0.1221,-0.0000,-0.2080,-0.1127,-10.5620,0.0117,-0.0166,-0.0060,0.0000,0.0000,0.0000,0.0000,0.0000,0.0000,0.0000,0.0000,0.0000,0.0000,0.0000,0.0000,0.0000,0.0000,1.0000,0.0000,0.0000,0.0000,0.0000,0.0000,0.0000,0.0000,0.0000,0.0000,0.0000,0.0000,0.0000,0.0000,0.0000,0.0000,0.0000,0.0000,0.0000,-0.1000,-0.1000,-0.1000,-0.1000,0.0000,0.0000,0.0000,0.0000,4
0,-1,0,-10.4715,-0.1511,-0.1092,-0.0390,-0.0090,-0.0390,1.1730,8025.5859,8025.5859,8025.5859,8025.5859,12.2418,0.0000,-0.1221,-0.0610,-0.0000,-0.1650,-0.0983,-10.5119,0.0117,-0.0166,-0.0060,0.0000,0.0000,0.0000,0.0000,0.0000,0.0000,0.0000,0.0000,0.0000,0.0000,0.0000,0.0000,0.0000,0.0000,1.0000,0.0000,0.0000,0.0000,0.0000,0.0000,0.0000,0.0000,0.0000,0.0000,0.0000,0.0000,0.0000,0.0000,0.0000,0.0000,0.0000,0.0000,0.0000,-0.1000,-0.1000,-0.1000,-0.1000,0.0000,0.0000,0.0000,0.0000,4
0,-1,0,-10.4382,-0.1565,-0.1288,-0.0490,0.0910,0.0010,1.1730,8025.5859,8025.5859,8025.5859,8025.5859,12.2418,0.0000,-0.0610,-0.1831,-0.0000,-0.1339,-0.1079,-10.5978,0.0117,-0.0166,-0.0060,0.0000,0.0000,0.0000,0.0000,0.0000,0.0000,0.0000,0.0000,0.0000,0.0000,0.0000,0.0000,0.0000,0.0000,1.0000,0.0000,0.0000,0.0000,0.0000,0.0000,0.0000,0.0000,0.0000,0.0000,0.0000,0.0000,0.0000,0.0000,0.0000,0.0000,0.0000,0.0000,0.0000,-0.1000,-0.1000,-0.1000,-0.1000,0.0000,0.0000,0.0000,0.0000,4
0,-1,0,-10.4176,-0.2117,-0.0218,-0.0690,0.7210,0.3810,1.1730,123.2422,123.2422,123.2422,123.2422,12.2420,0.0000,-0.0610,-0.1221,-0.0610,-0.1698,-0.1319,-10.6360,0.0118,-0.0167,-0.0061,0.0000,0.0000,0.0000,0.0000,0.0000,0.0000,0.0000,0.0000,0.0000,0.0000,0.0000,0.0000,0.0000,0.0000,1.0000,0.0000,0.0000,0.0000,0.0000,0.0000,0.0000,0.0000,0.0000,0.0000,0.0000,0.0000,0.0000,0.0000,0.0000,0.0000,0.0000,0.0000,0.0000,-0.1000,-0.1000,-0.1000,-0.1000,0.0000,0.0000,0.0000,0.0000,4
0,-1,0,-10.4208,-0.2103,-0.0200,-0.1090,0.7110,0.4510,1.1730,123.2422,123.2422,123.2422,123.2422,12.2423,0.0000,-0.0610,-0.2441,-0.0610,-0.1602,-0.1223,-10.5763,0.0122,-0.0175,-0.0067,0.0000,0.0000,0.0000,0.0000,0.0000,0.0000,0.0000,0.0000,0.0000,0.0000,0.0000,0.0000,0.0000,0.0000,1.0000,0.0000,0.0000,0.0000,0.0000,0.0000,0.0000,0.0000,0.0000,0.0000,0.0000,0.0000,0.0000,0.0000,0.0000,0.0000,0.0000,0.0000,0.0000,-0.1000,-0.1000,-0.1000,-0.1000,0.0000,0.0000,0.0000,0.0000,4
0,-1,0,-10.4208,-0.2103,-0.0200,-0.1090,0.7110,0.4510,1.1730,123.2422,123.2422,123.2422,123.2422,12.2408,0.0000,-0.0610,-0.2441,-0.0000,-0.1363,-0.1390,-10.5238,0.0122,-0.0175,-0.0067,0.0000,0.0000,0.0000,0.0000,0.0000,0.0000,0.0000,0.0000,0.0000,0.0000,0.0000,0.0000,0.0000,0.0000,1.0000,0.0000,0.0000,0.0000,0.0000,0.0000,0.0000,0.0000,0.0000,0.0000,0.0000,0.0000,0.0000,0.0000,0.0000,0.0000,0.0000,0.0000,0.0000,-0.1000,-0.1000,-0.1000,-0.1000,0.0000,0.0000,0.0000,0.0000,4
0,-1,0,-10.4208,-0.2103,-0.0200,-0.1090,0.7110,0.4510,1.1730,123.2422,123.2422,123.2422,123.2422,12.2404,0.0000,-0.0610,-0.1831,-0.0000,-0.1721,-0.1031,-10.5978,0.0122,-0.0175,-0.0067,0.0000,0.0000,0.0000,0.0000,0.0000,0.0000,0.0000,0.0000,0.0000,0.0000,0.0000,0.0000,0.0000,0.0000,1.0000,0.0000,0.0000,0.0000,0.0000,0.0000,0.0000,0.0000,0.0000,0.0000,0.0000,0.0000,0.0000,0.0000,0.0000,0.0000,0.0000,0.0000,0.0000,-0.1000,-0.1000,-0.1000,-0.1000,0.0000,0.0000,0.0000,0.0000,4
0,-1,0,-10.4208,-0.2103,-0.0200,-0.1090,0.7110,0.4510,1.1730,123.2422,123.2422,123.2422,123.2422,12.2391,0.0000,-0.0610,-0.3052,0.1221,-0.1650,-0.0983,-10.5620,0.0122,-0.0176,-0.0067,0.0000,0.0000,0.0000,0.0000,0.0000,0.0000,0.0000,0.0000,0.0000,0.0000,0.0000,0.0000,0.0000,0.0000,1.0000,0.0000,0.0000,0.0000,0.0000,0.0000,0.0000,0.0000,0.0000,0.0000,0.0000,0.0000,0.0000,0.0000,0.0000,0.0000,0.0000,0.0000,0.0000,-0.1000,-0.1000,-0.1000,-0.1000,0.0000,0.0000,0.0000,0.0000,4
0,-1,0,-10.4095,-0.2140,-0.0325,-0.1090,0.7110,0.4510,1.1730,123.2422,123.2422,123.2422,123.2422,12.2372,0.0000,-0.0610,-0.1221,0.1831,-0.1626,-0.1079,-10.5715,0.0122,-0.0176,-0.0067,0.0000,0.0000,0.0000,0.0000,0.0000,0.0000,0.0000,0.0000,0.0000,0.0000,0.0000,0.0000,0.0000,0.0000,1.0000,0.0000,0.0000,0.0000,0.0000,0.0000,0.0000,0.0000,0.0000,0.0000,0.0000,0.0000,0.0000,0.0000,0.0000,0.0000,0.0000,0.0000,0.0000,-0.1000,-0.1000,-0.1000,-0.1000,0.0000,0.0000,0.0000,0.0000,4
0,-1,0,-10.4095,-0.2140,-0.0325,-0.0490,0.7210,0.4210,1.1730,123.2422,123.2422,123.2422,123.2422,12.2358,0.0000,-0.0610,-0.2441,-0.0000,-0.1411,-0.1390,-10.5596,0.0122,-0.0176,-0.0067,0.0000,0.0000,0.0000,0.0000,0.0000,0.0000,0.0000,0.0000,0.0000,0.0000,0.0000,0.0000,0.0000,0.0000,1.0000,0.0000,0.0000,0.0000,0.0000,0.0000,0.0000,0.0000,0.0000,0.0000,0.0000,0.0000,0.0000,0.0000,0.0000,0.0000,0.0000,0.0000,0.0000,-0.1000,-0.1000,-0.1000,-0.1000,0.0000,0.0000,0.0000,0.0000,4
0,-1,0,-10.4095,-0.2140,-0.0325,-0.0490,0.7210,0.4210,1.1730,123.2422,123.2422,123.2422,123.2422,12.2355,0.0000,-0.2441,-0.2441,0.1221,-0.2056,-0.0695,-10.6073,0.0122,-0.0176,-0.0067,0.0000,0.0000,0.0000,0.0000,0.0000,0.0000,0.0000,0.0000,0.0000,0.0000,0.0000,0.0000,0.0000,0.0000,1.0000,0.0000,0.0000,0.0000,0.0000,0.0000,0.0000,0.0000,0.0000,0.0000,0.0000,0.0000,0.0000,0.0000,0.0000,0.0000,0.0000,0.0000,0.0000,-0.1000,-0.1000,-0.1000,-0.1000,0.0000,0.0000,0.0000,0.0000,4
0,-1,0,-10.4095,-0.2140,-0.0325,-0.0490,0.7210,0.4210,1.1730,123.2422,123.2422,123.2422,123.2422,12.2336,0.0000,-0.1831,-0.1221,-0.0000,-0.1650,-0.1103,-10.5930,0.0122,-0.0176,-0.0067,0.0000,0.0000,0.0000,0.0000,0.0000,0.0000,0.0000,0.0000,0.0000,0.0000,0.0000,0.0000,0.0000,0.0000,1.0000,0.0000,0.0000,0.0000,0.0000,0.0000,0.0000,0.0000,0.0000,0.0000,0.0000,0.0000,0.0000,0.0000,0.0000,0.0000,0.0000,0.0000,0.0000,-0.1000,-0.1000,-0.1000,-0.1000,0.0000,0.0000,0.0000,0.0000,4
0,-1,0,-10.3968,0.1100,-0.1919,-0.0290,0.0710,0.0210,1.1730,8025.5859,8025.5859,8025.5859,8025.5859,12.2326,0.0000,0.0000,0.0000,-0.0000,-0.1124,-0.0575,-10.5859,0.0122,-0.0176,-0.0067,0.0000,0.0000,0.0000,0.0000,0.0000,0.0000,0.0000,0.0000,0.0000,0.0000,0.0000,0.0000,0.0000,0.0000,1.0000,0.0000,0.0000,0.0000,0.0000,0.0000,0.0000,0.0000,0.0000,0.0000,0.0000,0.0000,0.0000,0.0000,0.0000,0.0000,0.0000,0.0000,0.0000,-0.1000,-0.1000,-0.1000,-0.1000,0.0000,0.0000,0.0000,0.0000,4
0,-1,0,-10.4585,-0.1404,-0.1323,-0.0590,0.0310,-0.0290,1.1730,8025.5859,8025.5859,8025.5859,8025.5859,12.2331,0.0000,-0.0610,-0.1221,-0.0000,-0.1602,-0.1103,-10.5548,0.0124,-0.0182,-0.0074,0.0000,0.0000,0.0000,0.0000,0.0000,0.0000,0.0000,0.0000,0.0000,0.0000,0.0000,0.0000,0.0000,0.0000,1.0000,0.0000,0.0000,0.0000,0.0000,0.0000,0.0000,0.0000,0.0000,0.0000,0.0000,0.0000,0.0000,0.0000,0.0000,0.0000,0.0000,0.0000,0.0000,-0.1000,-0.1000,-0.1000,-0.1000,0.0000,0.0000,0.0000,0.0000,4
0,-1,0,-10.4585,-0.1404,-0.1323,-0.0590,0.0310,-0.0290,1.1730,8025.5859,8025.5859,8025.5859,8025.5859,12.2331,0.0000,-0.1221,-0.0610,-0.0610,-0.1411,-0.1007,-10.6240,0.0123,-0.0182,-0.0074,0.0000,0.0000,0.0000,0.0000,0.0000,0.0000,0.0000,0.0000,0.0000,0.0000,0.0000,0.0000,0.0000,0.0000,1.0000,0.0000,0.0000,0.0000,0.0000,0.0000,0.0000,0.0000,0.0000,0.0000,0.0000,0.0000,0.0000,0.0000,0.0000,0.0000,0.0000,0.0000,0.0000,-0.1000,-0.1000,-0.1000,-0.1000,0.0000,0.0000,0.0000,0.0000,5
