loop_index, counter, last_step_ns, T_ref, theta_ref, phi_ref, uwind, vwind, wwind, rho, rpm1, rpm2, rpm3, rpm4,v_batt,alt,gyro_roll,gyro_pitch,gyro_yaw,accel_X,accel_Y,accel_Z,roll,pitch,yaw,X,Y,Z,Xdot,Ydot,Zdot,x0,y0,z0,e.xbee_time,xbee_time_received_ns,xbee_x,xbee_y,xbee_z,xbee_qw,xbee_qx,xbee_qy,xbee_qz,sp_roll,sp_pitch,sp_yaw,sp_X,sp_Y,sp_Z,sp_Xdot,sp_Ydot,sp_Zdot,u_roll,u_pitch,u_yaw,u_X,u_Y,u_Z,mot_1,mot_2,mot_3,mot_4,flight mode
1,117,868982318849,-10.4557,-0.1880,0.0484,0.0210,0.0810,-0.0290,1.1647,23.4375,23.4375,23.4375,23.4375,12.2454,0.0000,0.0610,0.0000,0.1831,-0.1315,-0.2038,-10.6431,0.0198,-0.0055,-0.0040,0.0000,0.0000,0.0000,0.0000,0.0000,0.0000,0.0000,0.0000,0.0000,0.0000,0.0000,0.0000,0.0000,0.0000,1.0000,0.0000,0.0000,0.0000,-0.1880,0.0484,0.0000,0.0000,0.0000,0.0000,0.0000,0.0000,-0.0000,-0.0000,0.0000,0.0000,0.0000,0.0000,-0.5689,0.0025,0.0025,0.0025,0.0025,4
2,118,869040732911,-10.4557,-0.1880,0.0484,0.0210,0.0810,-0.0290,1.1647,23.4375,23.4375,23.4375,23.4375,12.2454,0.0000,-0.0610,-0.1221,-0.0000,-0.1530,-0.2134,-10.6097,0.0199,-0.0057,-0.0040,0.0000,0.0000,0.0000,0.0000,0.0000,0.0000,0.0000,0.0000,0.0000,0.0000,0.0000,0.0000,0.0000,0.0000,1.0000,0.0000,0.0000,0.0000,-0.1880,0.0484,0.0000,0.0000,0.0000,0.0000,0.0000,0.0000,-0.0000,-0.0020,0.0020,0.0020,0.0000,0.0000,-0.5689,0.0025,0.0025,0.0025,0.0025,4
3,119,869043960659,-10.4557,-0.1880,0.0484,0.0210,0.0810,-0.0290,1.1647,23.4375,23.4375,23.4375,23.4375,12.2457,0.0000,0.0610,-0.1831,-0.0000,-0.1458,-0.1630,-10.5954,0.0199,-0.0057,-0.0040,0.0000,0.0000,0.0000,0.0000,0.0000,0.0000,0.0000,0.0000,0.0000,0.0000,0.0000,0.0000,0.0000,0.0000,1.0000,0.0000,0.0000,0.0000,-0.1880,0.0484,0.0000,0.0000,0.0000,0.0000,0.0000,0.0000,-0.0000,-0.0040,0.0040,0.0034,0.0000,0.0000,-0.5689,0.0025,0.0025,0.0025,0.0025,4
4,120,869048837549,-10.4557,-0.1880,0.0484,0.0210,0.0810,-0.0290,1.1647,23.4375,23.4375,23.4375,23.4375,12.2454,0.0000,0.0000,-0.0610,-0.0610,-0.1363,-0.1774,-10.6050,0.0199,-0.0057,-0.0040,0.0000,0.0000,0.0000,0.0000,0.0000,0.0000,0.0000,0.0000,0.0000,0.0000,0.0000,0.0000,0.0000,0.0000,1.0000,0.0000,0.0000,0.0000,-0.1880,0.0484,0.0000,0.0000,0.0000,0.0000,0.0000,0.0000,-0.0000,-0.0060,0.0060,0.0047,0.0000,0.0000,-0.5689,0.0025,0.0025,0.0025,0.0025,4
5,121,869054121391,-10.4557,-0.1880,0.0484,0.0210,0.0810,-0.0290,1.1647,23.4375,23.4375,23.4375,23.4375,12.2447,0.0000,-0.0610,-0.1221,-0.0610,-0.1387,-0.2445,-10.5739,0.0199,-0.0057,-0.0041,0.0000,0.0000,0.0000,0.0000,0.0000,0.0000,0.0000,0.0000,0.0000,0.0000,0.0000,0.0000,0.0000,0.0000,1.0000,0.0000,0.0000,0.0000,-0.1880,0.0484,0.0000,0.0000,0.0000,0.0000,0.0000,0.0000,-0.0000,-0.0080,0.0080,0.0058,0.0000,0.0000,-0.5689,0.0025,0.0025,0.0025,0.0025,4
6,122,869058751976,-10.4557,-0.1880,0.0484,0.0210,0.0810,-0.0290,1.1647,23.4375,23.4375,23.4375,23.4375,12.2452,0.0000,-0.0610,-0.1221,-0.0000,-0.1530,-0.2086,-10.6503,0.0199,-0.0057,-0.0041,0.0000,0.0000,0.0000,0.0000,0.0000,0.0000,0.0000,0.0000,0.0000,0.0000,0.0000,0.0000,0.0000,0.0000,1.0000,0.0000,0.0000,0.0000,-0.1880,0.0484,0.0000,0.0000,0.0000,0.0000,0.0000,0.0000,-0.0000,-0.0100,0.0100,0.0066,0.0000,0.0000,-0.5689,0.0025,0.0025,0.0025,0.0025,4
7,123,869063981824,-10.4557,-0.1880,0.0484,0.0210,0.0810,-0.0290,1.1647,23.4375,23.4375,23.4375,23.4375,12.2447,0.0000,-0.0610,-0.1221,-0.0610,-0.1363,-0.1990,-10.5644,0.0199,-0.0057,-0.0041,0.0000,0.0000,0.0000,0.0000,0.0000,0.0000,0.0000,0.0000,0.0000,0.0000,0.0000,0.0000,0.0000,0.0000,1.0000,0.0000,0.0000,0.0000,-0.1880,0.0484,0.0000,0.0000,0.0000,0.0000,0.0000,0.0000,-0.0000,-0.0120,0.0116,0.0074,0.0000,0.0000,-0.5689,0.0025,0.0025,0.0025,0.0025,4
8,124,869069158012,-10.4557,-0.1880,0.0484,0.0210,0.0810,-0.0290,1.1647,23.4375,23.4375,23.4375,23.4375,12.2447,0.0000,-0.0610,-0.1221,0.1221,-0.1267,-0.1942,-10.6861,0.0199,-0.0057,-0.0041,0.0000,0.0000,0.0000,0.0000,0.0000,0.0000,0.0000,0.0000,0.0000,0.0000,0.0000,0.0000,0.0000,0.0000,1.0000,0.0000,0.0000,0.0000,-0.1880,0.0484,0.0000,0.0000,0.0000,0.0000,0.0000,0.0000,-0.0000,-0.0140,0.0126,0.0079,0.0000,0.0000,-0.5689,0.0025,0.0025,0.0025,0.0025,4
9,125,869073760975,-10.4557,-0.1880,0.0484,0.0210,0.0810,-0.0290,1.1647,23.4375,23.4375,23.4375,23.4375,12.2445,0.0000,-0.0610,-0.1831,0.1831,-0.1530,-0.1654,-10.6073,0.0199,-0.0058,-0.0041,0.0000,0.0000,0.0000,0.0000,0.0000,0.0000,0.0000,0.0000,0.0000,0.0000,0.0000,0.0000,0.0000,0.0000,1.0000,0.0000,0.0000,0.0000,-0.1880,0.0484,0.0000,0.0000,0.0000,0.0000,0.0000,0.0000,-0.0000,-0.0160,0.0134,0.0083,0.0000,0.0000,-0.5689,0.0025,0.0025,0.0025,0.0025,4
10,126,869078738436,-10.4557,-0.1880,0.0484,0.0210,0.0810,-0.0290,1.1647,23.4375,23.4375,23.4375,23.4375,12.2445,0.0000,0.0000,-0.0610,-0.0000,-0.1124,-0.1870,-10.5978,0.0199,-0.0058,-0.0041,0.0000,0.0000,0.0000,0.0000,0.0000,0.0000,0.0000,0.0000,0.0000,0.0000,0.0000,0.0000,0.0000,0.0000,1.0000,0.0000,0.0000,0.0000,-0.1880,0.0484,0.0000,0.0000,0.0000,0.0000,0.0000,0.0000,-0.0000,-0.0180,0.0139,0.0088,0.0000,0.0000,-0.5689,0.0025,0.0025,0.0025,0.0025,4
11,127,869083764183,-10.4557,-0.1880,0.0484,0.0210,0.0810,-0.0290,1.1647,23.4375,23.4375,23.4375,23.4375,12.2445,0.0000,0.0000,0.0000,-0.0000,-0.0861,-0.2014,-10.5882,0.0199,-0.0058,-0.0041,0.0000,0.0000,0.0000,0.0000,0.0000,0.0000,0.0000,0.0000,0.0000,0.0000,0.0000,0.0000,0.0000,0.0000,1.0000,0.0000,0.0000,0.0000,-0.1880,0.0484,0.0000,0.0000,0.0000,0.0000,0.0000,0.0000,-0.0000,-0.0200,0.0142,0.0092,0.0000,0.0000,-0.5689,0.0025,0.0025,0.0025,0.0025,4
12,128,869089268041,-10.4557,-0.1880,0.0484,0.0210,0.0810,-0.0290,1.1647,23.4375,23.4375,23.4375,23.4375,12.2447,0.0000,-0.0610,-0.1221,-0.0610,-0.2056,-0.1678,-10.6336,0.0199,-0.0058,-0.0041,0.0000,0.0000,0.0000,0.0000,0.0000,0.0000,0.0000,0.0000,0.0000,0.0000,0.0000,0.0000,0.0000,0.0000,1.0000,0.0000,0.0000,0.0000,-0.1880,0.0484,0.0000,0.0000,0.0000,0.0000,0.0000,0.0000,-0.0000,-0.0220,0.0144,0.0096,0.0000,0.0000,-0.5689,0.0025,0.0025,0.0025,0.0025,4
13,129,869093996032,-10.4557,-0.1880,0.0484,0.0210,0.0810,-0.0290,1.1647,23.4375,23.4375,23.4375,23.4375,12.2440,0.0000,0.0610,0.0000,0.1221,-0.1339,-0.2134,-10.6050,0.0199,-0.0058,-0.0041,0.0000,0.0000,0.0000,0.0000,0.0000,0.0000,0.0000,0.0000,0.0000,0.0000,0.0000,0.0000,0.0000,0.0000,1.0000,0.0000,0.0000,0.0000,-0.1880,0.0484,0.0000,0.0000,0.0000,0.0000,0.0000,0.0000,-0.0000,-0.0240,0.0146,0.0098,0.0000,0.0000,-0.5689,0.0025,0.0025,0.0025,0.0025,4
14,130,869098842633,-10.4557,-0.1880,0.0484,0.0210,0.0810,-0.0290,1.1647,23.4375,23.4375,23.4375,23.4375,12.2440,0.0000,0.0610,-0.0610,-0.0610,-0.1769,-0.1750,-10.6551,0.0199,-0.0058,-0.0041,0.0000,0.0000,0.0000,0.0000,0.0000,0.0000,0.0000,0.0000,0.0000,0.0000,0.0000,0.0000,0.0000,0.0000,1.0000,0.0000,0.0000,0.0000,-0.1880,0.0484,0.0000,0.0000,0.0000,0.0000,0.0000,0.0000,-0.0000,-0.0260,0.0147,0.0101,0.0000,0.0000,-0.5689,0.0025,0.0025,0.0025,0.0025,4
15,131,869104190051,-10.4557,-0.1880,0.0484,0.0210,0.0810,-0.0290,1.1647,23.4375,23.4375,23.4375,23.4375,12.2440,0.0000,-0.1221,-0.0610,-0.0000,-0.1219,-0.2253,-10.6312,0.0199,-0.0058,-0.0041,0.0000,0.0000,0.0000,0.0000,0.0000,0.0000,0.0000,0.0000,0.0000,0.0000,0.0000,0.0000,0.0000,0.0000,1.0000,0.0000,0.0000,0.0000,-0.1880,0.0484,0.0000,0.0000,0.0000,0.0000,0.0000,0.0000,-0.0000,-0.0280,0.0148,0.0103,0.0000,0.0000,-0.5689,0.0025,0.0025,0.0025,0.0025,4
16,132,869108916375,-10.4557,-0.1880,0.0484,0.0210,0.0810,-0.0290,1.1647,23.4375,23.4375,23.4375,23.4375,12.2440,0.0000,-0.1221,-0.0610,-0.0000,-0.1530,-0.1750,-10.6002,0.0199,-0.0058,-0.0041,0.0000,0.0000,0.0000,0.0000,0.0000,0.0000,0.0000,0.0000,0.0000,0.0000,0.0000,0.0000,0.0000,0.0000,1.0000,0.0000,0.0000,0.0000,-0.1880,0.0484,0.0000,0.0000,0.0000,0.0000,0.0000,0.0000,-0.0000,-0.0300,0.0148,0.0104,0.0000,0.0000,-0.5689,0.0025,0.0025,0.0025,0.0025,4
17,133,869113828094,-10.4557,-0.1880,0.0484,0.0210,0.0810,-0.0290,1.1647,23.4375,23.4375,23.4375,23.4375,12.2445,0.0000,0.0000,-0.1221,-0.0000,-0.1411,-0.1678,-10.5906,0.0199,-0.0058,-0.0041,0.0000,0.0000,0.0000,0.0000,0.0000,0.0000,0.0000,0.0000,0.0000,0.0000,0.0000,0.0000,0.0000,0.0000,1.0000,0.0000,0.0000,0.0000,-0.1880,0.0484,0.0000,0.0000,0.0000,0.0000,0.0000,0.0000,-0.0000,-0.0320,0.0149,0.0105,0.0000,0.0000,-0.5689,0.0025,0.0025,0.0025,0.0025,4
18,134,869156566942,-10.5141,-0.1400,0.0841,0.0610,0.1010,-0.0190,1.1647,23.4375,23.4375,23.4375,23.4375,12.2445,0.0000,0.0610,0.0000,-0.0000,-0.1291,-0.1774,-10.5357,0.0199,-0.0059,-0.0041,0.0000,0.0000,0.0000,0.0000,0.0000,0.0000,0.0000,0.0000,0.0000,0.0000,0.0000,0.0000,0.0000,0.0000,1.0000,0.0000,0.0000,0.0000,-0.1400,0.0841,0.0000,0.0000,0.0000,0.0000,0.0000,0.0000,-0.0000,0.0340,0.0340,0.0107,0.0000,0.0000,-0.5712,0.0025,0.0025,0.0025,0.0025,4
19,135,869214886015,-10.5141,-0.1400,0.0841,0.0610,0.1010,-0.0190,1.1647,23.4375,23.4375,23.4375,23.4375,12.2435,0.0000,-0.0610,-0.1221,-0.0000,-0.1387,-0.1606,-10.4952,0.0200,-0.0060,-0.0041,0.0000,0.0000,0.0000,0.0000,0.0000,0.0000,0.0000,0.0000,0.0000,0.0000,0.0000,0.0000,0.0000,0.0000,1.0000,0.0000,0.0000,0.0000,-0.1400,0.0841,0.0000,0.0000,0.0000,0.0000,0.0000,0.0000,-0.0000,0.0095,0.0317,0.0111,0.0000,0.0000,-0.5712,0.0025,0.0025,0.0025,0.0025,4
20,136,869218756397,-10.5141,-0.1400,0.0841,0.0610,0.1010,-0.0190,1.1647,23.4375,23.4375,23.4375,23.4375,12.2428,0.0000,0.0000,0.0000,-0.0000,-0.1650,-0.2158,-10.5930,0.0200,-0.0060,-0.0041,0.0000,0.0000,0.0000,0.0000,0.0000,0.0000,0.0000,0.0000,0.0000,0.0000,0.0000,0.0000,0.0000,0.0000,1.0000,0.0000,0.0000,0.0000,-0.1400,0.0841,0.0000,0.0000,0.0000,0.0000,0.0000,0.0000,-0.0000,-0.0071,0.0295,0.0112,0.0000,0.0000,-0.5712,0.0025,0.0025,0.0025,0.0025,4
21,137,869224158767,-10.5141,-0.1400,0.0841,0.0610,0.1010,-0.0190,1.1647,23.4375,23.4375,23.4375,23.4375,12.2418,0.0000,-0.0610,-0.1831,-0.1221,-0.1339,-0.1990,-10.5763,0.0200,-0.0060,-0.0042,0.0000,0.0000,0.0000,0.0000,0.0000,0.0000,0.0000,0.0000,0.0000,0.0000,0.0000,0.0000,0.0000,0.0000,1.0000,0.0000,0.0000,0.0000,-0.1400,0.0841,0.0000,0.0000,0.0000,0.0000,0.0000,0.0000,-0.0000,-0.0186,0.0280,0.0113,0.0000,0.0000,-0.5712,0.0025,0.0025,0.0025,0.0025,4
22,138,869228758564,-10.5141,-0.1400,0.0841,0.0610,0.1010,-0.0190,1.1647,23.4375,23.4375,23.4375,23.4375,12.2408,0.0000,-0.0610,-0.1831,-0.0000,-0.1458,-0.2062,-10.5620,0.0200,-0.0060,-0.0042,0.0000,0.0000,0.0000,0.0000,0.0000,0.0000,0.0000,0.0000,0.0000,0.0000,0.0000,0.0000,0.0000,0.0000,1.0000,0.0000,0.0000,0.0000,-0.1400,0.0841,0.0000,0.0000,0.0000,0.0000,0.0000,0.0000,-0.0000,-0.0264,0.0270,0.0113,0.0000,0.0000,-0.5712,0.0025,0.0025,0.0025,0.0025,4
23,139,869233707862,-10.5141,-0.1400,0.0841,0.0610,0.1010,-0.0190,1.1647,23.4375,23.4375,23.4375,23.4375,12.2394,0.0000,0.0610,0.0000,0.1221,-0.1219,-0.1846,-10.5859,0.0200,-0.0060,-0.0042,0.0000,0.0000,0.0000,0.0000,0.0000,0.0000,0.0000,0.0000,0.0000,0.0000,0.0000,0.0000,0.0000,0.0000,1.0000,0.0000,0.0000,0.0000,-0.1400,0.0841,0.0000,0.0000,0.0000,0.0000,0.0000,0.0000,-0.0000,-0.0319,0.0263,0.0113,0.0000,0.0000,-0.5712,0.0025,0.0025,0.0025,0.0025,4
24,140,869238990370,-10.5141,-0.1400,0.0841,0.0610,0.1010,-0.0190,1.1647,23.4375,23.4375,23.4375,23.4375,12.2384,0.0000,-0.0610,-0.1831,-0.0000,-0.1530,-0.1966,-10.5381,0.0200,-0.0060,-0.0042,0.0000,0.0000,0.0000,0.0000,0.0000,0.0000,0.0000,0.0000,0.0000,0.0000,0.0000,0.0000,0.0000,0.0000,1.0000,0.0000,0.0000,0.0000,-0.1400,0.0841,0.0000,0.0000,0.0000,0.0000,0.0000,0.0000,-0.0000,-0.0355,0.0258,0.0113,0.0000,0.0000,-0.5712,0.0025,0.0025,0.0025,0.0025,4
25,141,869244198513,-10.5141,-0.1400,0.0841,0.0610,0.1010,-0.0190,1.1647,23.4375,23.4375,23.4375,23.4375,12.2375,0.0000,0.0610,-0.1221,-0.0000,-0.1674,-0.1990,-10.5882,0.0200,-0.0061,-0.0042,0.0000,0.0000,0.0000,0.0000,0.0000,0.0000,0.0000,0.0000,0.0000,0.0000,0.0000,0.0000,0.0000,0.0000,1.0000,0.0000,0.0000,0.0000,-0.1400,0.0841,0.0000,0.0000,0.0000,0.0000,0.0000,0.0000,-0.0000,-0.0381,0.0255,0.0113,0.0000,0.0000,-0.5712,0.0025,0.0025,0.0025,0.0025,4
26,142,869248732318,-10.5141,-0.1400,0.0841,0.0610,0.1010,-0.0190,1.1647,23.4375,23.4375,23.4375,23.4375,12.2362,0.0000,0.0000,-0.0610,-0.0000,-0.1650,-0.2086,-10.6002,0.0200,-0.0061,-0.0042,0.0000,0.0000,0.0000,0.0000,0.0000,0.0000,0.0000,0.0000,0.0000,0.0000,0.0000,0.0000,0.0000,0.0000,1.0000,0.0000,0.0000,0.0000,-0.1400,0.0841,0.0000,0.0000,0.0000,0.0000,0.0000,0.0000,-0.0000,-0.0399,0.0253,0.0113,0.0000,0.0000,-0.5712,0.0025,0.0025,0.0025,0.0025,4
27,143,869253707279,-10.5141,-0.1400,0.0841,0.0610,0.1010,-0.0190,1.1647,23.4375,23.4375,23.4375,23.4375,12.2358,0.0000,-0.0610,-0.1221,0.1831,-0.0885,-0.1846,-10.6909,0.0200,-0.0061,-0.0041,0.0000,0.0000,0.0000,0.0000,0.0000,0.0000,0.0000,0.0000,0.0000,0.0000,0.0000,0.0000,0.0000,0.0000,1.0000,0.0000,0.0000,0.0000,-0.1400,0.0841,0.0000,0.0000,0.0000,0.0000,0.0000,0.0000,-0.0000,-0.0410,0.0252,0.0112,0.0000,0.0000,-0.5712,0.0025,0.0025,0.0025,0.0025,4
28,144,869259066404,-10.5141,-0.1400,0.0841,0.0610,0.1010,-0.0190,1.1647,23.4375,23.4375,23.4375,23.4375,12.2343,0.0000,0.0610,0.0000,-0.0610,-0.1363,-0.2421,-10.6193,0.0200,-0.0061,-0.0042,0.0000,0.0000,0.0000,0.0000,0.0000,0.0000,0.0000,0.0000,0.0000,0.0000,0.0000,0.0000,0.0000,0.0000,1.0000,0.0000,0.0000,0.0000,-0.1400,0.0841,0.0000,0.0000,0.0000,0.0000,0.0000,0.0000,-0.0000,-0.0419,0.0250,0.0113,0.0000,0.0000,-0.5712,0.0025,0.0025,0.0025,0.0025,4
29,145,869263721319,-10.5141,-0.1400,0.0841,0.0610,0.1010,-0.0190,1.1647,23.4375,23.4375,23.4375,23.4375,12.2333,0.0000,0.0000,0.0000,-0.0000,-0.1482,-0.2182,-10.5835,0.0200,-0.0061,-0.0042,0.0000,0.0000,0.0000,0.0000,0.0000,0.0000,0.0000,0.0000,0.0000,0.0000,0.0000,0.0000,0.0000,0.0000,1.0000,0.0000,0.0000,0.0000,-0.1400,0.0841,0.0000,0.0000,0.0000,0.0000,0.0000,0.0000,-0.0000,-0.0424,0.0249,0.0113,0.0000,0.0000,-0.5712,0.0025,0.0025,0.0025,0.0025,4
30,146,869268730027,-10.5141,-0.1400,0.0841,0.0610,0.1010,-0.0190,1.1647,23.4375,23.4375,23.4375,23.4375,12.2319,0.0000,-0.0610,-0.2441,-0.0000,-0.1482,-0.2134,-10.6145,0.0200,-0.0061,-0.0042,0.0000,0.0000,0.0000,0.0000,0.0000,0.0000,0.0000,0.0000,0.0000,0.0000,0.0000,0.0000,0.0000,0.0000,1.0000,0.0000,0.0000,0.0000,-0.1400,0.0841,0.0000,0.0000,0.0000,0.0000,0.0000,0.0000,-0.0000,-0.0428,0.0249,0.0113,0.0000,0.0000,-0.5712,0.0025,0.0025,0.0025,0.0025,4
31,147,869273693115,-10.5141,-0.1400,0.0841,0.0610,0.1010,-0.0190,1.1647,23.4375,23.4375,23.4375,23.4375,12.2312,0.0000,0.0000,-0.1831,-0.0000,-0.1458,-0.1894,-10.6408,0.0200,-0.0061,-0.0042,0.0000,0.0000,0.0000,0.0000,0.0000,0.0000,0.0000,0.0000,0.0000,0.0000,0.0000,0.0000,0.0000,0.0000,1.0000,0.0000,0.0000,0.0000,-0.1400,0.0841,0.0000,0.0000,0.0000,0.0000,0.0000,0.0000,-0.0000,-0.0431,0.0249,0.0113,0.0000,0.0000,-0.5712,0.0025,0.0025,0.0025,0.0025,4
32,148,869279036575,-10.5141,-0.1400,0.0841,0.0610,0.1010,-0.0190,1.1647,23.4375,23.4375,23.4375,23.4375,12.2300,0.0000,0.0000,0.0000,-0.0000,-0.1076,-0.1966,-10.6097,0.0200,-0.0062,-0.0042,0.0000,0.0000,0.0000,0.0000,0.0000,0.0000,0.0000,0.0000,0.0000,0.0000,0.0000,0.0000,0.0000,0.0000,1.0000,0.0000,0.0000,0.0000,-0.1400,0.0841,0.0000,0.0000,0.0000,0.0000,0.0000,0.0000,-0.0000,-0.0433,0.0249,0.0114,0.0000,0.0000,-0.5712,0.0025,0.0025,0.0025,0.0025,4
33,149,869283687199,-10.5141,-0.1400,0.0841,0.0610,0.1010,-0.0190,1.1647,23.4375,23.4375,23.4375,23.4375,12.2295,0.0000,0.0610,0.0000,-0.0000,-0.1530,-0.2301,-10.5572,0.0201,-0.0062,-0.0042,0.0000,0.0000,0.0000,0.0000,0.0000,0.0000,0.0000,0.0000,0.0000,0.0000,0.0000,0.0000,0.0000,0.0000,1.0000,0.0000,0.0000,0.0000,-0.1400,0.0841,0.0000,0.0000,0.0000,0.0000,0.0000,0.0000,-0.0000,-0.0434,0.0248,0.0114,0.0000,0.0000,-0.5712,0.0025,0.0025,0.0025,0.0025,4
34,150,869288911923,-10.5141,-0.1400,0.0841,0.0610,0.1010,-0.0190,1.1647,23.4375,23.4375,23.4375,23.4375,12.2283,0.0000,-0.0610,-0.1831,-0.0000,-0.1315,-0.1918,-10.5668,0.0201,-0.0062,-0.0042,0.0000,0.0000,0.0000,0.0000,0.0000,0.0000,0.0000,0.0000,0.0000,0.0000,0.0000,0.0000,0.0000,0.0000,1.0000,0.0000,0.0000,0.0000,-0.1400,0.0841,0.0000,0.0000,0.0000,0.0000,0.0000,0.0000,-0.0000,-0.0435,0.0248,0.0114,0.0000,0.0000,-0.5712,0.0025,0.0025,0.0025,0.0025,4
35,151,869294190391,-10.5141,-0.1400,0.0841,0.0610,0.1010,-0.0190,1.1647,23.4375,23.4375,23.4375,23.4375,12.2280,0.0000,-0.1221,-0.0610,-0.0000,-0.1148,-0.2086,-10.5477,0.0201,-0.0062,-0.0042,0.0000,0.0000,0.0000,0.0000,0.0000,0.0000,0.0000,0.0000,0.0000,0.0000,0.0000,0.0000,0.0000,0.0000,1.0000,0.0000,0.0000,0.0000,-0.1400,0.0841,0.0000,0.0000,0.0000,0.0000,0.0000,0.0000,-0.0000,-0.0435,0.0248,0.0114,0.0000,0.0000,-0.5712,0.0025,0.0025,0.0025,0.0025,4
36,152,869298735194,-10.5141,-0.1400,0.0841,0.0610,0.1010,-0.0190,1.1647,23.4375,23.4375,23.4375,23.4375,12.2266,0.0000,0.0000,0.0000,-0.0000,-0.1674,-0.1870,-10.6073,0.0201,-0.0062,-0.0042,0.0000,0.0000,0.0000,0.0000,0.0000,0.0000,0.0000,0.0000,0.0000,0.0000,0.0000,0.0000,0.0000,0.0000,1.0000,0.0000,0.0000,0.0000,-0.1400,0.0841,0.0000,0.0000,0.0000,0.0000,0.0000,0.0000,-0.0000,-0.0435,0.0248,0.0114,0.0000,0.0000,-0.5712,0.0025,0.0025,0.0025,0.0025,4
37,153,869303674868,-10.5141,-0.1400,0.0841,0.0610,0.1010,-0.0190,1.1647,23.4375,23.4375,23.4375,23.4375,12.2251,0.0000,0.0000,0.0000,-0.0000,-0.1172,-0.1774,-10.6408,0.0201,-0.0062,-0.0042,0.0000,0.0000,0.0000,0.0000,0.0000,0.0000,0.0000,0.0000,0.0000,0.0000,0.0000,0.0000,0.0000,0.0000,1.0000,0.0000,0.0000,0.0000,-0.1400,0.0841,0.0000,0.0000,0.0000,0.0000,0.0000,0.0000,-0.0000,-0.0435,0.0248,0.0114,0.0000,0.0000,-0.5712,0.0025,0.0025,0.0025,0.0025,4
38,154,869309377161,-10.5141,-0.1400,0.0841,0.0610,0.1010,-0.0190,1.1647,23.4375,23.4375,23.4375,23.4375,12.2242,0.0000,0.0000,0.0000,-0.0000,-0.1435,-0.2062,-10.6503,0.0201,-0.0062,-0.0042,0.0000,0.0000,0.0000,0.0000,0.0000,0.0000,0.0000,0.0000,0.0000,0.0000,0.0000,0.0000,0.0000,0.0000,1.0000,0.0000,0.0000,0.0000,-0.1400,0.0841,0.0000,0.0000,0.0000,0.0000,0.0000,0.0000,-0.0000,-0.0436,0.0247,0.0114,0.0000,0.0000,-0.5712,0.0025,0.0025,0.0025,0.0025,4
39,155,869313902966,-10.5141,-0.1400,0.0841,0.0610,0.1010,-0.0190,1.1647,23.4375,23.4375,23.4375,23.4375,12.2244,0.0000,-0.1221,-0.0610,-0.0000,-0.1100,-0.2158,-10.5978,0.0201,-0.0062,-0.0042,0.0000,0.0000,0.0000,0.0000,0.0000,0.0000,0.0000,0.0000,0.0000,0.0000,0.0000,0.0000,0.0000,0.0000,1.0000,0.0000,0.0000,0.0000,-0.1400,0.0841,0.0000,0.0000,0.0000,0.0000,0.0000,0.0000,-0.0000,-0.0435,0.0247,0.0114,0.0000,0.0000,-0.5712,0.0025,0.0025,0.0025,0.0025,4
40,156,869318697366,-10.5141,-0.1400,0.0841,0.0610,0.1010,-0.0190,1.1647,23.4375,23.4375,23.4375,23.4375,12.2244,0.0000,-0.0610,-0.1221,-0.0000,-0.1219,-0.1822,-10.6145,0.0201,-0.0062,-0.0042,0.0000,0.0000,0.0000,0.0000,0.0000,0.0000,0.0000,0.0000,0.0000,0.0000,0.0000,0.0000,0.0000,0.0000,1.0000,0.0000,0.0000,0.0000,-0.1400,0.0841,0.0000,0.0000,0.0000,0.0000,0.0000,0.0000,-0.0000,-0.0436,0.0247,0.0114,0.0000,0.0000,-0.5712,0.0025,0.0025,0.0025,0.0025,4
41,157,869323738153,-10.5141,-0.1400,0.0841,0.0510,0.0610,-0.0090,1.1647,23.4375,23.4375,23.4375,23.4375,12.2242,0.0000,0.0610,-0.1221,0.1221,-0.1578,-0.2134,-10.6169,0.0201,-0.0062,-0.0042,0.0000,0.0000,0.0000,0.0000,0.0000,0.0000,0.0000,0.0000,0.0000,0.0000,0.0000,0.0000,0.0000,0.0000,1.0000,0.0000,0.0000,0.0000,-0.1400,0.0841,0.0000,0.0000,0.0000,0.0000,0.0000,0.0000,-0.0000,-0.0436,0.0248,0.0114,0.0000,0.0000,-0.5712,0.0025,0.0025,0.0025,0.0025,4
42,158,869355901735,-10.5316,-0.1175,0.0977,0.0510,0.0610,-0.0090,1.1647,23.4375,23.4375,23.4375,23.4375,12.2244,0.0000,0.0000,0.0000,0.1221,-0.1721,-0.2062,-10.6312,0.0201,-0.0062,-0.0042,0.0000,0.0000,0.0000,0.0000,0.0000,0.0000,0.0000,0.0000,0.0000,0.0000,0.0000,0.0000,0.0000,0.0000,1.0000,0.0000,0.0000,0.0000,-0.1175,0.0977,0.0000,0.0000,0.0000,0.0000,0.0000,0.0000,-0.0000,0.0820,0.0820,0.0113,0.0000,0.0000,-0.5731,0.0025,0.0025,0.0025,0.0025,4
43,159,869394508690,-10.5316,-0.1175,0.0977,0.0510,0.0610,-0.0090,1.1647,23.4375,23.4375,23.4375,23.4375,12.2244,0.0000,-0.0610,-0.1831,0.1831,-0.1458,-0.1894,-10.5620,0.0201,-0.0063,-0.0042,0.0000,0.0000,0.0000,0.0000,0.0000,0.0000,0.0000,0.0000,0.0000,0.0000,0.0000,0.0000,0.0000,0.0000,1.0000,0.0000,0.0000,0.0000,-0.1175,0.0977,0.0000,0.0000,0.0000,0.0000,0.0000,0.0000,-0.0000,0.0445,0.0655,0.0115,0.0000,0.0000,-0.5731,0.0025,0.0025,0.0025,0.0025,4
44,160,869449775786,-10.5316,-0.1175,0.0977,0.0510,0.0610,-0.0090,1.1647,23.4375,23.4375,23.4375,23.4375,12.2246,0.0000,0.0000,0.0000,-0.0000,-0.1506,-0.1870,-10.5835,0.0201,-0.0065,-0.0042,0.0000,0.0000,0.0000,0.0000,0.0000,0.0000,0.0000,0.0000,0.0000,0.0000,0.0000,0.0000,0.0000,0.0000,1.0000,0.0000,0.0000,0.0000,-0.1175,0.0977,0.0000,0.0000,0.0000,0.0000,0.0000,0.0000,-0.0000,0.0186,0.0547,0.0114,0.0000,0.0000,-0.5731,0.0025,0.0025,0.0025,0.0025,4
45,161,869453676956,-10.5316,-0.1175,0.0977,0.0510,0.0610,-0.0090,1.1647,23.4375,23.4375,23.4375,23.4375,12.2249,0.0000,0.1221,0.0000,-0.0000,-0.1435,-0.1846,-10.5978,0.0201,-0.0065,-0.0042,0.0000,0.0000,0.0000,0.0000,0.0000,0.0000,0.0000,0.0000,0.0000,0.0000,0.0000,0.0000,0.0000,0.0000,1.0000,0.0000,0.0000,0.0000,-0.1175,0.0977,0.0000,0.0000,0.0000,0.0000,0.0000,0.0000,-0.0000,0.0009,0.0465,0.0114,0.0000,0.0000,-0.5731,0.0025,0.0025,0.0025,0.0025,4
46,162,869458592966,-10.5316,-0.1175,0.0977,0.0510,0.0610,-0.0090,1.1647,23.4375,23.4375,23.4375,23.4375,12.2251,0.0000,0.0000,0.0000,-0.0610,-0.1458,-0.1918,-10.5906,0.0201,-0.0065,-0.0042,0.0000,0.0000,0.0000,0.0000,0.0000,0.0000,0.0000,0.0000,0.0000,0.0000,0.0000,0.0000,0.0000,0.0000,1.0000,0.0000,0.0000,0.0000,-0.1175,0.0977,0.0000,0.0000,0.0000,0.0000,0.0000,0.0000,-0.0000,-0.0111,0.0408,0.0115,0.0000,0.0000,-0.5731,0.0025,0.0025,0.0025,0.0025,4
47,163,869463979129,-10.5316,-0.1175,0.0977,0.0510,0.0610,-0.0090,1.1647,23.4375,23.4375,23.4375,23.4375,12.2244,0.0000,-0.2441,-0.1831,-0.0000,-0.1698,-0.2110,-10.5859,0.0201,-0.0065,-0.0042,0.0000,0.0000,0.0000,0.0000,0.0000,0.0000,0.0000,0.0000,0.0000,0.0000,0.0000,0.0000,0.0000,0.0000,1.0000,0.0000,0.0000,0.0000,-0.1175,0.0977,0.0000,0.0000,0.0000,0.0000,0.0000,0.0000,-0.0000,-0.0193,0.0370,0.0115,0.0000,0.0000,-0.5731,0.0025,0.0025,0.0025,0.0025,4
48,164,869468662916,-10.5316,-0.1175,0.0977,0.0510,0.0610,-0.0090,1.1647,23.4375,23.4375,23.4375,23.4375,12.2251,0.0000,-0.1831,-0.1831,0.1831,-0.1411,-0.1966,-10.5859,0.0201,-0.0065,-0.0042,0.0000,0.0000,0.0000,0.0000,0.0000,0.0000,0.0000,0.0000,0.0000,0.0000,0.0000,0.0000,0.0000,0.0000,1.0000,0.0000,0.0000,0.0000,-0.1175,0.0977,0.0000,0.0000,0.0000,0.0000,0.0000,0.0000,-0.0000,-0.0250,0.0344,0.0114,0.0000,0.0000,-0.5731,0.0025,0.0025,0.0025,0.0025,4
49,165,869473621046,-10.5316,-0.1175,0.0977,0.0510,0.0610,-0.0090,1.1647,23.4375,23.4375,23.4375,23.4375,12.2254,0.0000,-0.0610,-0.1221,-0.0000,-0.1817,-0.1942,-10.6288,0.0201,-0.0065,-0.0042,0.0000,0.0000,0.0000,0.0000,0.0000,0.0000,0.0000,0.0000,0.0000,0.0000,0.0000,0.0000,0.0000,0.0000,1.0000,0.0000,0.0000,0.0000,-0.1175,0.0977,0.0000,0.0000,0.0000,0.0000,0.0000,0.0000,-0.0000,-0.0289,0.0326,0.0115,0.0000,0.0000,-0.5731,0.0025,0.0025,0.0025,0.0025,4
50,166,869478572510,-10.5316,-0.1175,0.0977,0.0510,0.0610,-0.0090,1.1647,23.4375,23.4375,23.4375,23.4375,12.2256,0.0000,0.0610,0.0000,0.2441,-0.1315,-0.2253,-10.5524,0.0201,-0.0065,-0.0042,0.0000,0.0000,0.0000,0.0000,0.0000,0.0000,0.0000,0.0000,0.0000,0.0000,0.0000,0.0000,0.0000,0.0000,1.0000,0.0000,0.0000,0.0000,-0.1175,0.0977,0.0000,0.0000,0.0000,0.0000,0.0000,0.0000,-0.0000,-0.0317,0.0314,0.0113,0.0000,0.0000,-0.5731,0.0025,0.0025,0.0025,0.0025,4
51,167,869490633104,-10.5316,-0.1175,0.0977,0.0510,0.0610,-0.0090,1.1647,23.4375,23.4375,23.4375,23.4375,12.2249,0.0000,-0.0610,-0.1221,0.1221,-0.1219,-0.1822,-10.5787,0.0201,-0.0066,-0.0042,0.0000,0.0000,0.0000,0.0000,0.0000,0.0000,0.0000,0.0000,0.0000,0.0000,0.0000,0.0000,0.0000,0.0000,1.0000,0.0000,0.0000,0.0000,-0.1175,0.0977,0.0000,0.0000,0.0000,0.0000,0.0000,0.0000,-0.0000,-0.0335,0.0306,0.0113,0.0000,0.0000,-0.5731,0.0025,0.0025,0.0025,0.0025,4
52,168,869493831064,-10.5316,-0.1175,0.0977,0.0510,0.0610,-0.0090,1.1647,23.4375,23.4375,23.4375,23.4375,12.2251,0.0000,0.0000,-0.1831,0.1831,-0.1148,-0.2062,-10.6097,0.0201,-0.0066,-0.0042,0.0000,0.0000,0.0000,0.0000,0.0000,0.0000,0.0000,0.0000,0.0000,0.0000,0.0000,0.0000,0.0000,0.0000,1.0000,0.0000,0.0000,0.0000,-0.1175,0.0977,0.0000,0.0000,0.0000,0.0000,0.0000,0.0000,-0.0000,-0.0348,0.0300,0.0113,0.0000,0.0000,-0.5731,0.0025,0.0025,0.0025,0.0025,4
53,169,869499165900,-10.5316,-0.1175,0.0977,0.0510,0.0610,-0.0090,1.1647,23.4375,23.4375,23.4375,23.4375,12.2256,0.0000,0.0000,-0.1221,-0.0000,-0.1482,-0.1295,-10.6002,0.0201,-0.0066,-0.0042,0.0000,0.0000,0.0000,0.0000,0.0000,0.0000,0.0000,0.0000,0.0000,0.0000,0.0000,0.0000,0.0000,0.0000,1.0000,0.0000,0.0000,0.0000,-0.1175,0.0977,0.0000,0.0000,0.0000,0.0000,0.0000,0.0000,-0.0000,-0.0357,0.0296,0.0113,0.0000,0.0000,-0.5731,0.0025,0.0025,0.0025,0.0025,4
54,170,869503642212,-10.5316,-0.1175,0.0977,0.0510,0.0610,-0.0090,1.1647,23.4375,23.4375,23.4375,23.4375,12.2256,0.0000,0.0000,-0.1831,0.1221,-0.1363,-0.2134,-10.6408,0.0201,-0.0066,-0.0042,0.0000,0.0000,0.0000,0.0000,0.0000,0.0000,0.0000,0.0000,0.0000,0.0000,0.0000,0.0000,0.0000,0.0000,1.0000,0.0000,0.0000,0.0000,-0.1175,0.0977,0.0000,0.0000,0.0000,0.0000,0.0000,0.0000,-0.0000,-0.0363,0.0294,0.0112,0.0000,0.0000,-0.5731,0.0025,0.0025,0.0025,0.0025,4
55,171,869508665001,-10.5316,-0.1175,0.0977,0.0510,0.0610,-0.0090,1.1647,23.4375,23.4375,23.4375,23.4375,12.2249,0.0000,-0.0610,-0.1831,-0.0610,-0.1602,-0.1750,-10.6002,0.0201,-0.0066,-0.0042,0.0000,0.0000,0.0000,0.0000,0.0000,0.0000,0.0000,0.0000,0.0000,0.0000,0.0000,0.0000,0.0000,0.0000,1.0000,0.0000,0.0000,0.0000,-0.1175,0.0977,0.0000,0.0000,0.0000,0.0000,0.0000,0.0000,-0.0000,-0.0367,0.0292,0.0113,0.0000,0.0000,-0.5731,0.0025,0.0025,0.0025,0.0025,4
56,172,869513671458,-10.5316,-0.1175,0.0977,0.0510,0.0610,-0.0090,1.1647,23.4375,23.4375,23.4375,23.4375,12.2251,0.0000,-0.1831,-0.2441,-0.0000,-0.1554,-0.2086,-10.6193,0.0201,-0.0067,-0.0042,0.0000,0.0000,0.0000,0.0000,0.0000,0.0000,0.0000,0.0000,0.0000,0.0000,0.0000,0.0000,0.0000,0.0000,1.0000,0.0000,0.0000,0.0000,-0.1175,0.0977,0.0000,0.0000,0.0000,0.0000,0.0000,0.0000,-0.0000,-0.0369,0.0291,0.0113,0.0000,0.0000,-0.5731,0.0025,0.0025,0.0025,0.0025,4
57,173,869518979506,-10.5316,-0.1175,0.0977,0.0510,0.0610,-0.0090,1.1647,23.4375,23.4375,23.4375,23.4375,12.2251,0.0000,-0.0610,-0.1831,-0.0610,-0.1219,-0.1894,-10.5882,0.0201,-0.0067,-0.0042,0.0000,0.0000,0.0000,0.0000,0.0000,0.0000,0.0000,0.0000,0.0000,0.0000,0.0000,0.0000,0.0000,0.0000,1.0000,0.0000,0.0000,0.0000,-0.1175,0.0977,0.0000,0.0000,0.0000,0.0000,0.0000,0.0000,-0.0000,-0.0371,0.0290,0.0114,0.0000,0.0000,-0.5731,0.0025,0.0025,0.0025,0.0025,4
58,174,869523669084,-10.5316,-0.1175,0.0977,0.0610,0.0910,0.0010,1.1647,23.4375,23.4375,23.4375,23.4375,12.2249,0.0000,-0.0610,-0.1831,-0.1221,-0.1411,-0.2134,-10.6026,0.0201,-0.0067,-0.0042,0.0000,0.0000,0.0000,0.0000,0.0000,0.0000,0.0000,0.0000,0.0000,0.0000,0.0000,0.0000,0.0000,0.0000,1.0000,0.0000,0.0000,0.0000,-0.1175,0.0977,0.0000,0.0000,0.0000,0.0000,0.0000,0.0000,-0.0000,-0.0372,0.0289,0.0116,0.0000,0.0000,-0.5731,0.0025,0.0025,0.0025,0.0025,4
59,175,869528607466,-10.5316,-0.1175,0.0977,0.0610,0.0910,0.0010,1.1647,23.4375,23.4375,23.4375,23.4375,12.2246,0.0000,0.0000,0.0000,-0.0000,-0.1793,-0.1798,-10.6384,0.0201,-0.0067,-0.0042,0.0000,0.0000,0.0000,0.0000,0.0000,0.0000,0.0000,0.0000,0.0000,0.0000,0.0000,0.0000,0.0000,0.0000,1.0000,0.0000,0.0000,0.0000,-0.1175,0.0977,0.0000,0.0000,0.0000,0.0000,0.0000,0.0000,-0.0000,-0.0373,0.0288,0.0116,0.0000,0.0000,-0.5731,0.0025,0.0025,0.0025,0.0025,4
60,176,869556226495,-10.5691,-0.1061,0.0709,0.0610,0.0910,0.0010,1.1647,23.4375,23.4375,23.4375,23.4375,12.2239,0.0000,0.0000,-0.0610,-0.1221,-0.1315,-0.1726,-10.5859,0.0201,-0.0067,-0.0042,0.0000,0.0000,0.0000,0.0000,0.0000,0.0000,0.0000,0.0000,0.0000,0.0000,0.0000,0.0000,0.0000,0.0000,1.0000,0.0000,0.0000,0.0000,-0.1061,0.0709,0.0000,0.0000,0.0000,0.0000,0.0000,0.0000,-0.0000,0.0311,-0.1180,0.0117,0.0000,0.0000,-0.5744,0.0025,0.0025,0.0025,0.0025,4
61,177,869559940395,-10.5691,-0.1061,0.0709,0.0610,0.0910,0.0010,1.1647,23.4375,23.4375,23.4375,23.4375,12.2237,0.0000,0.0000,-0.0610,0.1221,-0.1578,-0.2182,-10.5429,0.0201,-0.0068,-0.0042,0.0000,0.0000,0.0000,0.0000,0.0000,0.0000,0.0000,0.0000,0.0000,0.0000,0.0000,0.0000,0.0000,0.0000,1.0000,0.0000,0.0000,0.0000,-0.1061,0.0709,0.0000,0.0000,0.0000,0.0000,0.0000,0.0000,-0.0000,0.0104,-0.0741,0.0115,0.0000,0.0000,-0.5744,0.0025,0.0025,0.0025,0.0025,4
62,178,869564422289,-10.5691,-0.1061,0.0709,0.0610,0.0910,0.0010,1.1647,23.4375,23.4375,23.4375,23.4375,12.2232,0.0000,-0.0610,-0.1221,-0.1221,-0.1650,-0.2110,-10.5596,0.0201,-0.0068,-0.0042,0.0000,0.0000,0.0000,0.0000,0.0000,0.0000,0.0000,0.0000,0.0000,0.0000,0.0000,0.0000,0.0000,0.0000,1.0000,0.0000,0.0000,0.0000,-0.1061,0.0709,0.0000,0.0000,0.0000,0.0000,0.0000,0.0000,-0.0000,-0.0037,-0.0439,0.0119,0.0000,0.0000,-0.5744,0.0025,0.0025,0.0025,0.0025,4
63,179,869596868963,-10.5691,-0.1061,0.0709,0.0610,0.0910,0.0010,1.1647,23.4375,23.4375,23.4375,23.4375,12.2234,0.0000,-0.0610,-0.1221,0.1221,-0.1745,-0.1990,-10.5739,0.0201,-0.0068,-0.0042,0.0000,0.0000,0.0000,0.0000,0.0000,0.0000,0.0000,0.0000,0.0000,0.0000,0.0000,0.0000,0.0000,0.0000,1.0000,0.0000,0.0000,0.0000,-0.1061,0.0709,0.0000,0.0000,0.0000,0.0000,0.0000,0.0000,-0.0000,-0.0133,-0.0234,0.0118,0.0000,0.0000,-0.5744,0.0025,0.0025,0.0025,0.0025,4
64,180,869655072008,-10.5691,-0.1061,0.0709,0.0610,0.0910,0.0010,1.1647,23.4375,23.4375,23.4375,23.4375,12.2234,0.0000,-0.0610,-0.1831,-0.0000,-0.1530,-0.1942,-10.6240,0.0201,-0.0069,-0.0043,0.0000,0.0000,0.0000,0.0000,0.0000,0.0000,0.0000,0.0000,0.0000,0.0000,0.0000,0.0000,0.0000,0.0000,1.0000,0.0000,0.0000,0.0000,-0.1061,0.0709,0.0000,0.0000,0.0000,0.0000,0.0000,0.0000,-0.0000,-0.0199,-0.0089,0.0119,0.0000,0.0000,-0.5744,0.0025,0.0025,0.0025,0.0025,4
65,181,869658774160,-10.5691,-0.1061,0.0709,0.0610,0.0910,0.0010,1.1647,23.4375,23.4375,23.4375,23.4375,12.2234,0.0000,-0.1831,-0.1221,-0.0000,-0.0980,-0.2253,-10.5882,0.0201,-0.0069,-0.0043,0.0000,0.0000,0.0000,0.0000,0.0000,0.0000,0.0000,0.0000,0.0000,0.0000,0.0000,0.0000,0.0000,0.0000,1.0000,0.0000,0.0000,0.0000,-0.1061,0.0709,0.0000,0.0000,0.0000,0.0000,0.0000,0.0000,-0.0000,-0.0244,0.0006,0.0118,0.0000,0.0000,-0.5744,0.0025,0.0025,0.0025,0.0025,4
66,182,869663610387,-10.5691,-0.1061,0.0709,0.0610,0.0910,0.0010,1.1647,23.4375,23.4375,23.4375,23.4375,12.2229,0.0000,-0.2441,-0.2441,-0.0000,-0.1124,-0.1726,-10.5906,0.0201,-0.0069,-0.0043,0.0000,0.0000,0.0000,0.0000,0.0000,0.0000,0.0000,0.0000,0.0000,0.0000,0.0000,0.0000,0.0000,0.0000,1.0000,0.0000,0.0000,0.0000,-0.1061,0.0709,0.0000,0.0000,0.0000,0.0000,0.0000,0.0000,-0.0000,-0.0275,0.0072,0.0118,0.0000,0.0000,-0.5744,0.0025,0.0025,0.0025,0.0025,4
67,183,869668654424,-10.5691,-0.1061,0.0709,0.0610,0.0910,0.0010,1.1647,23.4375,23.4375,23.4375,23.4375,12.2229,0.0000,-0.0610,-0.1831,-0.0610,-0.1674,-0.1894,-10.5811,0.0201,-0.0069,-0.0043,0.0000,0.0000,0.0000,0.0000,0.0000,0.0000,0.0000,0.0000,0.0000,0.0000,0.0000,0.0000,0.0000,0.0000,1.0000,0.0000,0.0000,0.0000,-0.1061,0.0709,0.0000,0.0000,0.0000,0.0000,0.0000,0.0000,-0.0000,-0.0296,0.0117,0.0118,0.0000,0.0000,-0.5744,0.0025,0.0025,0.0025,0.0025,4
68,184,869674022256,-10.5691,-0.1061,0.0709,0.0610,0.0910,0.0010,1.1647,23.4375,23.4375,23.4375,23.4375,12.2222,0.0000,-0.0610,-0.2441,-0.0000,-0.1387,-0.1630,-10.5763,0.0201,-0.0070,-0.0043,0.0000,0.0000,0.0000,0.0000,0.0000,0.0000,0.0000,0.0000,0.0000,0.0000,0.0000,0.0000,0.0000,0.0000,1.0000,0.0000,0.0000,0.0000,-0.1061,0.0709,0.0000,0.0000,0.0000,0.0000,0.0000,0.0000,-0.0000,-0.0311,0.0148,0.0118,0.0000,0.0000,-0.5744,0.0025,0.0025,0.0025,0.0025,4
69,185,869678578017,-10.5691,-0.1061,0.0709,0.0610,0.0910,0.0010,1.1647,23.4375,23.4375,23.4375,23.4375,12.2220,0.0000,-0.1831,-0.1831,-0.0000,-0.1411,-0.2230,-10.5811,0.0201,-0.0070,-0.0043,0.0000,0.0000,0.0000,0.0000,0.0000,0.0000,0.0000,0.0000,0.0000,0.0000,0.0000,0.0000,0.0000,0.0000,1.0000,0.0000,0.0000,0.0000,-0.1061,0.0709,0.0000,0.0000,0.0000,0.0000,0.0000,0.0000,-0.0000,-0.0321,0.0169,0.0118,0.0000,0.0000,-0.5744,0.0025,0.0025,0.0025,0.0025,4
70,186,869683640093,-10.5691,-0.1061,0.0709,0.0610,0.0910,0.0010,1.1647,23.4375,23.4375,23.4375,23.4375,12.2220,0.0000,-0.0610,-0.1831,0.1221,-0.1698,-0.1942,-10.6312,0.0201,-0.0070,-0.0043,0.0000,0.0000,0.0000,0.0000,0.0000,0.0000,0.0000,0.0000,0.0000,0.0000,0.0000,0.0000,0.0000,0.0000,1.0000,0.0000,0.0000,0.0000,-0.1061,0.0709,0.0000,0.0000,0.0000,0.0000,0.0000,0.0000,-0.0000,-0.0329,0.0184,0.0117,0.0000,0.0000,-0.5744,0.0025,0.0025,0.0025,0.0025,4
71,187,869689232815,-10.5691,-0.1061,0.0709,0.0610,0.0910,0.0010,1.1647,23.4375,23.4375,23.4375,23.4375,12.2222,0.0000,0.1221,-0.1831,-0.0000,-0.1124,-0.1870,-10.6384,0.0201,-0.0070,-0.0043,0.0000,0.0000,0.0000,0.0000,0.0000,0.0000,0.0000,0.0000,0.0000,0.0000,0.0000,0.0000,0.0000,0.0000,1.0000,0.0000,0.0000,0.0000,-0.1061,0.0709,0.0000,0.0000,0.0000,0.0000,0.0000,0.0000,-0.0000,-0.0335,0.0194,0.0118,0.0000,0.0000,-0.5744,0.0025,0.0025,0.0025,0.0025,4
72,188,869693864650,-10.5691,-0.1061,0.0709,0.0610,0.0910,0.0010,1.1647,23.4375,23.4375,23.4375,23.4375,12.2220,0.0000,-0.0610,-0.1831,-0.0000,-0.1339,-0.2062,-10.5596,0.0201,-0.0070,-0.0043,0.0000,0.0000,0.0000,0.0000,0.0000,0.0000,0.0000,0.0000,0.0000,0.0000,0.0000,0.0000,0.0000,0.0000,1.0000,0.0000,0.0000,0.0000,-0.1061,0.0709,0.0000,0.0000,0.0000,0.0000,0.0000,0.0000,-0.0000,-0.0338,0.0201,0.0118,0.0000,0.0000,-0.5744,0.0025,0.0025,0.0025,0.0025,4
73,189,869698610722,-10.5691,-0.1061,0.0709,0.0610,0.0910,0.0010,1.1647,23.4375,23.4375,23.4375,23.4375,12.2208,0.0000,0.0000,0.0000,-0.0610,-0.1578,-0.1870,-10.5691,0.0201,-0.0070,-0.0043,0.0000,0.0000,0.0000,0.0000,0.0000,0.0000,0.0000,0.0000,0.0000,0.0000,0.0000,0.0000,0.0000,0.0000,1.0000,0.0000,0.0000,0.0000,-0.1061,0.0709,0.0000,0.0000,0.0000,0.0000,0.0000,0.0000,-0.0000,-0.0340,0.0205,0.0118,0.0000,0.0000,-0.5744,0.0025,0.0025,0.0025,0.0025,4
74,190,869703552520,-10.5691,-0.1061,0.0709,0.0610,0.0910,0.0010,1.1647,23.4375,23.4375,23.4375,23.4375,12.2210,0.0000,-0.0610,-0.2441,-0.0000,-0.1243,-0.1822,-10.6312,0.0201,-0.0071,-0.0043,0.0000,0.0000,0.0000,0.0000,0.0000,0.0000,0.0000,0.0000,0.0000,0.0000,0.0000,0.0000,0.0000,0.0000,1.0000,0.0000,0.0000,0.0000,-0.1061,0.0709,0.0000,0.0000,0.0000,0.0000,0.0000,0.0000,-0.0000,-0.0341,0.0208,0.0118,0.0000,0.0000,-0.5744,0.0025,0.0025,0.0025,0.0025,4
75,191,869708958640,-10.5691,-0.1061,0.0709,0.0610,0.0910,0.0010,1.1647,23.4375,23.4375,23.4375,23.4375,12.2210,0.0000,-0.0610,-0.1221,-0.0000,-0.1530,-0.2038,-10.5811,0.0201,-0.0071,-0.0043,0.0000,0.0000,0.0000,0.0000,0.0000,0.0000,0.0000,0.0000,0.0000,0.0000,0.0000,0.0000,0.0000,0.0000,1.0000,0.0000,0.0000,0.0000,-0.1061,0.0709,0.0000,0.0000,0.0000,0.0000,0.0000,0.0000,-0.0000,-0.0342,0.0210,0.0118,0.0000,0.0000,-0.5744,0.0025,0.0025,0.0025,0.0025,4
76,192,869713610181,-10.5691,-0.1061,0.0709,0.0610,0.0910,0.0010,1.1647,23.4375,23.4375,23.4375,23.4375,12.2208,0.0000,0.0610,-0.1221,-0.0000,-0.1650,-0.1894,-10.5835,0.0202,-0.0071,-0.0043,0.0000,0.0000,0.0000,0.0000,0.0000,0.0000,0.0000,0.0000,0.0000,0.0000,0.0000,0.0000,0.0000,0.0000,1.0000,0.0000,0.0000,0.0000,-0.1061,0.0709,0.0000,0.0000,0.0000,0.0000,0.0000,0.0000,-0.0000,-0.0343,0.0212,0.0118,0.0000,0.0000,-0.5744,0.0025,0.0025,0.0025,0.0025,4
77,193,869718686255,-10.5691,-0.1061,0.0709,0.0610,0.0910,0.0010,1.1647,23.4375,23.4375,23.4375,23.4375,12.2210,0.0000,0.0000,-0.1831,-0.0000,-0.1602,-0.2637,-10.6026,0.0202,-0.0071,-0.0043,0.0000,0.0000,0.0000,0.0000,0.0000,0.0000,0.0000,0.0000,0.0000,0.0000,0.0000,0.0000,0.0000,0.0000,1.0000,0.0000,0.0000,0.0000,-0.1061,0.0709,0.0000,0.0000,0.0000,0.0000,0.0000,0.0000,-0.0000,-0.0344,0.0214,0.0118,0.0000,0.0000,-0.5744,0.0025,0.0025,0.0025,0.0025,4
78,194,869757261131,-10.5074,-0.1597,0.0488,0.0310,0.1010,-0.0190,1.1647,23.4375,23.4375,23.4375,23.4375,12.2213,0.0000,0.0610,0.0000,-0.0000,-0.1458,-0.1990,-10.6455,0.0202,-0.0071,-0.0043,0.0000,0.0000,0.0000,0.0000,0.0000,0.0000,0.0000,0.0000,0.0000,0.0000,0.0000,0.0000,0.0000,0.0000,1.0000,0.0000,0.0000,0.0000,-0.1597,0.0488,0.0000,0.0000,0.0000,0.0000,0.0000,0.0000,-0.0000,-0.1540,-0.1106,0.0118,0.0000,0.0000,-0.5711,0.0025,0.0025,0.0025,0.0025,4
79,195,869814668769,-10.5074,-0.1597,0.0488,0.0310,0.1010,-0.0190,1.1647,23.4375,23.4375,23.4375,23.4375,12.2213,0.0000,0.0000,-0.1221,-0.1221,-0.1554,-0.2397,-10.5310,0.0202,-0.0073,-0.0043,0.0000,0.0000,0.0000,0.0000,0.0000,0.0000,0.0000,0.0000,0.0000,0.0000,0.0000,0.0000,0.0000,0.0000,1.0000,0.0000,0.0000,0.0000,-0.1597,0.0488,0.0000,0.0000,0.0000,0.0000,0.0000,0.0000,-0.0000,-0.1211,-0.0703,0.0119,0.0000,0.0000,-0.5711,0.0025,0.0025,0.0025,0.0025,4
80,196,869818602935,-10.5074,-0.1597,0.0488,0.0310,0.1010,-0.0190,1.1647,23.4375,23.4375,23.4375,23.4375,12.2215,0.0000,-0.0610,-0.1221,-0.0000,-0.1411,-0.1750,-10.5524,0.0202,-0.0073,-0.0043,0.0000,0.0000,0.0000,0.0000,0.0000,0.0000,0.0000,0.0000,0.0000,0.0000,0.0000,0.0000,0.0000,0.0000,1.0000,0.0000,0.0000,0.0000,-0.1597,0.0488,0.0000,0.0000,0.0000,0.0000,0.0000,0.0000,-0.0000,-0.0985,-0.0434,0.0119,0.0000,0.0000,-0.5711,0.0025,0.0025,0.0025,0.0025,4
81,197,869823509654,-10.5074,-0.1597,0.0488,0.0310,0.1010,-0.0190,1.1647,23.4375,23.4375,23.4375,23.4375,12.2220,0.0000,-0.0610,-0.1831,-0.0000,-0.1339,-0.1750,-10.6217,0.0202,-0.0073,-0.0043,0.0000,0.0000,0.0000,0.0000,0.0000,0.0000,0.0000,0.0000,0.0000,0.0000,0.0000,0.0000,0.0000,0.0000,1.0000,0.0000,0.0000,0.0000,-0.1597,0.0488,0.0000,0.0000,0.0000,0.0000,0.0000,0.0000,-0.0000,-0.0829,-0.0248,0.0119,0.0000,0.0000,-0.5711,0.0025,0.0025,0.0025,0.0025,4
82,198,869828970517,-10.5074,-0.1597,0.0488,0.0310,0.1010,-0.0190,1.1647,23.4375,23.4375,23.4375,23.4375,12.2210,0.0000,-0.0610,-0.1221,0.1221,-0.1578,-0.2038,-10.5691,0.0202,-0.0073,-0.0043,0.0000,0.0000,0.0000,0.0000,0.0000,0.0000,0.0000,0.0000,0.0000,0.0000,0.0000,0.0000,0.0000,0.0000,1.0000,0.0000,0.0000,0.0000,-0.1597,0.0488,0.0000,0.0000,0.0000,0.0000,0.0000,0.0000,-0.0000,-0.0723,-0.0122,0.0119,0.0000,0.0000,-0.5711,0.0025,0.0025,0.0025,0.0025,4
83,199,869833580396,-10.5074,-0.1597,0.0488,0.0310,0.1010,-0.0190,1.1647,23.4375,23.4375,23.4375,23.4375,12.2213,0.0000,-0.0610,-0.1831,-0.0000,-0.1435,-0.2301,-10.6217,0.0202,-0.0073,-0.0043,0.0000,0.0000,0.0000,0.0000,0.0000,0.0000,0.0000,0.0000,0.0000,0.0000,0.0000,0.0000,0.0000,0.0000,1.0000,0.0000,0.0000,0.0000,-0.1597,0.0488,0.0000,0.0000,0.0000,0.0000,0.0000,0.0000,-0.0000,-0.0650,-0.0034,0.0119,0.0000,0.0000,-0.5711,0.0025,0.0025,0.0025,0.0025,4
84,200,869838608185,-10.5074,-0.1597,0.0488,0.0310,0.1010,-0.0190,1.1647,23.4375,23.4375,23.4375,23.4375,12.2213,0.0000,-0.0610,-0.1831,0.1221,-0.1721,-0.1534,-10.6408,0.0202,-0.0073,-0.0043,0.0000,0.0000,0.0000,0.0000,0.0000,0.0000,0.0000,0.0000,0.0000,0.0000,0.0000,0.0000,0.0000,0.0000,1.0000,0.0000,0.0000,0.0000,-0.1597,0.0488,0.0000,0.0000,0.0000,0.0000,0.0000,0.0000,-0.0000,-0.0600,0.0025,0.0118,0.0000,0.0000,-0.5711,0.0025,0.0025,0.0025,0.0025,4
85,201,869843672219,-10.5074,-0.1597,0.0488,0.0310,0.1010,-0.0190,1.1647,23.4375,23.4375,23.4375,23.4375,12.2215,0.0000,0.0610,0.0000,-0.0610,-0.1554,-0.2182,-10.6050,0.0202,-0.0073,-0.0043,0.0000,0.0000,0.0000,0.0000,0.0000,0.0000,0.0000,0.0000,0.0000,0.0000,0.0000,0.0000,0.0000,0.0000,1.0000,0.0000,0.0000,0.0000,-0.1597,0.0488,0.0000,0.0000,0.0000,0.0000,0.0000,0.0000,-0.0000,-0.0566,0.0066,0.0119,0.0000,0.0000,-0.5711,0.0025,0.0025,0.0025,0.0025,4
86,202,869848946354,-10.5074,-0.1597,0.0488,0.0310,0.1010,-0.0190,1.1647,23.4375,23.4375,23.4375,23.4375,12.2215,0.0000,0.0000,0.0000,-0.0000,-0.1554,-0.2134,-10.6718,0.0202,-0.0073,-0.0043,0.0000,0.0000,0.0000,0.0000,0.0000,0.0000,0.0000,0.0000,0.0000,0.0000,0.0000,0.0000,0.0000,0.0000,1.0000,0.0000,0.0000,0.0000,-0.1597,0.0488,0.0000,0.0000,0.0000,0.0000,0.0000,0.0000,-0.0000,-0.0542,0.0094,0.0119,0.0000,0.0000,-0.5711,0.0025,0.0025,0.0025,0.0025,4
87,203,869853560358,-10.5074,-0.1597,0.0488,0.0310,0.1010,-0.0190,1.1647,23.4375,23.4375,23.4375,23.4375,12.2213,0.0000,-0.0610,-0.3052,-0.0000,-0.1243,-0.2014,-10.6503,0.0202,-0.0074,-0.0043,0.0000,0.0000,0.0000,0.0000,0.0000,0.0000,0.0000,0.0000,0.0000,0.0000,0.0000,0.0000,0.0000,0.0000,1.0000,0.0000,0.0000,0.0000,-0.1597,0.0488,0.0000,0.0000,0.0000,0.0000,0.0000,0.0000,-0.0000,-0.0526,0.0114,0.0120,0.0000,0.0000,-0.5711,0.0025,0.0025,0.0025,0.0025,4
88,204,869858898027,-10.5074,-0.1597,0.0488,0.0310,0.1010,-0.0190,1.1647,23.4375,23.4375,23.4375,23.4375,12.2215,0.0000,0.1221,-0.1221,-0.0000,-0.1482,-0.1942,-10.5954,0.0202,-0.0074,-0.0043,0.0000,0.0000,0.0000,0.0000,0.0000,0.0000,0.0000,0.0000,0.0000,0.0000,0.0000,0.0000,0.0000,0.0000,1.0000,0.0000,0.0000,0.0000,-0.1597,0.0488,0.0000,0.0000,0.0000,0.0000,0.0000,0.0000,-0.0000,-0.0516,0.0127,0.0119,0.0000,0.0000,-0.5711,0.0025,0.0025,0.0025,0.0025,4
89,205,869863579356,-10.5074,-0.1597,0.0488,0.0310,0.1010,-0.0190,1.1647,23.4375,23.4375,23.4375,23.4375,12.2217,0.0000,0.0000,-0.0610,-0.0000,-0.1411,-0.1678,-10.6264,0.0202,-0.0074,-0.0043,0.0000,0.0000,0.0000,0.0000,0.0000,0.0000,0.0000,0.0000,0.0000,0.0000,0.0000,0.0000,0.0000,0.0000,1.0000,0.0000,0.0000,0.0000,-0.1597,0.0488,0.0000,0.0000,0.0000,0.0000,0.0000,0.0000,-0.0000,-0.0508,0.0136,0.0119,0.0000,0.0000,-0.5711,0.0025,0.0025,0.0025,0.0025,4
90,206,869868517072,-10.5074,-0.1597,0.0488,0.0310,0.1010,-0.0190,1.1647,23.4375,23.4375,23.4375,23.4375,12.2215,0.0000,-0.1831,-0.1831,-0.0000,-0.1291,-0.1918,-10.5954,0.0202,-0.0074,-0.0043,0.0000,0.0000,0.0000,0.0000,0.0000,0.0000,0.0000,0.0000,0.0000,0.0000,0.0000,0.0000,0.0000,0.0000,1.0000,0.0000,0.0000,0.0000,-0.1597,0.0488,0.0000,0.0000,0.0000,0.0000,0.0000,0.0000,-0.0000,-0.0502,0.0142,0.0119,0.0000,0.0000,-0.5711,0.0025,0.0025,0.0025,0.0025,4
91,207,869873456537,-10.5074,-0.1597,0.0488,0.0310,0.1010,-0.0190,1.1647,23.4375,23.4375,23.4375,23.4375,12.2215,0.0000,0.0000,-0.0610,-0.0000,-0.1602,-0.1918,-10.6575,0.0202,-0.0074,-0.0043,0.0000,0.0000,0.0000,0.0000,0.0000,0.0000,0.0000,0.0000,0.0000,0.0000,0.0000,0.0000,0.0000,0.0000,1.0000,0.0000,0.0000,0.0000,-0.1597,0.0488,0.0000,0.0000,0.0000,0.0000,0.0000,0.0000,-0.0000,-0.0499,0.0146,0.0120,0.0000,0.0000,-0.5711,0.0025,0.0025,0.0025,0.0025,4
92,208,869878842493,-10.5074,-0.1597,0.0488,0.0310,0.1010,-0.0190,1.1647,23.4375,23.4375,23.4375,23.4375,12.2215,0.0000,-0.0610,-0.1221,0.1831,-0.1100,-0.2230,-10.5954,0.0202,-0.0074,-0.0043,0.0000,0.0000,0.0000,0.0000,0.0000,0.0000,0.0000,0.0000,0.0000,0.0000,0.0000,0.0000,0.0000,0.0000,1.0000,0.0000,0.0000,0.0000,-0.1597,0.0488,0.0000,0.0000,0.0000,0.0000,0.0000,0.0000,-0.0000,-0.0496,0.0149,0.0119,0.0000,0.0000,-0.5711,0.0025,0.0025,0.0025,0.0025,4
93,209,869883559109,-10.5074,-0.1597,0.0488,0.0310,0.1010,-0.0190,1.1647,23.4375,23.4375,23.4375,23.4375,12.2215,0.0000,0.0610,0.0000,-0.0000,-0.1530,-0.1678,-10.6050,0.0203,-0.0074,-0.0043,0.0000,0.0000,0.0000,0.0000,0.0000,0.0000,0.0000,0.0000,0.0000,0.0000,0.0000,0.0000,0.0000,0.0000,1.0000,0.0000,0.0000,0.0000,-0.1597,0.0488,0.0000,0.0000,0.0000,0.0000,0.0000,0.0000,-0.0000,-0.0495,0.0151,0.0118,0.0000,0.0000,-0.5711,0.0025,0.0025,0.0025,0.0025,4
94,210,869888557818,-10.5074,-0.1597,0.0488,0.0310,0.1010,-0.0190,1.1647,23.4375,23.4375,23.4375,23.4375,12.2217,0.0000,0.0610,-0.0610,-0.0000,-0.0956,-0.2038,-10.5405,0.0203,-0.0075,-0.0043,0.0000,0.0000,0.0000,0.0000,0.0000,0.0000,0.0000,0.0000,0.0000,0.0000,0.0000,0.0000,0.0000,0.0000,1.0000,0.0000,0.0000,0.0000,-0.1597,0.0488,0.0000,0.0000,0.0000,0.0000,0.0000,0.0000,-0.0000,-0.0494,0.0152,0.0119,0.0000,0.0000,-0.5711,0.0025,0.0025,0.0025,0.0025,4
95,211,869894217825,-10.5074,-0.1597,0.0488,0.0310,0.1010,-0.0190,1.1647,23.4375,23.4375,23.4375,23.4375,12.2217,0.0000,0.0000,0.0000,-0.0000,-0.1291,-0.1846,-10.5906,0.0203,-0.0075,-0.0043,0.0000,0.0000,0.0000,0.0000,0.0000,0.0000,0.0000,0.0000,0.0000,0.0000,0.0000,0.0000,0.0000,0.0000,1.0000,0.0000,0.0000,0.0000,-0.1597,0.0488,0.0000,0.0000,0.0000,0.0000,0.0000,0.0000,-0.0000,-0.0493,0.0152,0.0119,0.0000,0.0000,-0.5711,0.0025,0.0025,0.0025,0.0025,4
96,212,869898528030,-10.5074,-0.1597,0.0488,0.0310,0.1010,-0.0190,1.1647,23.4375,23.4375,23.4375,23.4375,12.2217,0.0000,0.0000,-0.0610,-0.0610,-0.1937,-0.1726,-10.5954,0.0203,-0.0075,-0.0043,0.0000,0.0000,0.0000,0.0000,0.0000,0.0000,0.0000,0.0000,0.0000,0.0000,0.0000,0.0000,0.0000,0.0000,1.0000,0.0000,0.0000,0.0000,-0.1597,0.0488,0.0000,0.0000,0.0000,0.0000,0.0000,0.0000,-0.0000,-0.0493,0.0153,0.0120,0.0000,0.0000,-0.5711,0.0025,0.0025,0.0025,0.0025,4
97,213,869903599564,-10.5074,-0.1597,0.0488,0.0310,0.1010,-0.0190,1.1647,23.4375,23.4375,23.4375,23.4375,12.2217,0.0000,0.0000,-0.1221,-0.0000,-0.1721,-0.1942,-10.5572,0.0203,-0.0075,-0.0044,0.0000,0.0000,0.0000,0.0000,0.0000,0.0000,0.0000,0.0000,0.0000,0.0000,0.0000,0.0000,0.0000,0.0000,1.0000,0.0000,0.0000,0.0000,-0.1597,0.0488,0.0000,0.0000,0.0000,0.0000,0.0000,0.0000,-0.0000,-0.0492,0.0155,0.0120,0.0000,0.0000,-0.5711,0.0025,0.0025,0.0025,0.0025,4
98,214,869908571318,-10.5074,-0.1597,0.0488,0.0310,0.1010,-0.0190,1.1647,23.4375,23.4375,23.4375,23.4375,12.2225,0.0000,-0.0610,-0.1221,-0.0000,-0.1411,-0.1750,-10.6050,0.0203,-0.0075,-0.0044,0.0000,0.0000,0.0000,0.0000,0.0000,0.0000,0.0000,0.0000,0.0000,0.0000,0.0000,0.0000,0.0000,0.0000,1.0000,0.0000,0.0000,0.0000,-0.1597,0.0488,0.0000,0.0000,0.0000,0.0000,0.0000,0.0000,-0.0000,-0.0492,0.0155,0.0120,0.0000,0.0000,-0.5711,0.0025,0.0025,0.0025,0.0025,4
99,215,869913904071,-10.5074,-0.1597,0.0488,0.0310,0.1010,-0.0190,1.1647,23.4375,23.4375,23.4375,23.4375,12.2229,0.0000,-0.1831,-0.2441,-0.0000,-0.1626,-0.1918,-10.6026,0.0203,-0.0075,-0.0044,0.0000,0.0000,0.0000,0.0000,0.0000,0.0000,0.0000,0.0000,0.0000,0.0000,0.0000,0.0000,0.0000,0.0000,1.0000,0.0000,0.0000,0.0000,-0.1597,0.0488,0.0000,0.0000,0.0000,0.0000,0.0000,0.0000,-0.0000,-0.0491,0.0156,0.0120,0.0000,0.0000,-0.5711,0.0025,0.0025,0.0025,0.0025,4
100,216,869918554612,-10.5074,-0.1597,0.0488,0.0310,0.1010,-0.0190,1.1647,23.4375,23.4375,23.4375,23.4375,12.2229,0.0000,-0.0610,-0.1831,-0.0610,-0.1172,-0.1534,-10.5620,0.0203,-0.0075,-0.0044,0.0000,0.0000,0.0000,0.0000,0.0000,0.0000,0.0000,0.0000,0.0000,0.0000,0.0000,0.0000,0.0000,0.0000,1.0000,0.0000,0.0000,0.0000,-0.1597,0.0488,0.0000,0.0000,0.0000,0.0000,0.0000,0.0000,-0.0000,-0.0491,0.0156,0.0120,0.0000,0.0000,-0.5711,0.0025,0.0025,0.0025,0.0025,4
101,217,869923529532,-10.5074,-0.1597,0.0488,0.0610,0.0910,0.0010,1.1647,23.4375,23.4375,23.4375,23.4375,12.2227,0.0000,-0.1831,-0.1221,-0.0000,-0.1506,-0.1918,-10.6288,0.0203,-0.0076,-0.0044,0.0000,0.0000,0.0000,0.0000,0.0000,0.0000,0.0000,0.0000,0.0000,0.0000,0.0000,0.0000,0.0000,0.0000,1.0000,0.0000,0.0000,0.0000,-0.1597,0.0488,0.0000,0.0000,0.0000,0.0000,0.0000,0.0000,-0.0000,-0.0490,0.0156,0.0120,0.0000,0.0000,-0.5711,0.0025,0.0025,0.0025,0.0025,4
102,218,869963534825,-10.5691,-0.1061,0.0709,0.0610,0.0910,0.0010,1.1647,23.4375,23.4375,23.4375,23.4375,12.2239,0.0000,-0.1831,-0.2441,-0.0000,-0.1793,-0.2469,-10.6193,0.0203,-0.0076,-0.0044,0.0000,0.0000,0.0000,0.0000,0.0000,0.0000,0.0000,0.0000,0.0000,0.0000,0.0000,0.0000,0.0000,0.0000,1.0000,0.0000,0.0000,0.0000,-0.1061,0.0709,0.0000,0.0000,0.0000,0.0000,0.0000,0.0000,-0.0000,0.2020,0.1476,0.0120,0.0000,0.0000,-0.5744,0.0025,0.0025,0.0025,0.0025,4
103,219,870020733947,-10.5691,-0.1061,0.0709,0.0610,0.0910,0.0010,1.1647,23.4375,23.4375,23.4375,23.4375,12.2237,0.0000,0.0000,0.0000,0.2441,-0.1387,-0.2038,-10.5811,0.0203,-0.0077,-0.0044,0.0000,0.0000,0.0000,0.0000,0.0000,0.0000,0.0000,0.0000,0.0000,0.0000,0.0000,0.0000,0.0000,0.0000,1.0000,0.0000,0.0000,0.0000,-0.1061,0.0709,0.0000,0.0000,0.0000,0.0000,0.0000,0.0000,-0.0000,0.1277,0.1086,0.0120,0.0000,0.0000,-0.5744,0.0025,0.0025,0.0025,0.0025,4
104,220,870023540786,-10.5691,-0.1061,0.0709,0.0610,0.0910,0.0010,1.1647,23.4375,23.4375,23.4375,23.4375,12.2237,0.0000,0.1221,-0.2441,0.1221,-0.0693,-0.1558,-10.5668,0.0203,-0.0077,-0.0044,0.0000,0.0000,0.0000,0.0000,0.0000,0.0000,0.0000,0.0000,0.0000,0.0000,0.0000,0.0000,0.0000,0.0000,1.0000,0.0000,0.0000,0.0000,-0.1061,0.0709,0.0000,0.0000,0.0000,0.0000,0.0000,0.0000,-0.0000,0.0766,0.0814,0.0119,0.0000,0.0000,-0.5744,0.0025,0.0025,0.0025,0.0025,4
105,221,870028468045,-10.5691,-0.1061,0.0709,0.0610,0.0910,0.0010,1.1647,23.4375,23.4375,23.4375,23.4375,12.2237,0.0000,-0.0610,-0.1221,-0.0000,-0.1363,-0.2182,-10.5548,0.0203,-0.0077,-0.0044,0.0000,0.0000,0.0000,0.0000,0.0000,0.0000,0.0000,0.0000,0.0000,0.0000,0.0000,0.0000,0.0000,0.0000,1.0000,0.0000,0.0000,0.0000,-0.1061,0.0709,0.0000,0.0000,0.0000,0.0000,0.0000,0.0000,-0.0000,0.0417,0.0626,0.0119,0.0000,0.0000,-0.5744,0.0025,0.0025,0.0025,0.0025,4
106,222,870033976111,-10.5691,-0.1061,0.0709,0.0610,0.0910,0.0010,1.1647,23.4375,23.4375,23.4375,23.4375,12.2232,0.0000,0.0000,0.0000,0.1221,-0.1363,-0.2325,-10.5763,0.0203,-0.0077,-0.0044,0.0000,0.0000,0.0000,0.0000,0.0000,0.0000,0.0000,0.0000,0.0000,0.0000,0.0000,0.0000,0.0000,0.0000,1.0000,0.0000,0.0000,0.0000,-0.1061,0.0709,0.0000,0.0000,0.0000,0.0000,0.0000,0.0000,-0.0000,0.0178,0.0497,0.0119,0.0000,0.0000,-0.5744,0.0025,0.0025,0.0025,0.0025,4
107,223,870038529872,-10.5691,-0.1061,0.0709,0.0610,0.0910,0.0010,1.1647,23.4375,23.4375,23.4375,23.4375,12.2237,0.0000,0.0000,-0.1221,-0.0000,-0.0885,-0.1702,-10.5286,0.0203,-0.0077,-0.0044,0.0000,0.0000,0.0000,0.0000,0.0000,0.0000,0.0000,0.0000,0.0000,0.0000,0.0000,0.0000,0.0000,0.0000,1.0000,0.0000,0.0000,0.0000,-0.1061,0.0709,0.0000,0.0000,0.0000,0.0000,0.0000,0.0000,-0.0000,0.0013,0.0409,0.0119,0.0000,0.0000,-0.5744,0.0025,0.0025,0.0025,0.0025,4
108,224,870043726016,-10.5691,-0.1061,0.0709,0.0610,0.0910,0.0010,1.1647,23.4375,23.4375,23.4375,23.4375,12.2237,0.0000,-0.1221,-0.0610,0.1221,-0.1530,-0.1894,-10.5238,0.0203,-0.0077,-0.0044,0.0000,0.0000,0.0000,0.0000,0.0000,0.0000,0.0000,0.0000,0.0000,0.0000,0.0000,0.0000,0.0000,0.0000,1.0000,0.0000,0.0000,0.0000,-0.1061,0.0709,0.0000,0.0000,0.0000,0.0000,0.0000,0.0000,-0.0000,-0.0099,0.0348,0.0118,0.0000,0.0000,-0.5744,0.0025,0.0025,0.0025,0.0025,4
109,225,870048565826,-10.5691,-0.1061,0.0709,0.0610,0.0910,0.0010,1.1647,23.4375,23.4375,23.4375,23.4375,12.2242,0.0000,-0.1831,-0.1221,-0.0610,-0.1435,-0.1750,-10.5620,0.0203,-0.0078,-0.0044,0.0000,0.0000,0.0000,0.0000,0.0000,0.0000,0.0000,0.0000,0.0000,0.0000,0.0000,0.0000,0.0000,0.0000,1.0000,0.0000,0.0000,0.0000,-0.1061,0.0709,0.0000,0.0000,0.0000,0.0000,0.0000,0.0000,-0.0000,-0.0175,0.0306,0.0119,0.0000,0.0000,-0.5744,0.0025,0.0025,0.0025,0.0025,4
110,226,870053874874,-10.5691,-0.1061,0.0709,0.0610,0.0910,0.0010,1.1647,23.4375,23.4375,23.4375,23.4375,12.2244,0.0000,-0.1831,-0.2441,0.1221,-0.1602,-0.1918,-10.5859,0.0203,-0.0078,-0.0044,0.0000,0.0000,0.0000,0.0000,0.0000,0.0000,0.0000,0.0000,0.0000,0.0000,0.0000,0.0000,0.0000,0.0000,1.0000,0.0000,0.0000,0.0000,-0.1061,0.0709,0.0000,0.0000,0.0000,0.0000,0.0000,0.0000,-0.0000,-0.0228,0.0279,0.0119,0.0000,0.0000,-0.5744,0.0025,0.0025,0.0025,0.0025,4
111,227,870058486461,-10.5691,-0.1061,0.0709,0.0610,0.0910,0.0010,1.1647,23.4375,23.4375,23.4375,23.4375,12.2242,0.0000,-0.0610,-0.1221,-0.0000,-0.1195,-0.1750,-10.6217,0.0203,-0.0078,-0.0044,0.0000,0.0000,0.0000,0.0000,0.0000,0.0000,0.0000,0.0000,0.0000,0.0000,0.0000,0.0000,0.0000,0.0000,1.0000,0.0000,0.0000,0.0000,-0.1061,0.0709,0.0000,0.0000,0.0000,0.0000,0.0000,0.0000,-0.0000,-0.0265,0.0259,0.0119,0.0000,0.0000,-0.5744,0.0025,0.0025,0.0025,0.0025,4
112,228,870063431468,-10.5691,-0.1061,0.0709,0.0610,0.0910,0.0010,1.1647,23.4375,23.4375,23.4375,23.4375,12.2242,0.0000,0.0000,-0.0610,0.1221,-0.1339,-0.1846,-10.6217,0.0203,-0.0078,-0.0044,0.0000,0.0000,0.0000,0.0000,0.0000,0.0000,0.0000,0.0000,0.0000,0.0000,0.0000,0.0000,0.0000,0.0000,1.0000,0.0000,0.0000,0.0000,-0.1061,0.0709,0.0000,0.0000,0.0000,0.0000,0.0000,0.0000,-0.0000,-0.0290,0.0246,0.0119,0.0000,0.0000,-0.5744,0.0025,0.0025,0.0025,0.0025,4
113,229,870068860085,-10.5691,-0.1061,0.0709,0.0610,0.0910,0.0010,1.1647,23.4375,23.4375,23.4375,23.4375,12.2246,0.0000,-0.0610,-0.2441,0.2441,-0.1315,-0.1702,-10.5930,0.0203,-0.0078,-0.0043,0.0000,0.0000,0.0000,0.0000,0.0000,0.0000,0.0000,0.0000,0.0000,0.0000,0.0000,0.0000,0.0000,0.0000,1.0000,0.0000,0.0000,0.0000,-0.1061,0.0709,0.0000,0.0000,0.0000,0.0000,0.0000,0.0000,-0.0000,-0.0307,0.0237,0.0117,0.0000,0.0000,-0.5744,0.0025,0.0025,0.0025,0.0025,4
114,230,870073545080,-10.5691,-0.1061,0.0709,0.0610,0.0910,0.0010,1.1647,23.4375,23.4375,23.4375,23.4375,12.2242,0.0000,0.0000,0.0000,0.1221,-0.1411,-0.1894,-10.5811,0.0203,-0.0078,-0.0043,0.0000,0.0000,0.0000,0.0000,0.0000,0.0000,0.0000,0.0000,0.0000,0.0000,0.0000,0.0000,0.0000,0.0000,1.0000,0.0000,0.0000,0.0000,-0.1061,0.0709,0.0000,0.0000,0.0000,0.0000,0.0000,0.0000,-0.0000,-0.0318,0.0230,0.0117,0.0000,0.0000,-0.5744,0.0025,0.0025,0.0025,0.0025,4
115,231,870078451133,-10.5691,-0.1061,0.0709,0.0610,0.0910,0.0010,1.1647,23.4375,23.4375,23.4375,23.4375,12.2244,0.0000,-0.0610,-0.1221,-0.0000,-0.1387,-0.1990,-10.5572,0.0203,-0.0078,-0.0043,0.0000,0.0000,0.0000,0.0000,0.0000,0.0000,0.0000,0.0000,0.0000,0.0000,0.0000,0.0000,0.0000,0.0000,1.0000,0.0000,0.0000,0.0000,-0.1061,0.0709,0.0000,0.0000,0.0000,0.0000,0.0000,0.0000,-0.0000,-0.0327,0.0226,0.0117,0.0000,0.0000,-0.5744,0.0025,0.0025,0.0025,0.0025,4
116,232,870083860836,-10.5691,-0.1061,0.0709,0.0610,0.0910,0.0010,1.1647,23.4375,23.4375,23.4375,23.4375,12.2249,0.0000,0.0610,0.0000,-0.0000,-0.1219,-0.1774,-10.6002,0.0203,-0.0078,-0.0043,0.0000,0.0000,0.0000,0.0000,0.0000,0.0000,0.0000,0.0000,0.0000,0.0000,0.0000,0.0000,0.0000,0.0000,1.0000,0.0000,0.0000,0.0000,-0.1061,0.0709,0.0000,0.0000,0.0000,0.0000,0.0000,0.0000,-0.0000,-0.0333,0.0222,0.0117,0.0000,0.0000,-0.5744,0.0025,0.0025,0.0025,0.0025,4
117,233,870088447301,-10.5691,-0.1061,0.0709,0.0610,0.0910,0.0010,1.1647,23.4375,23.4375,23.4375,23.4375,12.2246,0.0000,0.0000,0.0000,-0.0000,-0.1554,-0.1990,-10.6455,0.0203,-0.0078,-0.0043,0.0000,0.0000,0.0000,0.0000,0.0000,0.0000,0.0000,0.0000,0.0000,0.0000,0.0000,0.0000,0.0000,0.0000,1.0000,0.0000,0.0000,0.0000,-0.1061,0.0709,0.0000,0.0000,0.0000,0.0000,0.0000,0.0000,-0.0000,-0.0336,0.0220,0.0117,0.0000,0.0000,-0.5744,0.0025,0.0025,0.0025,0.0025,4
118,234,870093663359,-10.5691,-0.1061,0.0709,0.0610,0.0910,0.0010,1.1647,23.4375,23.4375,23.4375,23.4375,12.2237,0.0000,-0.0610,-0.1221,-0.0610,-0.1243,-0.1894,-10.5548,0.0203,-0.0078,-0.0043,0.0000,0.0000,0.0000,0.0000,0.0000,0.0000,0.0000,0.0000,0.0000,0.0000,0.0000,0.0000,0.0000,0.0000,1.0000,0.0000,0.0000,0.0000,-0.1061,0.0709,0.0000,0.0000,0.0000,0.0000,0.0000,0.0000,-0.0000,-0.0339,0.0219,0.0118,0.0000,0.0000,-0.5744,0.0025,0.0025,0.0025,0.0025,4
119,235,870098554456,-10.5691,-0.1061,0.0709,0.0610,0.0910,0.0010,1.1647,23.4375,23.4375,23.4375,23.4375,12.2229,0.0000,-0.1831,-0.1221,-0.0000,-0.1626,-0.1654,-10.5835,0.0203,-0.0079,-0.0043,0.0000,0.0000,0.0000,0.0000,0.0000,0.0000,0.0000,0.0000,0.0000,0.0000,0.0000,0.0000,0.0000,0.0000,1.0000,0.0000,0.0000,0.0000,-0.1061,0.0709,0.0000,0.0000,0.0000,0.0000,0.0000,0.0000,-0.0000,-0.0340,0.0218,0.0118,0.0000,0.0000,-0.5744,0.0025,0.0025,0.0025,0.0025,4
120,236,870103810093,-10.5691,-0.1061,0.0709,0.0610,0.0910,0.0010,1.1647,23.4375,23.4375,23.4375,23.4375,12.2229,0.0000,-0.0610,-0.2441,0.1221,-0.1435,-0.2110,-10.6503,0.0203,-0.0079,-0.0043,0.0000,0.0000,0.0000,0.0000,0.0000,0.0000,0.0000,0.0000,0.0000,0.0000,0.0000,0.0000,0.0000,0.0000,1.0000,0.0000,0.0000,0.0000,-0.1061,0.0709,0.0000,0.0000,0.0000,0.0000,0.0000,0.0000,-0.0000,-0.0342,0.0218,0.0118,0.0000,0.0000,-0.5744,0.0025,0.0025,0.0025,0.0025,4
121,237,870108533584,-10.5691,-0.1061,0.0709,0.0610,0.0910,0.0010,1.1647,23.4375,23.4375,23.4375,23.4375,12.2229,0.0000,0.0000,-0.1221,-0.1221,-0.1626,-0.1846,-10.6050,0.0203,-0.0079,-0.0044,0.0000,0.0000,0.0000,0.0000,0.0000,0.0000,0.0000,0.0000,0.0000,0.0000,0.0000,0.0000,0.0000,0.0000,1.0000,0.0000,0.0000,0.0000,-0.1061,0.0709,0.0000,0.0000,0.0000,0.0000,0.0000,0.0000,-0.0000,-0.0343,0.0218,0.0119,0.0000,0.0000,-0.5744,0.0025,0.0025,0.0025,0.0025,4
122,238,870113495338,-10.5691,-0.1061,0.0709,0.0610,0.0910,0.0010,1.1647,23.4375,23.4375,23.4375,23.4375,12.2234,0.0000,-0.0610,-0.1831,-0.0000,-0.1387,-0.2230,-10.5668,0.0203,-0.0079,-0.0044,0.0000,0.0000,0.0000,0.0000,0.0000,0.0000,0.0000,0.0000,0.0000,0.0000,0.0000,0.0000,0.0000,0.0000,1.0000,0.0000,0.0000,0.0000,-0.1061,0.0709,0.0000,0.0000,0.0000,0.0000,0.0000,0.0000,-0.0000,-0.0344,0.0218,0.0120,0.0000,0.0000,-0.5744,0.0025,0.0025,0.0025,0.0025,4
123,239,870118830841,-10.5691,-0.1061,0.0709,0.0610,0.0910,0.0010,1.1647,23.4375,23.4375,23.4375,23.4375,12.2237,0.0000,-0.0610,-0.1831,0.1221,-0.1793,-0.1894,-10.5548,0.0203,-0.0079,-0.0044,0.0000,0.0000,0.0000,0.0000,0.0000,0.0000,0.0000,0.0000,0.0000,0.0000,0.0000,0.0000,0.0000,0.0000,1.0000,0.0000,0.0000,0.0000,-0.1061,0.0709,0.0000,0.0000,0.0000,0.0000,0.0000,0.0000,-0.0000,-0.0344,0.0218,0.0119,0.0000,0.0000,-0.5744,0.0025,0.0025,0.0025,0.0025,4
124,240,870123572497,-10.5691,-0.1061,0.0709,0.0310,0.1010,-0.0290,1.1647,23.4375,23.4375,23.4375,23.4375,12.2237,0.0000,-0.0610,-0.1221,0.1221,-0.1339,-0.2110,-10.5954,0.0203,-0.0079,-0.0044,0.0000,0.0000,0.0000,0.0000,0.0000,0.0000,0.0000,0.0000,0.0000,0.0000,0.0000,0.0000,0.0000,0.0000,1.0000,0.0000,0.0000,0.0000,-0.1061,0.0709,0.0000,0.0000,0.0000,0.0000,0.0000,0.0000,-0.0000,-0.0344,0.0218,0.0119,0.0000,0.0000,-0.5744,0.0025,0.0025,0.0025,0.0025,4
125,241,870128436429,-10.5691,-0.1061,0.0709,0.0310,0.1010,-0.0290,1.1647,23.4375,23.4375,23.4375,23.4375,12.2232,0.0000,-0.0610,-0.1831,-0.0000,-0.1195,-0.1438,-10.5930,0.0203,-0.0080,-0.0044,0.0000,0.0000,0.0000,0.0000,0.0000,0.0000,0.0000,0.0000,0.0000,0.0000,0.0000,0.0000,0.0000,0.0000,1.0000,0.0000,0.0000,0.0000,-0.1061,0.0709,0.0000,0.0000,0.0000,0.0000,0.0000,0.0000,-0.0000,-0.0344,0.0218,0.0119,0.0000,0.0000,-0.5744,0.0025,0.0025,0.0025,0.0025,4
126,242,870133511254,-10.5691,-0.1061,0.0709,0.0310,0.1010,-0.0290,1.1647,23.4375,23.4375,23.4375,23.4375,12.2237,0.0000,-0.0610,-0.1221,-0.0000,-0.1650,-0.2110,-10.6384,0.0203,-0.0080,-0.0044,0.0000,0.0000,0.0000,0.0000,0.0000,0.0000,0.0000,0.0000,0.0000,0.0000,0.0000,0.0000,0.0000,0.0000,1.0000,0.0000,0.0000,0.0000,-0.1061,0.0709,0.0000,0.0000,0.0000,0.0000,0.0000,0.0000,-0.0000,-0.0344,0.0217,0.0120,0.0000,0.0000,-0.5744,0.0025,0.0025,0.0025,0.0025,4
127,243,870158463636,-10.4760,-0.1759,0.0537,0.0310,0.1010,-0.0290,1.1647,23.4375,23.4375,23.4375,23.4375,12.2237,0.0000,0.0610,0.0000,-0.0000,-0.1267,-0.1798,-10.5835,0.0203,-0.0080,-0.0044,0.0000,0.0000,0.0000,0.0000,0.0000,0.0000,0.0000,0.0000,0.0000,0.0000,0.0000,0.0000,0.0000,0.0000,1.0000,0.0000,0.0000,0.0000,-0.1759,0.0537,0.0000,0.0000,0.0000,0.0000,0.0000,0.0000,-0.0000,-0.2520,-0.0810,0.0119,0.0000,0.0000,-0.5694,0.0025,0.0025,0.0025,0.0025,4
128,244,870162163372,-10.4760,-0.1759,0.0537,0.0310,0.1010,-0.0290,1.1647,23.4375,23.4375,23.4375,23.4375,12.2234,0.0000,-0.2441,-0.2441,-0.0000,-0.1148,-0.2086,-10.5930,0.0203,-0.0080,-0.0044,0.0000,0.0000,0.0000,0.0000,0.0000,0.0000,0.0000,0.0000,0.0000,0.0000,0.0000,0.0000,0.0000,0.0000,1.0000,0.0000,0.0000,0.0000,-0.1759,0.0537,0.0000,0.0000,0.0000,0.0000,0.0000,0.0000,-0.0000,-0.1895,-0.0500,0.0119,0.0000,0.0000,-0.5694,0.0025,0.0025,0.0025,0.0025,4
129,245,870163861924,-10.4760,-0.1759,0.0537,0.0310,0.1010,-0.0290,1.1647,23.4375,23.4375,23.4375,23.4375,12.2229,0.0000,-0.0610,-0.1831,-0.0000,-0.1674,-0.1822,-10.5859,0.0203,-0.0080,-0.0044,0.0000,0.0000,0.0000,0.0000,0.0000,0.0000,0.0000,0.0000,0.0000,0.0000,0.0000,0.0000,0.0000,0.0000,1.0000,0.0000,0.0000,0.0000,-0.1759,0.0537,0.0000,0.0000,0.0000,0.0000,0.0000,0.0000,-0.0000,-0.1468,-0.0288,0.0120,0.0000,0.0000,-0.5694,0.0025,0.0025,0.0025,0.0025,4
130,246,870199810232,-10.4760,-0.1759,0.0537,0.0310,0.1010,-0.0290,1.1647,23.4375,23.4375,23.4375,23.4375,12.2232,0.0000,0.0610,0.0000,0.1221,-0.1435,-0.2230,-10.6408,0.0203,-0.0081,-0.0044,0.0000,0.0000,0.0000,0.0000,0.0000,0.0000,0.0000,0.0000,0.0000,0.0000,0.0000,0.0000,0.0000,0.0000,1.0000,0.0000,0.0000,0.0000,-0.1759,0.0537,0.0000,0.0000,0.0000,0.0000,0.0000,0.0000,-0.0000,-0.1175,-0.0145,0.0119,0.0000,0.0000,-0.5694,0.0025,0.0025,0.0025,0.0025,4
