loop_index, counter, last_step_ns, T_ref, theta_ref, phi_ref, uwind, vwind, wwind, rho, rpm1, rpm2, rpm3, rpm4,v_batt,alt,gyro_roll,gyro_pitch,gyro_yaw,accel_X,accel_Y,accel_Z,roll,pitch,yaw,X,Y,Z,Xdot,Ydot,Zdot,x0,y0,z0,e.xbee_time,xbee_time_received_ns,xbee_x,xbee_y,xbee_z,xbee_qw,xbee_qx,xbee_qy,xbee_qz,sp_roll,sp_pitch,sp_yaw,sp_X,sp_Y,sp_Z,sp_Xdot,sp_Ydot,sp_Zdot,u_roll,u_pitch,u_yaw,u_X,u_Y,u_Z,mot_1,mot_2,mot_3,mot_4,thrust_mot1,thrust_mot2,thrust_mot3,thrust_mot4,flight_mode
0,-1,0,-10.5707,-0.0812,-0.0969,-0.8590,0.0910,0.4610,1.1726,123.2422,123.2422,123.2422,8025.5859,12.2300,0.0000,0.0000,0.0000,-0.0610,-0.0191,-0.2230,-10.6097,0.0087,-0.0033,-0.0022,0.0000,0.0000,0.0000,0.0000,0.0000,0.0000,0.0000,0.0000,0.0000,0.0000,0.0000,0.0000,0.0000,0.0000,1.0000,0.0000,0.0000,0.0000,0.0000,0.0000,0.0000,0.0000,0.0000,0.0000,0.0000,0.0000,0.0000,0.0000,0.0000,0.0000,0.0000,0.0000,0.0000,-0.1000,-0.1000,-0.1000,-0.1000,0.0000,0.0000,0.0000,0.0000,4
0,-1,0,-10.4132,-0.2126,-0.0317,-0.8690,0.7310,0.5210,1.1726,123.2422,123.2422,123.2422,123.2422,12.2316,0.0000,-0.0610,-0.1221,0.1221,-0.1004,-0.1390,-10.6050,0.0087,-0.0035,-0.0022,0.0000,0.0000,0.0000,0.0000,0.0000,0.0000,0.0000,0.0000,0.0000,0.0000,0.0000,0.0000,0.0000,0.0000,1.0000,0.0000,0.0000,0.0000,0.0000,0.0000,0.0000,0.0000,0.0000,0.0000,0.0000,0.0000,0.0000,0.0000,0.0000,0.0000,0.0000,0.0000,0.0000,-0.1000,-0.1000,-0.1000,-0.1000,0.0000,0.0000,0.0000,0.0000,4
0,-1,0,-10.4132,-0.2126,-0.0317,-0.8690,0.7310,0.5210,1.1726,123.2422,123.2422,123.2422,123.2422,12.2333,0.0000,-0.2441,-0.2441,-0.0000,-0.1387,-0.1486,-10.6408,0.0087,-0.0036,-0.0022,0.0000,0.0000,0.0000,0.0000,0.0000,0.0000,0.0000,0.0000,0.0000,0.0000,0.0000,0.0000,0.0000,0.0000,1.0000,0.0000,0.0000,0.0000,0.0000,0.0000,0.0000,0.0000,0.0000,0.0000,0.0000,0.0000,0.0000,0.0000,0.0000,0.0000,0.0000,0.0000,0.0000,-0.1000,-0.1000,-0.1000,-0.1000,0.0000,0.0000,0.0000,0.0000,4
0,-1,0,-10.4132,-0.2126,-0.0317,-0.8690,0.7310,0.5210,1.1726,123.2422,123.2422,123.2422,123.2422,12.2350,0.0000,-0.1831,-0.1831,0.1221,-0.1554,-0.1175,-10.5143,0.0087,-0.0036,-0.0022,0.0000,0.0000,0.0000,0.0000,0.0000,0.0000,0.0000,0.0000,0.0000,0.0000,0.0000,0.0000,0.0000,0.0000,1.0000,0.0000,0.0000,0.0000,0.0000,0.0000,0.0000,0.0000,0.0000,0.0000,0.0000,0.0000,0.0000,0.0000,0.0000,0.0000,0.0000,0.0000,0.0000,-0.1000,-0.1000,-0.1000,-0.1000,0.0000,0.0000,0.0000,0.0000,4
0,-1,0,-10.4132,-0.2126,-0.0317,-0.8690,0.7310,0.5210,1.1726,123.2422,123.2422,123.2422,123.2422,12.2365,0.0000,-0.0610,-0.3052,-0.0610,-0.2152,-0.0024,-10.6622,0.0087,-0.0036,-0.0022,0.0000,0.0000,0.0000,0.0000,0.0000,0.0000,0.0000,0.0000,0.0000,0.0000,0.0000,0.0000,0.0000,0.0000,1.0000,0.0000,0.0000,0.0000,0.0000,0.0000,0.0000,0.0000,0.0000,0.0000,0.0000,0.0000,0.0000,0.0000,0.0000,0.0000,0.0000,0.0000,0.0000,-0.1000,-0.1000,-0.1000,-0.1000,0.0000,0.0000,0.0000,0.0000,4
0,-1,0,-10.4132,-0.2126,-0.0317,-0.8690,0.7310,0.5210,1.1726,123.2422,123.2422,123.2422,123.2422,12.2382,0.0000,0.0000,0.0000,-0.0000,-0.0598,-0.2781,-10.5596,0.0087,-0.0036,-0.0022,0.0000,0.0000,0.0000,0.0000,0.0000,0.0000,0.0000,0.0000,0.0000,0.0000,0.0000,0.0000,0.0000,0.0000,1.0000,0.0000,0.0000,0.0000,0.0000,0.0000,0.0000,0.0000,0.0000,0.0000,0.0000,0.0000,0.0000,0.0000,0.0000,0.0000,0.0000,0.0000,0.0000,-0.1000,-0.1000,-0.1000,-0.1000,0.0000,0.0000,0.0000,0.0000,4
0,-1,0,-10.4132,-0.2126,-0.0317,-0.8690,0.7310,0.5210,1.1726,123.2422,123.2422,123.2422,123.2422,12.2399,0.0000,0.0000,0.1221,-0.2441,-0.2845,-0.0024,-10.6264,0.0087,-0.0036,-0.0022,0.0000,0.0000,0.0000,0.0000,0.0000,0.0000,0.0000,0.0000,0.0000,0.0000,0.0000,0.0000,0.0000,0.0000,1.0000,0.0000,0.0000,0.0000,0.0000,0.0000,0.0000,0.0000,0.0000,0.0000,0.0000,0.0000,0.0000,0.0000,0.0000,0.0000,0.0000,0.0000,0.0000,-0.1000,-0.1000,-0.1000,-0.1000,0.0000,0.0000,0.0000,0.0000,4
0,-1,0,-10.4132,-0.2126,-0.0317,-0.8690,0.7310,0.5210,1.1726,123.2422,123.2422,123.2422,123.2422,12.2420,0.0000,-0.0610,-0.2441,0.1221,-0.1219,-0.2661,-10.5047,0.0087,-0.0037,-0.0022,0.0000,0.0000,0.0000,0.0000,0.0000,0.0000,0.0000,0.0000,0.0000,0.0000,0.0000,0.0000,0.0000,0.0000,1.0000,0.0000,0.0000,0.0000,0.0000,0.0000,0.0000,0.0000,0.0000,0.0000,0.0000,0.0000,0.0000,0.0000,0.0000,0.0000,0.0000,0.0000,0.0000,-0.1000,-0.1000,-0.1000,-0.1000,0.0000,0.0000,0.0000,0.0000,4
0,-1,0,-10.4315,-0.1346,-0.1582,-0.8690,0.7310,0.5210,1.1726,123.2422,123.2422,123.2422,123.2422,12.2435,0.0000,0.0610,-0.0610,-0.1221,-0.2271,-0.0360,-10.6026,0.0088,-0.0037,-0.0022,0.0000,0.0000,0.0000,0.0000,0.0000,0.0000,0.0000,0.0000,0.0000,0.0000,0.0000,0.0000,0.0000,0.0000,1.0000,0.0000,0.0000,0.0000,0.0000,0.0000,0.0000,0.0000,0.0000,0.0000,0.0000,0.0000,0.0000,0.0000,0.0000,0.0000,0.0000,0.0000,0.0000,-0.1000,-0.1000,-0.1000,-0.1000,0.0000,0.0000,0.0000,0.0000,4
0,-1,0,-10.4315,-0.1346,-0.1582,-0.8690,0.8810,0.0110,1.1726,123.2422,123.2422,123.2422,123.2422,12.2449,0.0000,-0.2441,-0.1221,-0.0000,-0.0478,-0.1870,-10.5882,0.0088,-0.0037,-0.0022,0.0000,0.0000,0.0000,0.0000,0.0000,0.0000,0.0000,0.0000,0.0000,0.0000,0.0000,0.0000,0.0000,0.0000,1.0000,0.0000,0.0000,0.0000,0.0000,0.0000,0.0000,0.0000,0.0000,0.0000,0.0000,0.0000,0.0000,0.0000,0.0000,0.0000,0.0000,0.0000,0.0000,-0.1000,-0.1000,-0.1000,-0.1000,0.0000,0.0000,0.0000,0.0000,4
0,-1,0,-10.4315,-0.1346,-0.1582,-0.8690,0.8810,0.0110,1.1726,123.2422,123.2422,123.2422,123.2422,12.2462,0.0000,-0.0610,-0.1221,-0.1221,-0.2606,-0.0647,-10.5739,0.0088,-0.0037,-0.0023,0.0000,0.0000,0.0000,0.0000,0.0000,0.0000,0.0000,0.0000,0.0000,0.0000,0.0000,0.0000,0.0000,0.0000,1.0000,0.0000,0.0000,0.0000,0.0000,0.0000,0.0000,0.0000,0.0000,0.0000,0.0000,0.0000,0.0000,0.0000,0.0000,0.0000,0.0000,0.0000,0.0000,-0.1000,-0.1000,-0.1000,-0.1000,0.0000,0.0000,0.0000,0.0000,4
0,-1,0,-10.4315,-0.1346,-0.1582,-0.8690,0.8810,0.0110,1.1726,123.2422,123.2422,123.2422,123.2422,12.2474,0.0000,-0.2441,-0.1221,0.2441,-0.0837,-0.2277,-10.5978,0.0088,-0.0037,-0.0022,0.0000,0.0000,0.0000,0.0000,0.0000,0.0000,0.0000,0.0000,0.0000,0.0000,0.0000,0.0000,0.0000,0.0000,1.0000,0.0000,0.0000,0.0000,0.0000,0.0000,0.0000,0.0000,0.0000,0.0000,0.0000,0.0000,0.0000,0.0000,0.0000,0.0000,0.0000,0.0000,0.0000,-0.1000,-0.1000,-0.1000,-0.1000,0.0000,0.0000,0.0000,0.0000,4
0,-1,0,-10.4315,-0.1346,-0.1582,-0.8690,0.8810,0.0110,1.1726,123.2422,123.2422,123.2422,123.2422,12.2491,0.0000,-0.0610,-0.1221,-0.0000,-0.2104,-0.0288,-10.6169,0.0088,-0.0037,-0.0022,0.0000,0.0000,0.0000,0.0000,0.0000,0.0000,0.0000,0.0000,0.0000,0.0000,0.0000,0.0000,0.0000,0.0000,1.0000,0.0000,0.0000,0.0000,0.0000,0.0000,0.0000,0.0000,0.0000,0.0000,0.0000,0.0000,0.0000,0.0000,0.0000,0.0000,0.0000,0.0000,0.0000,-0.1000,-0.1000,-0.1000,-0.1000,0.0000,0.0000,0.0000,0.0000,4
0,-1,0,-10.4315,-0.1346,-0.1582,-0.8690,0.8810,0.0110,1.1726,8025.5859,123.2422,123.2422,123.2422,12.2507,0.0000,0.0000,-0.1221,0.1221,-0.1411,-0.2277,-10.6479,0.0088,-0.0038,-0.0022,0.0000,0.0000,0.0000,0.0000,0.0000,0.0000,0.0000,0.0000,0.0000,0.0000,0.0000,0.0000,0.0000,0.0000,1.0000,0.0000,0.0000,0.0000,0.0000,0.0000,0.0000,0.0000,0.0000,0.0000,0.0000,0.0000,0.0000,0.0000,0.0000,0.0000,0.0000,0.0000,0.0000,-0.1000,-0.1000,-0.1000,-0.1000,0.0000,0.0000,0.0000,0.0000,4
0,-1,0,-10.4315,-0.1346,-0.1582,-0.8690,0.8810,0.0110,1.1726,8025.5859,123.2422,123.2422,123.2422,12.2522,0.0000,-0.0610,-0.1831,-0.0000,-0.1865,-0.0120,-10.4832,0.0088,-0.0038,-0.0022,0.0000,0.0000,0.0000,0.0000,0.0000,0.0000,0.0000,0.0000,0.0000,0.0000,0.0000,0.0000,0.0000,0.0000,1.0000,0.0000,0.0000,0.0000,0.0000,0.0000,0.0000,0.0000,0.0000,0.0000,0.0000,0.0000,0.0000,0.0000,0.0000,0.0000,0.0000,0.0000,0.0000,-0.1000,-0.1000,-0.1000,-0.1000,0.0000,0.0000,0.0000,0.0000,4
0,-1,0,-10.3955,0.1743,-0.1372,-0.0390,-0.0490,-0.0590,1.1726,8025.5859,8025.5859,8025.5859,8025.5859,12.2534,0.0000,0.0000,0.0000,-0.1221,-0.1745,-0.1247,-10.5739,0.0088,-0.0038,-0.0023,0.0000,0.0000,0.0000,0.0000,0.0000,0.0000,0.0000,0.0000,0.0000,0.0000,0.0000,0.0000,0.0000,0.0000,1.0000,0.0000,0.0000,0.0000,0.0000,0.0000,0.0000,0.0000,0.0000,0.0000,0.0000,0.0000,0.0000,0.0000,0.0000,0.0000,0.0000,0.0000,0.0000,-0.1000,-0.1000,-0.1000,-0.1000,0.0000,0.0000,0.0000,0.0000,4
0,-1,0,-10.4033,0.1895,0.1086,-0.0390,-0.0190,-0.0590,1.1726,8025.5859,8025.5859,8025.5859,8025.5859,12.2549,0.0000,-0.0610,-0.1831,-0.0610,-0.1721,-0.1127,-10.5787,0.0091,-0.0054,-0.0026,0.0000,0.0000,0.0000,0.0000,0.0000,0.0000,0.0000,0.0000,0.0000,0.0000,0.0000,0.0000,0.0000,0.0000,1.0000,0.0000,0.0000,0.0000,0.0000,0.0000,0.0000,0.0000,0.0000,0.0000,0.0000,0.0000,0.0000,0.0000,0.0000,0.0000,0.0000,0.0000,0.0000,-0.1000,-0.1000,-0.1000,-0.1000,0.0000,0.0000,0.0000,0.0000,4
0,-1,0,-10.4033,0.1895,0.1086,-0.0390,-0.0190,-0.0590,1.1726,8025.5859,8025.5859,8025.5859,8025.5859,12.2563,0.0000,-0.2441,-0.2441,-0.0000,-0.1363,-0.0983,-10.5787,0.0091,-0.0054,-0.0026,0.0000,0.0000,0.0000,0.0000,0.0000,0.0000,0.0000,0.0000,0.0000,0.0000,0.0000,0.0000,0.0000,0.0000,1.0000,0.0000,0.0000,0.0000,0.0000,0.0000,0.0000,0.0000,0.0000,0.0000,0.0000,0.0000,0.0000,0.0000,0.0000,0.0000,0.0000,0.0000,0.0000,-0.1000,-0.1000,-0.1000,-0.1000,0.0000,0.0000,0.0000,0.0000,4
0,-1,0,-10.4033,0.1895,0.1086,-0.0390,-0.0190,-0.0590,1.1726,8025.5859,8025.5859,8025.5859,8025.5859,12.2580,0.0000,-0.0610,-0.1221,-0.0000,-0.1578,-0.1079,-10.6097,0.0091,-0.0054,-0.0026,0.0000,0.0000,0.0000,0.0000,0.0000,0.0000,0.0000,0.0000,0.0000,0.0000,0.0000,0.0000,0.0000,0.0000,1.0000,0.0000,0.0000,0.0000,0.0000,0.0000,0.0000,0.0000,0.0000,0.0000,0.0000,0.0000,0.0000,0.0000,0.0000,0.0000,0.0000,0.0000,0.0000,-0.1000,-0.1000,-0.1000,-0.1000,0.0000,0.0000,0.0000,0.0000,4
0,-1,0,-10.4033,0.1895,0.1086,-0.0390,-0.0190,-0.0590,1.1726,8025.5859,8025.5859,8025.5859,8025.5859,12.2597,0.0000,0.0000,-0.0610,-0.0000,-0.1482,-0.1031,-10.6145,0.0091,-0.0055,-0.0026,0.0000,0.0000,0.0000,0.0000,0.0000,0.0000,0.0000,0.0000,0.0000,0.0000,0.0000,0.0000,0.0000,0.0000,1.0000,0.0000,0.0000,0.0000,0.0000,0.0000,0.0000,0.0000,0.0000,0.0000,0.0000,0.0000,0.0000,0.0000,0.0000,0.0000,0.0000,0.0000,0.0000,-0.1000,-0.1000,-0.1000,-0.1000,0.0000,0.0000,0.0000,0.0000,4
0,-1,0,-10.3956,0.0982,-0.1987,-0.0690,-0.0790,-0.0390,1.1726,8025.5859,8025.5859,8025.5859,8025.5859,12.2592,0.0000,-0.0610,-0.1221,-0.0000,-0.1363,-0.1343,-10.5644,0.0091,-0.0055,-0.0026,0.0000,0.0000,0.0000,0.0000,0.0000,0.0000,0.0000,0.0000,0.0000,0.0000,0.0000,0.0000,0.0000,0.0000,1.0000,0.0000,0.0000,0.0000,0.0000,0.0000,0.0000,0.0000,0.0000,0.0000,0.0000,0.0000,0.0000,0.0000,0.0000,0.0000,0.0000,0.0000,0.0000,-0.1000,-0.1000,-0.1000,-0.1000,0.0000,0.0000,0.0000,0.0000,4
0,-1,0,-10.3956,0.0982,-0.1987,-0.0690,-0.0790,-0.0390,1.1726,8025.5859,8025.5859,8025.5859,8025.5859,12.2590,0.0000,-0.2441,-0.0610,0.1831,-0.1889,-0.1390,-10.5787,0.0091,-0.0055,-0.0026,0.0000,0.0000,0.0000,0.0000,0.0000,0.0000,0.0000,0.0000,0.0000,0.0000,0.0000,0.0000,0.0000,0.0000,1.0000,0.0000,0.0000,0.0000,0.0000,0.0000,0.0000,0.0000,0.0000,0.0000,0.0000,0.0000,0.0000,0.0000,0.0000,0.0000,0.0000,0.0000,0.0000,-0.1000,-0.1000,-0.1000,-0.1000,0.0000,0.0000,0.0000,0.0000,4
0,-1,0,-10.3956,0.0982,-0.1987,-0.0690,-0.0790,-0.0390,1.1726,8025.5859,8025.5859,8025.5859,8025.5859,12.2592,0.0000,-0.1221,-0.0610,-0.0000,-0.1435,-0.1366,-10.6217,0.0091,-0.0055,-0.0026,0.0000,0.0000,0.0000,0.0000,0.0000,0.0000,0.0000,0.0000,0.0000,0.0000,0.0000,0.0000,0.0000,0.0000,1.0000,0.0000,0.0000,0.0000,0.0000,0.0000,0.0000,0.0000,0.0000,0.0000,0.0000,0.0000,0.0000,0.0000,0.0000,0.0000,0.0000,0.0000,0.0000,-0.1000,-0.1000,-0.1000,-0.1000,0.0000,0.0000,0.0000,0.0000,4
0,-1,0,-10.3956,0.0982,-0.1987,-0.0690,-0.0790,-0.0390,1.1726,8025.5859,8025.5859,8025.5859,8025.5859,12.2587,0.0000,-0.1221,-0.0610,0.1221,-0.1721,-0.0767,-10.6097,0.0091,-0.0055,-0.0026,0.0000,0.0000,0.0000,0.0000,0.0000,0.0000,0.0000,0.0000,0.0000,0.0000,0.0000,0.0000,0.0000,0.0000,1.0000,0.0000,0.0000,0.0000,0.0000,0.0000,0.0000,0.0000,0.0000,0.0000,0.0000,0.0000,0.0000,0.0000,0.0000,0.0000,0.0000,0.0000,0.0000,-0.1000,-0.1000,-0.1000,-0.1000,0.0000,0.0000,0.0000,0.0000,4
0,-1,0,-10.3956,0.0982,-0.1987,-0.0690,-0.0790,-0.0390,1.1726,8025.5859,8025.5859,8025.5859,8025.5859,12.2582,0.0000,-0.0610,-0.1831,-0.0000,-0.1602,-0.0863,-10.6145,0.0091,-0.0055,-0.0026,0.0000,0.0000,0.0000,0.0000,0.0000,0.0000,0.0000,0.0000,0.0000,0.0000,0.0000,0.0000,0.0000,0.0000,1.0000,0.0000,0.0000,0.0000,0.0000,0.0000,0.0000,0.0000,0.0000,0.0000,0.0000,0.0000,0.0000,0.0000,0.0000,0.0000,0.0000,0.0000,0.0000,-0.1000,-0.1000,-0.1000,-0.1000,0.0000,0.0000,0.0000,0.0000,4
0,-1,0,-10.3956,0.0982,-0.1987,-0.0690,-0.0790,-0.0390,1.1726,8025.5859,8025.5859,8025.5859,8025.5859,12.2578,0.0000,0.0610,0.0000,0.1831,-0.1172,-0.1271,-10.6288,0.0091,-0.0055,-0.0026,0.0000,0.0000,0.0000,0.0000,0.0000,0.0000,0.0000,0.0000,0.0000,0.0000,0.0000,0.0000,0.0000,0.0000,1.0000,0.0000,0.0000,0.0000,0.0000,0.0000,0.0000,0.0000,0.0000,0.0000,0.0000,0.0000,0.0000,0.0000,0.0000,0.0000,0.0000,0.0000,0.0000,-0.1000,-0.1000,-0.1000,-0.1000,0.0000,0.0000,0.0000,0.0000,4
0,-1,0,-10.3956,0.0982,-0.1987,-0.0690,-0.0790,-0.0390,1.1726,8025.5859,8025.5859,8025.5859,8025.5859,12.2580,0.0000,0.0000,0.0000,-0.0000,-0.1482,-0.1007,-10.5978,0.0091,-0.0055,-0.0026,0.0000,0.0000,0.0000,0.0000,0.0000,0.0000,0.0000,0.0000,0.0000,0.0000,0.0000,0.0000,0.0000,0.0000,1.0000,0.0000,0.0000,0.0000,0.0000,0.0000,0.0000,0.0000,0.0000,0.0000,0.0000,0.0000,0.0000,0.0000,0.0000,0.0000,0.0000,0.0000,0.0000,-0.1000,-0.1000,-0.1000,-0.1000,0.0000,0.0000,0.0000,0.0000,4
0,-1,0,-10.3956,0.0982,-0.1987,-0.0690,-0.0790,-0.0390,1.1726,8025.5859,8025.5859,8025.5859,8025.5859,12.2575,0.0000,-0.0610,-0.1831,-0.0000,-0.1411,-0.1414,-10.5238,0.0091,-0.0055,-0.0026,0.0000,0.0000,0.0000,0.0000,0.0000,0.0000,0.0000,0.0000,0.0000,0.0000,0.0000,0.0000,0.0000,0.0000,1.0000,0.0000,0.0000,0.0000,0.0000,0.0000,0.0000,0.0000,0.0000,0.0000,0.0000,0.0000,0.0000,0.0000,0.0000,0.0000,0.0000,0.0000,0.0000,-0.1000,-0.1000,-0.1000,-0.1000,0.0000,0.0000,0.0000,0.0000,4
0,-1,0,-10.3956,0.0982,-0.1987,-0.0690,-0.0790,-0.0390,1.1726,8025.5859,8025.5859,8025.5859,8025.5859,12.2578,0.0000,0.0610,0.0000,-0.0610,-0.1841,-0.1199,-10.5763,0.0091,-0.0055,-0.0026,0.0000,0.0000,0.0000,0.0000,0.0000,0.0000,0.0000,0.0000,0.0000,0.0000,0.0000,0.0000,0.0000,0.0000,1.0000,0.0000,0.0000,0.0000,0.0000,0.0000,0.0000,0.0000,0.0000,0.0000,0.0000,0.0000,0.0000,0.0000,0.0000,0.0000,0.0000,0.0000,0.0000,-0.1000,-0.1000,-0.1000,-0.1000,0.0000,0.0000,0.0000,0.0000,4
0,-1,0,-10.3956,0.0982,-0.1987,-0.0690,-0.0790,-0.0390,1.1726,8025.5859,8025.5859,8025.5859,8025.5859,12.2575,0.0000,-0.0610,-0.1831,-0.0610,-0.1482,-0.1343,-10.6073,0.0091,-0.0056,-0.0026,0.0000,0.0000,0.0000,0.0000,0.0000,0.0000,0.0000,0.0000,0.0000,0.0000,0.0000,0.0000,0.0000,0.0000,1.0000,0.0000,0.0000,0.0000,0.0000,0.0000,0.0000,0.0000,0.0000,0.0000,0.0000,0.0000,0.0000,0.0000,0.0000,0.0000,0.0000,0.0000,0.0000,-0.1000,-0.1000,-0.1000,-0.1000,0.0000,0.0000,0.0000,0.0000,4
0,-1,0,-10.3956,0.0982,-0.1987,-0.0690,-0.0790,-0.0390,1.1726,8025.5859,8025.5859,8025.5859,8025.5859,12.2585,0.0000,0.0000,0.0000,-0.0000,-0.1482,-0.1414,-10.6026,0.0091,-0.0056,-0.0026,0.0000,0.0000,0.0000,0.0000,0.0000,0.0000,0.0000,0.0000,0.0000,0.0000,0.0000,0.0000,0.0000,0.0000,1.0000,0.0000,0.0000,0.0000,0.0000,0.0000,0.0000,0.0000,0.0000,0.0000,0.0000,0.0000,0.0000,0.0000,0.0000,0.0000,0.0000,0.0000,0.0000,-0.1000,-0.1000,-0.1000,-0.1000,0.0000,0.0000,0.0000,0.0000,4
0,-1,0,-10.4479,-0.0439,-0.1929,-0.0590,-0.0990,-0.0690,1.1726,8025.5859,8025.5859,8025.5859,8025.5859,12.2575,0.0000,0.0000,-0.0610,-0.0000,-0.1435,-0.1127,-10.6312,0.0092,-0.0056,-0.0026,0.0000,0.0000,0.0000,0.0000,0.0000,0.0000,0.0000,0.0000,0.0000,0.0000,0.0000,0.0000,0.0000,0.0000,1.0000,0.0000,0.0000,0.0000,0.0000,0.0000,0.0000,0.0000,0.0000,0.0000,0.0000,0.0000,0.0000,0.0000,0.0000,0.0000,0.0000,0.0000,0.0000,-0.1000,-0.1000,-0.1000,-0.1000,0.0000,0.0000,0.0000,0.0000,4
0,-1,0,-10.3964,0.2155,-0.0493,-0.0390,-0.0490,-0.0390,1.1726,8025.5859,8025.5859,8025.5859,8025.5859,12.2568,0.0000,-0.2441,-0.1831,0.1831,-0.1626,-0.1247,-10.5644,0.0094,-0.0066,-0.0028,0.0000,0.0000,0.0000,0.0000,0.0000,0.0000,0.0000,0.0000,0.0000,0.0000,0.0000,0.0000,0.0000,0.0000,1.0000,0.0000,0.0000,0.0000,0.0000,0.0000,0.0000,0.0000,0.0000,0.0000,0.0000,0.0000,0.0000,0.0000,0.0000,0.0000,0.0000,0.0000,0.0000,-0.1000,-0.1000,-0.1000,-0.1000,0.0000,0.0000,0.0000,0.0000,4
0,-1,0,-10.3964,0.2155,-0.0493,-0.0390,-0.0490,-0.0390,1.1726,8025.5859,8025.5859,8025.5859,8025.5859,12.2553,0.0000,0.0610,0.0000,-0.0000,-0.1219,-0.1031,-10.6073,0.0094,-0.0066,-0.0028,0.0000,0.0000,0.0000,0.0000,0.0000,0.0000,0.0000,0.0000,0.0000,0.0000,0.0000,0.0000,0.0000,0.0000,1.0000,0.0000,0.0000,0.0000,0.0000,0.0000,0.0000,0.0000,0.0000,0.0000,0.0000,0.0000,0.0000,0.0000,0.0000,0.0000,0.0000,0.0000,0.0000,-0.1000,-0.1000,-0.1000,-0.1000,0.0000,0.0000,0.0000,0.0000,4
0,-1,0,-10.3964,0.2155,-0.0493,-0.0390,-0.0490,-0.0390,1.1726,8025.5859,8025.5859,8025.5859,8025.5859,12.2544,0.0000,-0.1831,-0.1221,-0.0000,-0.1458,-0.1390,-10.5882,0.0094,-0.0066,-0.0028,0.0000,0.0000,0.0000,0.0000,0.0000,0.0000,0.0000,0.0000,0.0000,0.0000,0.0000,0.0000,0.0000,0.0000,1.0000,0.0000,0.0000,0.0000,0.0000,0.0000,0.0000,0.0000,0.0000,0.0000,0.0000,0.0000,0.0000,0.0000,0.0000,0.0000,0.0000,0.0000,0.0000,-0.1000,-0.1000,-0.1000,-0.1000,0.0000,0.0000,0.0000,0.0000,4
0,-1,0,-10.3964,0.2155,-0.0493,-0.0390,-0.0490,-0.0390,1.1726,8025.5859,8025.5859,8025.5859,8025.5859,12.2534,0.0000,-0.0610,-0.1831,-0.0000,-0.1339,-0.1223,-10.5882,0.0094,-0.0066,-0.0028,0.0000,0.0000,0.0000,0.0000,0.0000,0.0000,0.0000,0.0000,0.0000,0.0000,0.0000,0.0000,0.0000,0.0000,1.0000,0.0000,0.0000,0.0000,0.0000,0.0000,0.0000,0.0000,0.0000,0.0000,0.0000,0.0000,0.0000,0.0000,0.0000,0.0000,0.0000,0.0000,0.0000,-0.1000,-0.1000,-0.1000,-0.1000,0.0000,0.0000,0.0000,0.0000,4
0,-1,0,-10.3964,0.2155,-0.0493,-0.0390,-0.0490,-0.0390,1.1726,8025.5859,8025.5859,8025.5859,8025.5859,12.2522,0.0000,0.0610,0.0000,-0.0000,-0.2032,-0.1366,-10.5381,0.0094,-0.0066,-0.0028,0.0000,0.0000,0.0000,0.0000,0.0000,0.0000,0.0000,0.0000,0.0000,0.0000,0.0000,0.0000,0.0000,0.0000,1.0000,0.0000,0.0000,0.0000,0.0000,0.0000,0.0000,0.0000,0.0000,0.0000,0.0000,0.0000,0.0000,0.0000,0.0000,0.0000,0.0000,0.0000,0.0000,-0.1000,-0.1000,-0.1000,-0.1000,0.0000,0.0000,0.0000,0.0000,4
0,-1,0,-10.3964,0.2155,-0.0493,-0.0390,-0.0490,-0.0390,1.1726,8025.5859,8025.5859,8025.5859,8025.5859,12.2510,0.0000,-0.0610,-0.1221,-0.0000,-0.1841,-0.1151,-10.6240,0.0094,-0.0066,-0.0028,0.0000,0.0000,0.0000,0.0000,0.0000,0.0000,0.0000,0.0000,0.0000,0.0000,0.0000,0.0000,0.0000,0.0000,1.0000,0.0000,0.0000,0.0000,0.0000,0.0000,0.0000,0.0000,0.0000,0.0000,0.0000,0.0000,0.0000,0.0000,0.0000,0.0000,0.0000,0.0000,0.0000,-0.1000,-0.1000,-0.1000,-0.1000,0.0000,0.0000,0.0000,0.0000,4
0,-1,0,-10.3964,0.2155,-0.0493,-0.0390,-0.0490,-0.0390,1.1726,8025.5859,8025.5859,8025.5859,8025.5859,12.2495,0.0000,0.0610,0.0000,-0.0610,-0.1411,-0.1175,-10.5524,0.0094,-0.0066,-0.0028,0.0000,0.0000,0.0000,0.0000,0.0000,0.0000,0.0000,0.0000,0.0000,0.0000,0.0000,0.0000,0.0000,0.0000,1.0000,0.0000,0.0000,0.0000,0.0000,0.0000,0.0000,0.0000,0.0000,0.0000,0.0000,0.0000,0.0000,0.0000,0.0000,0.0000,0.0000,0.0000,0.0000,-0.1000,-0.1000,-0.1000,-0.1000,0.0000,0.0000,0.0000,0.0000,4
0,-1,0,-10.3964,0.2155,-0.0493,-0.0390,-0.0490,-0.0390,1.1726,8025.5859,8025.5859,8025.5859,8025.5859,12.2483,0.0000,-0.0610,-0.1831,-0.0000,-0.1387,-0.1654,-10.6097,0.0094,-0.0067,-0.0028,0.0000,0.0000,0.0000,0.0000,0.0000,0.0000,0.0000,0.0000,0.0000,0.0000,0.0000,0.0000,0.0000,0.0000,1.0000,0.0000,0.0000,0.0000,0.0000,0.0000,0.0000,0.0000,0.0000,0.0000,0.0000,0.0000,0.0000,0.0000,0.0000,0.0000,0.0000,0.0000,0.0000,-0.1000,-0.1000,-0.1000,-0.1000,0.0000,0.0000,0.0000,0.0000,4
0,-1,0,-10.3964,0.2155,-0.0493,-0.0390,-0.0490,-0.0390,1.1726,8025.5859,8025.5859,8025.5859,8025.5859,12.2474,0.0000,0.0000,0.0000,-0.0000,-0.1889,-0.1390,-10.6742,0.0095,-0.0067,-0.0028,0.0000,0.0000,0.0000,0.0000,0.0000,0.0000,0.0000,0.0000,0.0000,0.0000,0.0000,0.0000,0.0000,0.0000,1.0000,0.0000,0.0000,0.0000,0.0000,0.0000,0.0000,0.0000,0.0000,0.0000,0.0000,0.0000,0.0000,0.0000,0.0000,0.0000,0.0000,0.0000,0.0000,-0.1000,-0.1000,-0.1000,-0.1000,0.0000,0.0000,0.0000,0.0000,4
0,-1,0,-10.3964,0.2155,-0.0493,-0.0390,-0.0490,-0.0390,1.1726,8025.5859,8025.5859,8025.5859,8025.5859,12.2462,0.0000,-0.2441,-0.1221,-0.0000,-0.1458,-0.1390,-10.6217,0.0094,-0.0067,-0.0028,0.0000,0.0000,0.0000,0.0000,0.0000,0.0000,0.0000,0.0000,0.0000,0.0000,0.0000,0.0000,0.0000,0.0000,1.0000,0.0000,0.0000,0.0000,0.0000,0.0000,0.0000,0.0000,0.0000,0.0000,0.0000,0.0000,0.0000,0.0000,0.0000,0.0000,0.0000,0.0000,0.0000,-0.1000,-0.1000,-0.1000,-0.1000,0.0000,0.0000,0.0000,0.0000,4
0,-1,0,-10.3964,0.2155,-0.0493,-0.0390,-0.0490,-0.0390,1.1726,8025.5859,8025.5859,8025.5859,8025.5859,12.2447,0.0000,-0.1221,-0.0610,-0.0000,-0.1769,-0.1151,-10.6288,0.0094,-0.0067,-0.0028,0.0000,0.0000,0.0000,0.0000,0.0000,0.0000,0.0000,0.0000,0.0000,0.0000,0.0000,0.0000,0.0000,0.0000,1.0000,0.0000,0.0000,0.0000,0.0000,0.0000,0.0000,0.0000,0.0000,0.0000,0.0000,0.0000,0.0000,0.0000,0.0000,0.0000,0.0000,0.0000,0.0000,-0.1000,-0.1000,-0.1000,-0.1000,0.0000,0.0000,0.0000,0.0000,4
0,-1,0,-10.3964,0.2155,-0.0493,-0.0390,-0.0490,-0.0390,1.1726,8025.5859,8025.5859,8025.5859,8025.5859,12.2440,0.0000,-0.0610,-0.1831,-0.0610,-0.1267,-0.0671,-10.5811,0.0094,-0.0067,-0.0028,0.0000,0.0000,0.0000,0.0000,0.0000,0.0000,0.0000,0.0000,0.0000,0.0000,0.0000,0.0000,0.0000,0.0000,1.0000,0.0000,0.0000,0.0000,0.0000,0.0000,0.0000,0.0000,0.0000,0.0000,0.0000,0.0000,0.0000,0.0000,0.0000,0.0000,0.0000,0.0000,0.0000,-0.1000,-0.1000,-0.1000,-0.1000,0.0000,0.0000,0.0000,0.0000,4
0,-1,0,-10.3964,0.2155,-0.0493,-0.0390,-0.0490,-0.0390,1.1726,8025.5859,8025.5859,8025.5859,8025.5859,12.2433,0.0000,-0.0610,-0.1831,-0.0000,-0.1650,-0.0887,-10.5739,0.0094,-0.0067,-0.0028,0.0000,0.0000,0.0000,0.0000,0.0000,0.0000,0.0000,0.0000,0.0000,0.0000,0.0000,0.0000,0.0000,0.0000,1.0000,0.0000,0.0000,0.0000,0.0000,0.0000,0.0000,0.0000,0.0000,0.0000,0.0000,0.0000,0.0000,0.0000,0.0000,0.0000,0.0000,0.0000,0.0000,-0.1000,-0.1000,-0.1000,-0.1000,0.0000,0.0000,0.0000,0.0000,4
0,-1,0,-10.3964,0.2155,-0.0493,-0.0390,-0.0490,-0.0390,1.1726,8025.5859,8025.5859,8025.5859,8025.5859,12.2425,0.0000,-0.0610,-0.2441,-0.1221,-0.1698,-0.1103,-10.6073,0.0094,-0.0068,-0.0028,0.0000,0.0000,0.0000,0.0000,0.0000,0.0000,0.0000,0.0000,0.0000,0.0000,0.0000,0.0000,0.0000,0.0000,1.0000,0.0000,0.0000,0.0000,0.0000,0.0000,0.0000,0.0000,0.0000,0.0000,0.0000,0.0000,0.0000,0.0000,0.0000,0.0000,0.0000,0.0000,0.0000,-0.1000,-0.1000,-0.1000,-0.1000,0.0000,0.0000,0.0000,0.0000,4
0,-1,0,-10.4096,0.1695,-0.1334,-0.0390,-0.0790,-0.0790,1.1726,8025.5859,8025.5859,8025.5859,8025.5859,12.2411,0.0000,0.0000,-0.0610,-0.0000,-0.1817,-0.1247,-10.5787,0.0095,-0.0068,-0.0028,0.0000,0.0000,0.0000,0.0000,0.0000,0.0000,0.0000,0.0000,0.0000,0.0000,0.0000,0.0000,0.0000,0.0000,1.0000,0.0000,0.0000,0.0000,0.0000,0.0000,0.0000,0.0000,0.0000,0.0000,0.0000,0.0000,0.0000,0.0000,0.0000,0.0000,0.0000,0.0000,0.0000,-0.1000,-0.1000,-0.1000,-0.1000,0.0000,0.0000,0.0000,0.0000,4
0,-1,0,-10.4188,-0.2124,-0.0072,-0.0290,0.8510,0.4610,1.1726,123.2422,123.2422,123.2422,123.2422,12.2404,0.0000,-0.1831,-0.1831,-0.0000,-0.1554,-0.1007,-10.5477,0.0095,-0.0068,-0.0028,0.0000,0.0000,0.0000,0.0000,0.0000,0.0000,0.0000,0.0000,0.0000,0.0000,0.0000,0.0000,0.0000,0.0000,1.0000,0.0000,0.0000,0.0000,0.0000,0.0000,0.0000,0.0000,0.0000,0.0000,0.0000,0.0000,0.0000,0.0000,0.0000,0.0000,0.0000,0.0000,0.0000,-0.1000,-0.1000,-0.1000,-0.1000,0.0000,0.0000,0.0000,0.0000,4
0,-1,0,-10.4188,-0.2124,-0.0072,-0.0190,0.8410,0.4410,1.1726,123.2422,123.2422,123.2422,123.2422,12.2391,0.0000,0.0000,0.0000,-0.0000,-0.1793,-0.1007,-10.6336,0.0100,-0.0091,-0.0031,0.0000,0.0000,0.0000,0.0000,0.0000,0.0000,0.0000,0.0000,0.0000,0.0000,0.0000,0.0000,0.0000,0.0000,1.0000,0.0000,0.0000,0.0000,0.0000,0.0000,0.0000,0.0000,0.0000,0.0000,0.0000,0.0000,0.0000,0.0000,0.0000,0.0000,0.0000,0.0000,0.0000,-0.1000,-0.1000,-0.1000,-0.1000,0.0000,0.0000,0.0000,0.0000,4
0,-1,0,-10.4188,-0.2124,-0.0072,-0.0190,0.8410,0.4410,1.1726,123.2422,123.2422,123.2422,123.2422,12.2382,0.0000,0.0000,0.0000,-0.0000,-0.2080,-0.1319,-10.5763,0.0100,-0.0091,-0.0031,0.0000,0.0000,0.0000,0.0000,0.0000,0.0000,0.0000,0.0000,0.0000,0.0000,0.0000,0.0000,0.0000,0.0000,1.0000,0.0000,0.0000,0.0000,0.0000,0.0000,0.0000,0.0000,0.0000,0.0000,0.0000,0.0000,0.0000,0.0000,0.0000,0.0000,0.0000,0.0000,0.0000,-0.1000,-0.1000,-0.1000,-0.1000,0.0000,0.0000,0.0000,0.0000,4
0,-1,0,-10.4188,-0.2124,-0.0072,-0.0190,0.8410,0.4410,1.1726,123.2422,123.2422,123.2422,123.2422,12.2365,0.0000,-0.0610,-0.2441,-0.0000,-0.1650,-0.1390,-10.5381,0.0101,-0.0092,-0.0031,0.0000,0.0000,0.0000,0.0000,0.0000,0.0000,0.0000,0.0000,0.0000,0.0000,0.0000,0.0000,0.0000,0.0000,1.0000,0.0000,0.0000,0.0000,0.0000,0.0000,0.0000,0.0000,0.0000,0.0000,0.0000,0.0000,0.0000,0.0000,0.0000,0.0000,0.0000,0.0000,0.0000,-0.1000,-0.1000,-0.1000,-0.1000,0.0000,0.0000,0.0000,0.0000,4
0,-1,0,-10.4188,-0.2124,-0.0072,-0.0190,0.8410,0.4410,1.1726,123.2422,123.2422,123.2422,123.2422,12.2365,0.0000,0.0000,-0.1831,-0.1221,-0.1076,-0.1079,-10.6264,0.0101,-0.0092,-0.0032,0.0000,0.0000,0.0000,0.0000,0.0000,0.0000,0.0000,0.0000,0.0000,0.0000,0.0000,0.0000,0.0000,0.0000,1.0000,0.0000,0.0000,0.0000,0.0000,0.0000,0.0000,0.0000,0.0000,0.0000,0.0000,0.0000,0.0000,0.0000,0.0000,0.0000,0.0000,0.0000,0.0000,-0.1000,-0.1000,-0.1000,-0.1000,0.0000,0.0000,0.0000,0.0000,4
0,-1,0,-10.4188,-0.2124,-0.0072,-0.0190,0.8410,0.4410,1.1726,123.2422,123.2422,123.2422,123.2422,12.2358,0.0000,-0.0610,-0.1221,-0.0000,-0.1745,-0.0839,-10.6169,0.0101,-0.0092,-0.0032,0.0000,0.0000,0.0000,0.0000,0.0000,0.0000,0.0000,0.0000,0.0000,0.0000,0.0000,0.0000,0.0000,0.0000,1.0000,0.0000,0.0000,0.0000,0.0000,0.0000,0.0000,0.0000,0.0000,0.0000,0.0000,0.0000,0.0000,0.0000,0.0000,0.0000,0.0000,0.0000,0.0000,-0.1000,-0.1000,-0.1000,-0.1000,0.0000,0.0000,0.0000,0.0000,4
0,-1,0,-10.4188,-0.2124,-0.0072,-0.0190,0.8410,0.4410,1.1726,123.2422,123.2422,123.2422,123.2422,12.2358,0.0000,-0.0610,-0.1221,0.1221,-0.1315,-0.1175,-10.6240,0.0101,-0.0092,-0.0032,0.0000,0.0000,0.0000,0.0000,0.0000,0.0000,0.0000,0.0000,0.0000,0.0000,0.0000,0.0000,0.0000,0.0000,1.0000,0.0000,0.0000,0.0000,0.0000,0.0000,0.0000,0.0000,0.0000,0.0000,0.0000,0.0000,0.0000,0.0000,0.0000,0.0000,0.0000,0.0000,0.0000,-0.1000,-0.1000,-0.1000,-0.1000,0.0000,0.0000,0.0000,0.0000,4
0,-1,0,-10.4188,-0.2124,-0.0072,-0.0190,0.8410,0.4410,1.1726,123.2422,123.2422,123.2422,123.2422,12.2358,0.0000,-0.0610,-0.1831,-0.0610,-0.1578,-0.1223,-10.6240,0.0101,-0.0092,-0.0032,0.0000,0.0000,0.0000,0.0000,0.0000,0.0000,0.0000,0.0000,0.0000,0.0000,0.0000,0.0000,0.0000,0.0000,1.0000,0.0000,0.0000,0.0000,0.0000,0.0000,0.0000,0.0000,0.0000,0.0000,0.0000,0.0000,0.0000,0.0000,0.0000,0.0000,0.0000,0.0000,0.0000,-0.1000,-0.1000,-0.1000,-0.1000,0.0000,0.0000,0.0000,0.0000,4
0,-1,0,-10.4188,-0.2124,-0.0072,-0.0190,0.8410,0.4410,1.1726,123.2422,123.2422,123.2422,123.2422,12.2360,0.0000,-0.0610,-0.1221,-0.0000,-0.1387,-0.1199,-10.5906,0.0101,-0.0092,-0.0032,0.0000,0.0000,0.0000,0.0000,0.0000,0.0000,0.0000,0.0000,0.0000,0.0000,0.0000,0.0000,0.0000,0.0000,1.0000,0.0000,0.0000,0.0000,0.0000,0.0000,0.0000,0.0000,0.0000,0.0000,0.0000,0.0000,0.0000,0.0000,0.0000,0.0000,0.0000,0.0000,0.0000,-0.1000,-0.1000,-0.1000,-0.1000,0.0000,0.0000,0.0000,0.0000,4
0,-1,0,-10.4188,-0.2124,-0.0072,-0.0190,0.8410,0.4410,1.1726,123.2422,123.2422,123.2422,123.2422,12.2360,0.0000,0.0000,0.0000,-0.0000,-0.1602,-0.1079,-10.5906,0.0101,-0.0092,-0.0032,0.0000,0.0000,0.0000,0.0000,0.0000,0.0000,0.0000,0.0000,0.0000,0.0000,0.0000,0.0000,0.0000,0.0000,1.0000,0.0000,0.0000,0.0000,0.0000,0.0000,0.0000,0.0000,0.0000,0.0000,0.0000,0.0000,0.0000,0.0000,0.0000,0.0000,0.0000,0.0000,0.0000,-0.1000,-0.1000,-0.1000,-0.1000,0.0000,0.0000,0.0000,0.0000,4
0,-1,0,-10.4188,-0.2124,-0.0072,-0.0190,0.8410,0.4410,1.1726,123.2422,123.2422,123.2422,123.2422,12.2362,0.0000,0.0610,0.0000,0.1221,-0.1339,-0.1390,-10.5811,0.0101,-0.0092,-0.0032,0.0000,0.0000,0.0000,0.0000,0.0000,0.0000,0.0000,0.0000,0.0000,0.0000,0.0000,0.0000,0.0000,0.0000,1.0000,0.0000,0.0000,0.0000,0.0000,0.0000,0.0000,0.0000,0.0000,0.0000,0.0000,0.0000,0.0000,0.0000,0.0000,0.0000,0.0000,0.0000,0.0000,-0.1000,-0.1000,-0.1000,-0.1000,0.0000,0.0000,0.0000,0.0000,4
0,-1,0,-10.4188,-0.2124,-0.0072,-0.0190,0.8410,0.4410,1.1726,123.2422,123.2422,123.2422,123.2422,12.2360,0.0000,-0.0610,-0.1221,-0.0000,-0.1291,-0.1151,-10.5739,0.0101,-0.0093,-0.0032,0.0000,0.0000,0.0000,0.0000,0.0000,0.0000,0.0000,0.0000,0.0000,0.0000,0.0000,0.0000,0.0000,0.0000,1.0000,0.0000,0.0000,0.0000,0.0000,0.0000,0.0000,0.0000,0.0000,0.0000,0.0000,0.0000,0.0000,0.0000,0.0000,0.0000,0.0000,0.0000,0.0000,-0.1000,-0.1000,-0.1000,-0.1000,0.0000,0.0000,0.0000,0.0000,4
0,-1,0,-10.4188,-0.2124,-0.0072,-0.0190,0.8410,0.4410,1.1726,123.2422,123.2422,123.2422,123.2422,12.2355,0.0000,-0.1831,-0.2441,-0.0610,-0.1889,-0.1726,-10.6264,0.0101,-0.0093,-0.0032,0.0000,0.0000,0.0000,0.0000,0.0000,0.0000,0.0000,0.0000,0.0000,0.0000,0.0000,0.0000,0.0000,0.0000,1.0000,0.0000,0.0000,0.0000,0.0000,0.0000,0.0000,0.0000,0.0000,0.0000,0.0000,0.0000,0.0000,0.0000,0.0000,0.0000,0.0000,0.0000,0.0000,-0.1000,-0.1000,-0.1000,-0.1000,0.0000,0.0000,0.0000,0.0000,4
0,-1,0,-10.4188,-0.2124,-0.0072,-0.0190,0.8410,0.4410,1.1726,123.2422,123.2422,123.2422,123.2422,12.2355,0.0000,-0.0610,-0.2441,0.2441,-0.1387,-0.1247,-10.5906,0.0101,-0.0093,-0.0032,0.0000,0.0000,0.0000,0.0000,0.0000,0.0000,0.0000,0.0000,0.0000,0.0000,0.0000,0.0000,0.0000,0.0000,1.0000,0.0000,0.0000,0.0000,0.0000,0.0000,0.0000,0.0000,0.0000,0.0000,0.0000,0.0000,0.0000,0.0000,0.0000,0.0000,0.0000,0.0000,0.0000,-0.1000,-0.1000,-0.1000,-0.1000,0.0000,0.0000,0.0000,0.0000,4
0,-1,0,-10.4188,-0.2124,-0.0072,-0.0190,0.8410,0.4410,1.1726,123.2422,123.2422,123.2422,123.2422,12.2358,0.0000,-0.0610,-0.1221,-0.0610,-0.1315,-0.1199,-10.5596,0.0101,-0.0093,-0.0032,0.0000,0.0000,0.0000,0.0000,0.0000,0.0000,0.0000,0.0000,0.0000,0.0000,0.0000,0.0000,0.0000,0.0000,1.0000,0.0000,0.0000,0.0000,0.0000,0.0000,0.0000,0.0000,0.0000,0.0000,0.0000,0.0000,0.0000,0.0000,0.0000,0.0000,0.0000,0.0000,0.0000,-0.1000,-0.1000,-0.1000,-0.1000,0.0000,0.0000,0.0000,0.0000,4
0,-1,0,-10.4211,-0.2114,-0.0047,-0.0190,0.8410,0.4410,1.1726,123.2422,123.2422,123.2422,123.2422,12.2358,0.0000,-0.1831,-0.1831,-0.0610,-0.1865,-0.1295,-10.5787,0.0101,-0.0093,-0.0032,0.0000,0.0000,0.0000,0.0000,0.0000,0.0000,0.0000,0.0000,0.0000,0.0000,0.0000,0.0000,0.0000,0.0000,1.0000,0.0000,0.0000,0.0000,0.0000,0.0000,0.0000,0.0000,0.0000,0.0000,0.0000,0.0000,0.0000,0.0000,0.0000,0.0000,0.0000,0.0000,0.0000,-0.1000,-0.1000,-0.1000,-0.1000,0.0000,0.0000,0.0000,0.0000,4
0,-1,0,-10.4097,-0.2161,-0.0152,-0.0190,0.7610,0.4610,1.1726,123.2422,123.2422,123.2422,123.2422,12.2355,0.0000,-0.0610,-0.1831,-0.0610,-0.1411,-0.1390,-10.5620,0.0101,-0.0093,-0.0032,0.0000,0.0000,0.0000,0.0000,0.0000,0.0000,0.0000,0.0000,0.0000,0.0000,0.0000,0.0000,0.0000,0.0000,1.0000,0.0000,0.0000,0.0000,0.0000,0.0000,0.0000,0.0000,0.0000,0.0000,0.0000,0.0000,0.0000,0.0000,0.0000,0.0000,0.0000,0.0000,0.0000,-0.1000,-0.1000,-0.1000,-0.1000,0.0000,0.0000,0.0000,0.0000,4
0,-1,0,-10.5629,-0.1203,-0.0547,-0.0490,0.6810,0.4110,1.1726,123.2422,123.2422,123.2422,123.2422,12.2367,0.0000,-0.0610,-0.1831,-0.0000,-0.1889,-0.1271,-10.6002,0.0107,-0.0113,-0.0038,0.0000,0.0000,0.0000,0.0000,0.0000,0.0000,0.0000,0.0000,0.0000,0.0000,0.0000,0.0000,0.0000,0.0000,1.0000,0.0000,0.0000,0.0000,0.0000,0.0000,0.0000,0.0000,0.0000,0.0000,0.0000,0.0000,0.0000,0.0000,0.0000,0.0000,0.0000,0.0000,0.0000,-0.1000,-0.1000,-0.1000,-0.1000,0.0000,0.0000,0.0000,0.0000,4
0,-1,0,-10.5629,-0.1203,-0.0547,-0.0490,0.6810,0.4110,1.1726,123.2422,123.2422,123.2422,123.2422,12.2375,0.0000,0.0610,-0.1831,-0.0610,-0.1435,-0.0647,-10.5763,0.0107,-0.0114,-0.0038,0.0000,0.0000,0.0000,0.0000,0.0000,0.0000,0.0000,0.0000,0.0000,0.0000,0.0000,0.0000,0.0000,0.0000,1.0000,0.0000,0.0000,0.0000,0.0000,0.0000,0.0000,0.0000,0.0000,0.0000,0.0000,0.0000,0.0000,0.0000,0.0000,0.0000,0.0000,0.0000,0.0000,-0.1000,-0.1000,-0.1000,-0.1000,0.0000,0.0000,0.0000,0.0000,4
0,-1,0,-10.5629,-0.1203,-0.0547,-0.0490,0.6810,0.4110,1.1726,123.2422,123.2422,123.2422,123.2422,12.2384,0.0000,-0.0610,-0.1831,0.1221,-0.1458,-0.1247,-10.6264,0.0107,-0.0114,-0.0038,0.0000,0.0000,0.0000,0.0000,0.0000,0.0000,0.0000,0.0000,0.0000,0.0000,0.0000,0.0000,0.0000,0.0000,1.0000,0.0000,0.0000,0.0000,0.0000,0.0000,0.0000,0.0000,0.0000,0.0000,0.0000,0.0000,0.0000,0.0000,0.0000,0.0000,0.0000,0.0000,0.0000,-0.1000,-0.1000,-0.1000,-0.1000,0.0000,0.0000,0.0000,0.0000,4
0,-1,0,-10.5629,-0.1203,-0.0547,-0.0490,0.6810,0.4110,1.1726,123.2422,123.2422,123.2422,123.2422,12.2375,0.0000,-0.0610,-0.1831,-0.0000,-0.1745,-0.1414,-10.6145,0.0107,-0.0114,-0.0038,0.0000,0.0000,0.0000,0.0000,0.0000,0.0000,0.0000,0.0000,0.0000,0.0000,0.0000,0.0000,0.0000,0.0000,1.0000,0.0000,0.0000,0.0000,0.0000,0.0000,0.0000,0.0000,0.0000,0.0000,0.0000,0.0000,0.0000,0.0000,0.0000,0.0000,0.0000,0.0000,0.0000,-0.1000,-0.1000,-0.1000,-0.1000,0.0000,0.0000,0.0000,0.0000,4
0,-1,0,-10.5629,-0.1203,-0.0547,-0.0490,0.6810,0.4110,1.1726,123.2422,123.2422,123.2422,123.2422,12.2382,0.0000,-0.0610,-0.1221,-0.0000,-0.1721,-0.1055,-10.5763,0.0107,-0.0114,-0.0038,0.0000,0.0000,0.0000,0.0000,0.0000,0.0000,0.0000,0.0000,0.0000,0.0000,0.0000,0.0000,0.0000,0.0000,1.0000,0.0000,0.0000,0.0000,0.0000,0.0000,0.0000,0.0000,0.0000,0.0000,0.0000,0.0000,0.0000,0.0000,0.0000,0.0000,0.0000,0.0000,0.0000,-0.1000,-0.1000,-0.1000,-0.1000,0.0000,0.0000,0.0000,0.0000,4
0,-1,0,-10.5629,-0.1203,-0.0547,-0.0490,0.6810,0.4110,1.1726,123.2422,123.2422,123.2422,123.2422,12.2394,0.0000,-0.0610,-0.1221,-0.0610,-0.1411,-0.1319,-10.5715,0.0107,-0.0114,-0.0038,0.0000,0.0000,0.0000,0.0000,0.0000,0.0000,0.0000,0.0000,0.0000,0.0000,0.0000,0.0000,0.0000,0.0000,1.0000,0.0000,0.0000,0.0000,0.0000,0.0000,0.0000,0.0000,0.0000,0.0000,0.0000,0.0000,0.0000,0.0000,0.0000,0.0000,0.0000,0.0000,0.0000,-0.1000,-0.1000,-0.1000,-0.1000,0.0000,0.0000,0.0000,0.0000,4
0,-1,0,-10.5629,-0.1203,-0.0547,-0.0490,0.6810,0.4110,1.1726,123.2422,123.2422,123.2422,123.2422,12.2401,0.0000,0.0000,0.0000,0.1831,-0.1865,-0.0887,-10.5787,0.0107,-0.0114,-0.0038,0.0000,0.0000,0.0000,0.0000,0.0000,0.0000,0.0000,0.0000,0.0000,0.0000,0.0000,0.0000,0.0000,0.0000,1.0000,0.0000,0.0000,0.0000,0.0000,0.0000,0.0000,0.0000,0.0000,0.0000,0.0000,0.0000,0.0000,0.0000,0.0000,0.0000,0.0000,0.0000,0.0000,-0.1000,-0.1000,-0.1000,-0.1000,0.0000,0.0000,0.0000,0.0000,4
0,-1,0,-10.4118,-0.2147,-0.0153,-0.0390,0.7010,0.4210,1.1726,123.2422,123.2422,123.2422,123.2422,12.2411,0.0000,0.0000,-0.0610,0.1221,-0.1721,-0.1103,-10.5548,0.0107,-0.0114,-0.0038,0.0000,0.0000,0.0000,0.0000,0.0000,0.0000,0.0000,0.0000,0.0000,0.0000,0.0000,0.0000,0.0000,0.0000,1.0000,0.0000,0.0000,0.0000,0.0000,0.0000,0.0000,0.0000,0.0000,0.0000,0.0000,0.0000,0.0000,0.0000,0.0000,0.0000,0.0000,0.0000,0.0000,-0.1000,-0.1000,-0.1000,-0.1000,0.0000,0.0000,0.0000,0.0000,4
0,-1,0,-10.4118,-0.2147,-0.0153,-0.0390,0.7010,0.4210,1.1726,123.2422,123.2422,123.2422,123.2422,12.2420,0.0000,-0.0610,-0.1831,0.1221,-0.1243,-0.1223,-10.5954,0.0107,-0.0114,-0.0038,0.0000,0.0000,0.0000,0.0000,0.0000,0.0000,0.0000,0.0000,0.0000,0.0000,0.0000,0.0000,0.0000,0.0000,1.0000,0.0000,0.0000,0.0000,0.0000,0.0000,0.0000,0.0000,0.0000,0.0000,0.0000,0.0000,0.0000,0.0000,0.0000,0.0000,0.0000,0.0000,0.0000,-0.1000,-0.1000,-0.1000,-0.1000,0.0000,0.0000,0.0000,0.0000,4
0,-1,0,-10.4118,-0.2147,-0.0153,-0.0390,0.7010,0.4210,1.1726,123.2422,123.2422,123.2422,123.2422,12.2428,0.0000,-0.0610,-0.3052,-0.0000,-0.1578,-0.1534,-10.5572,0.0107,-0.0115,-0.0038,0.0000,0.0000,0.0000,0.0000,0.0000,0.0000,0.0000,0.0000,0.0000,0.0000,0.0000,0.0000,0.0000,0.0000,1.0000,0.0000,0.0000,0.0000,0.0000,0.0000,0.0000,0.0000,0.0000,0.0000,0.0000,0.0000,0.0000,0.0000,0.0000,0.0000,0.0000,0.0000,0.0000,-0.1000,-0.1000,-0.1000,-0.1000,0.0000,0.0000,0.0000,0.0000,4
0,-1,0,-10.5401,-0.0905,-0.1165,-0.0790,0.0810,-0.0190,1.1726,8025.5859,8025.5859,8025.5859,8025.5859,12.2435,0.0000,-0.0610,-0.2441,-0.0000,-0.1602,-0.1366,-10.6312,0.0107,-0.0115,-0.0038,0.0000,0.0000,0.0000,0.0000,0.0000,0.0000,0.0000,0.0000,0.0000,0.0000,0.0000,0.0000,0.0000,0.0000,1.0000,0.0000,0.0000,0.0000,0.0000,0.0000,0.0000,0.0000,0.0000,0.0000,0.0000,0.0000,0.0000,0.0000,0.0000,0.0000,0.0000,0.0000,0.0000,-0.1000,-0.1000,-0.1000,-0.1000,0.0000,0.0000,0.0000,0.0000,4
0,-1,0,-10.5196,-0.0878,-0.1339,-0.1290,0.0410,-0.0190,1.1726,8025.5859,8025.5859,8025.5859,8025.5859,12.2435,0.0000,0.0000,0.0000,-0.0000,-0.1458,-0.1175,-10.5787,0.0111,-0.0133,-0.0043,0.0000,0.0000,0.0000,0.0000,0.0000,0.0000,0.0000,0.0000,0.0000,0.0000,0.0000,0.0000,0.0000,0.0000,1.0000,0.0000,0.0000,0.0000,0.0000,0.0000,0.0000,0.0000,0.0000,0.0000,0.0000,0.0000,0.0000,0.0000,0.0000,0.0000,0.0000,0.0000,0.0000,-0.1000,-0.1000,-0.1000,-0.1000,0.0000,0.0000,0.0000,0.0000,4
0,-1,0,-10.5196,-0.0878,-0.1339,-0.1290,0.0410,-0.0190,1.1726,8025.5859,8025.5859,8025.5859,8025.5859,12.2433,0.0000,-0.0610,-0.1831,-0.1831,-0.1721,-0.1558,-10.5668,0.0111,-0.0133,-0.0043,0.0000,0.0000,0.0000,0.0000,0.0000,0.0000,0.0000,0.0000,0.0000,0.0000,0.0000,0.0000,0.0000,0.0000,1.0000,0.0000,0.0000,0.0000,0.0000,0.0000,0.0000,0.0000,0.0000,0.0000,0.0000,0.0000,0.0000,0.0000,0.0000,0.0000,0.0000,0.0000,0.0000,-0.1000,-0.1000,-0.1000,-0.1000,0.0000,0.0000,0.0000,0.0000,4
0,-1,0,-10.5196,-0.0878,-0.1339,-0.1290,0.0410,-0.0190,1.1726,8025.5859,8025.5859,8025.5859,8025.5859,12.2430,0.0000,-0.1831,-0.1831,-0.0000,-0.2128,-0.0959,-10.5381,0.0111,-0.0133,-0.0043,0.0000,0.0000,0.0000,0.0000,0.0000,0.0000,0.0000,0.0000,0.0000,0.0000,0.0000,0.0000,0.0000,0.0000,1.0000,0.0000,0.0000,0.0000,0.0000,0.0000,0.0000,0.0000,0.0000,0.0000,0.0000,0.0000,0.0000,0.0000,0.0000,0.0000,0.0000,0.0000,0.0000,-0.1000,-0.1000,-0.1000,-0.1000,0.0000,0.0000,0.0000,0.0000,4
0,-1,0,-10.5196,-0.0878,-0.1339,-0.1290,0.0410,-0.0190,1.1726,8025.5859,8025.5859,8025.5859,8025.5859,12.2430,0.0000,0.0000,0.0000,-0.0610,-0.1554,-0.1175,-10.6073,0.0111,-0.0133,-0.0044,0.0000,0.0000,0.0000,0.0000,0.0000,0.0000,0.0000,0.0000,0.0000,0.0000,0.0000,0.0000,0.0000,0.0000,1.0000,0.0000,0.0000,0.0000,0.0000,0.0000,0.0000,0.0000,0.0000,0.0000,0.0000,0.0000,0.0000,0.0000,0.0000,0.0000,0.0000,0.0000,0.0000,-0.1000,-0.1000,-0.1000,-0.1000,0.0000,0.0000,0.0000,0.0000,4
0,-1,0,-10.5196,-0.0878,-0.1339,-0.1290,0.0410,-0.0190,1.1726,8025.5859,8025.5859,8025.5859,8025.5859,12.2437,0.0000,-0.0610,-0.1221,-0.1221,-0.1913,-0.1151,-10.6026,0.0111,-0.0133,-0.0044,0.0000,0.0000,0.0000,0.0000,0.0000,0.0000,0.0000,0.0000,0.0000,0.0000,0.0000,0.0000,0.0000,0.0000,1.0000,0.0000,0.0000,0.0000,0.0000,0.0000,0.0000,0.0000,0.0000,0.0000,0.0000,0.0000,0.0000,0.0000,0.0000,0.0000,0.0000,0.0000,0.0000,-0.1000,-0.1000,-0.1000,-0.1000,0.0000,0.0000,0.0000,0.0000,4
0,-1,0,-10.5196,-0.0878,-0.1339,-0.1290,0.0410,-0.0190,1.1726,8025.5859,8025.5859,8025.5859,8025.5859,12.2442,0.0000,-0.1221,-0.0610,0.1221,-0.1698,-0.1103,-10.5739,0.0111,-0.0133,-0.0044,0.0000,0.0000,0.0000,0.0000,0.0000,0.0000,0.0000,0.0000,0.0000,0.0000,0.0000,0.0000,0.0000,0.0000,1.0000,0.0000,0.0000,0.0000,0.0000,0.0000,0.0000,0.0000,0.0000,0.0000,0.0000,0.0000,0.0000,0.0000,0.0000,0.0000,0.0000,0.0000,0.0000,-0.1000,-0.1000,-0.1000,-0.1000,0.0000,0.0000,0.0000,0.0000,4
0,-1,0,-10.5196,-0.0878,-0.1339,-0.1290,0.0410,-0.0190,1.1726,8025.5859,8025.5859,8025.5859,8025.5859,12.2442,0.0000,-0.2441,-0.1831,-0.0000,-0.1387,-0.1007,-10.6050,0.0111,-0.0133,-0.0044,0.0000,0.0000,0.0000,0.0000,0.0000,0.0000,0.0000,0.0000,0.0000,0.0000,0.0000,0.0000,0.0000,0.0000,1.0000,0.0000,0.0000,0.0000,0.0000,0.0000,0.0000,0.0000,0.0000,0.0000,0.0000,0.0000,0.0000,0.0000,0.0000,0.0000,0.0000,0.0000,0.0000,-0.1000,-0.1000,-0.1000,-0.1000,0.0000,0.0000,0.0000,0.0000,4
0,-1,0,-10.5196,-0.0878,-0.1339,-0.1290,0.0410,-0.0190,1.1726,8025.5859,8025.5859,8025.5859,8025.5859,12.2437,0.0000,-0.0610,-0.1831,-0.0000,-0.1602,-0.1510,-10.5739,0.0111,-0.0133,-0.0044,0.0000,0.0000,0.0000,0.0000,0.0000,0.0000,0.0000,0.0000,0.0000,0.0000,0.0000,0.0000,0.0000,0.0000,1.0000,0.0000,0.0000,0.0000,0.0000,0.0000,0.0000,0.0000,0.0000,0.0000,0.0000,0.0000,0.0000,0.0000,0.0000,0.0000,0.0000,0.0000,0.0000,-0.1000,-0.1000,-0.1000,-0.1000,0.0000,0.0000,0.0000,0.0000,4
0,-1,0,-10.4121,-0.2143,-0.0228,-0.0890,0.8310,0.5010,1.1726,123.2422,123.2422,123.2422,123.2422,12.2437,0.0000,-0.0610,-0.1831,0.1221,-0.1913,-0.0551,-10.5978,0.0111,-0.0134,-0.0044,0.0000,0.0000,0.0000,0.0000,0.0000,0.0000,0.0000,0.0000,0.0000,0.0000,0.0000,0.0000,0.0000,0.0000,1.0000,0.0000,0.0000,0.0000,0.0000,0.0000,0.0000,0.0000,0.0000,0.0000,0.0000,0.0000,0.0000,0.0000,0.0000,0.0000,0.0000,0.0000,0.0000,-0.1000,-0.1000,-0.1000,-0.1000,0.0000,0.0000,0.0000,0.0000,4
0,-1,0,-10.4121,-0.2140,-0.0269,-0.1290,0.0110,0.0310,1.1726,8025.5859,8025.5859,8025.5859,123.2422,12.2428,0.0000,0.0000,0.0000,-0.0000,-0.1387,-0.1822,-10.5787,0.0113,-0.0142,-0.0047,0.0000,0.0000,0.0000,0.0000,0.0000,0.0000,0.0000,0.0000,0.0000,0.0000,0.0000,0.0000,0.0000,0.0000,1.0000,0.0000,0.0000,0.0000,0.0000,0.0000,0.0000,0.0000,0.0000,0.0000,0.0000,0.0000,0.0000,0.0000,0.0000,0.0000,0.0000,0.0000,0.0000,-0.1000,-0.1000,-0.1000,-0.1000,0.0000,0.0000,0.0000,0.0000,4
0,-1,0,-10.4121,-0.2140,-0.0269,-0.1290,0.0110,0.0310,1.1726,8025.5859,8025.5859,8025.5859,123.2422,12.2418,0.0000,-0.1831,-0.1831,-0.0610,-0.1602,-0.1390,-10.6097,0.0113,-0.0142,-0.0047,0.0000,0.0000,0.0000,0.0000,0.0000,0.0000,0.0000,0.0000,0.0000,0.0000,0.0000,0.0000,0.0000,0.0000,1.0000,0.0000,0.0000,0.0000,0.0000,0.0000,0.0000,0.0000,0.0000,0.0000,0.0000,0.0000,0.0000,0.0000,0.0000,0.0000,0.0000,0.0000,0.0000,-0.1000,-0.1000,-0.1000,-0.1000,0.0000,0.0000,0.0000,0.0000,4
0,-1,0,-10.4121,-0.2140,-0.0269,-0.1290,0.0110,0.0310,1.1726,8025.5859,8025.5859,8025.5859,123.2422,12.2406,0.0000,-0.0610,-0.2441,-0.0000,-0.1530,-0.1295,-10.6002,0.0113,-0.0142,-0.0047,0.0000,0.0000,0.0000,0.0000,0.0000,0.0000,0.0000,0.0000,0.0000,0.0000,0.0000,0.0000,0.0000,0.0000,1.0000,0.0000,0.0000,0.0000,0.0000,0.0000,0.0000,0.0000,0.0000,0.0000,0.0000,0.0000,0.0000,0.0000,0.0000,0.0000,0.0000,0.0000,0.0000,-0.1000,-0.1000,-0.1000,-0.1000,0.0000,0.0000,0.0000,0.0000,4
0,-1,0,-10.4121,-0.2140,-0.0269,-0.1290,0.0110,0.0310,1.1726,8025.5859,8025.5859,8025.5859,123.2422,12.2408,0.0000,0.0610,0.0000,0.1221,-0.1554,-0.1534,-10.5596,0.0113,-0.0142,-0.0047,0.0000,0.0000,0.0000,0.0000,0.0000,0.0000,0.0000,0.0000,0.0000,0.0000,0.0000,0.0000,0.0000,0.0000,1.0000,0.0000,0.0000,0.0000,0.0000,0.0000,0.0000,0.0000,0.0000,0.0000,0.0000,0.0000,0.0000,0.0000,0.0000,0.0000,0.0000,0.0000,0.0000,-0.1000,-0.1000,-0.1000,-0.1000,0.0000,0.0000,0.0000,0.0000,4
0,-1,0,-10.5313,-0.0470,-0.1455,-0.1190,0.0610,0.0210,1.1726,8025.5859,8025.5859,8025.5859,8025.5859,12.2399,0.0000,0.0000,0.0000,0.1221,-0.1482,-0.1295,-10.5739,0.0113,-0.0142,-0.0047,0.0000,0.0000,0.0000,0.0000,0.0000,0.0000,0.0000,0.0000,0.0000,0.0000,0.0000,0.0000,0.0000,0.0000,1.0000,0.0000,0.0000,0.0000,0.0000,0.0000,0.0000,0.0000,0.0000,0.0000,0.0000,0.0000,0.0000,0.0000,0.0000,0.0000,0.0000,0.0000,0.0000,-0.1000,-0.1000,-0.1000,-0.1000,0.0000,0.0000,0.0000,0.0000,4
0,-1,0,-10.4160,-0.2111,-0.0317,-0.2490,0.7210,-0.0090,1.1726,123.2422,123.2422,123.2422,123.2422,12.2387,0.0000,0.0000,-0.0610,0.1221,-0.1937,-0.0983,-10.5596,0.0114,-0.0147,-0.0049,0.0000,0.0000,0.0000,0.0000,0.0000,0.0000,0.0000,0.0000,0.0000,0.0000,0.0000,0.0000,0.0000,0.0000,1.0000,0.0000,0.0000,0.0000,0.0000,0.0000,0.0000,0.0000,0.0000,0.0000,0.0000,0.0000,0.0000,0.0000,0.0000,0.0000,0.0000,0.0000,0.0000,-0.1000,-0.1000,-0.1000,-0.1000,0.0000,0.0000,0.0000,0.0000,4
0,-1,0,-10.4160,-0.2111,-0.0317,-0.2490,0.7210,-0.0090,1.1726,123.2422,123.2422,123.2422,123.2422,12.2372,0.0000,-0.0610,-0.1221,-0.0610,-0.1219,-0.1390,-10.5477,0.0114,-0.0147,-0.0049,0.0000,0.0000,0.0000,0.0000,0.0000,0.0000,0.0000,0.0000,0.0000,0.0000,0.0000,0.0000,0.0000,0.0000,1.0000,0.0000,0.0000,0.0000,0.0000,0.0000,0.0000,0.0000,0.0000,0.0000,0.0000,0.0000,0.0000,0.0000,0.0000,0.0000,0.0000,0.0000,0.0000,-0.1000,-0.1000,-0.1000,-0.1000,0.0000,0.0000,0.0000,0.0000,4
0,-1,0,-10.4160,-0.2111,-0.0317,-0.2490,0.7210,-0.0090,1.1726,123.2422,123.2422,123.2422,123.2422,12.2370,0.0000,0.0000,-0.1221,-0.0000,-0.1602,-0.1390,-10.5644,0.0114,-0.0148,-0.0049,0.0000,0.0000,0.0000,0.0000,0.0000,0.0000,0.0000,0.0000,0.0000,0.0000,0.0000,0.0000,0.0000,0.0000,1.0000,0.0000,0.0000,0.0000,0.0000,0.0000,0.0000,0.0000,0.0000,0.0000,0.0000,0.0000,0.0000,0.0000,0.0000,0.0000,0.0000,0.0000,0.0000,-0.1000,-0.1000,-0.1000,-0.1000,0.0000,0.0000,0.0000,0.0000,4
0,-1,0,-10.4418,-0.1977,-0.0346,-0.0090,0.0110,-0.0390,1.1726,8025.5859,8025.5859,8025.5859,8025.5859,12.2362,0.0000,-0.1221,-0.0610,-0.0610,-0.1865,-0.1343,-10.5238,0.0114,-0.0148,-0.0049,0.0000,0.0000,0.0000,0.0000,0.0000,0.0000,0.0000,0.0000,0.0000,0.0000,0.0000,0.0000,0.0000,0.0000,1.0000,0.0000,0.0000,0.0000,0.0000,0.0000,0.0000,0.0000,0.0000,0.0000,0.0000,0.0000,0.0000,0.0000,0.0000,0.0000,0.0000,0.0000,0.0000,-0.1000,-0.1000,-0.1000,-0.1000,0.0000,0.0000,0.0000,0.0000,4
0,-1,0,-10.4035,-0.1698,-0.1374,0.0110,0.0410,0.0210,1.1726,8025.5859,8025.5859,8025.5859,8025.5859,12.2367,0.0000,0.0000,0.0000,-0.0000,-0.1745,-0.1247,-10.6336,0.0118,-0.0160,-0.0053,0.0000,0.0000,0.0000,0.0000,0.0000,0.0000,0.0000,0.0000,0.0000,0.0000,0.0000,0.0000,0.0000,0.0000,1.0000,0.0000,0.0000,0.0000,0.0000,0.0000,0.0000,0.0000,0.0000,0.0000,0.0000,0.0000,0.0000,0.0000,0.0000,0.0000,0.0000,0.0000,0.0000,-0.1000,-0.1000,-0.1000,-0.1000,0.0000,0.0000,0.0000,0.0000,4
0,-1,0,-10.4253,-0.2014,0.0536,0.0110,0.0410,0.0210,1.1726,8025.5859,8025.5859,8025.5859,8025.5859,12.2372,0.0000,-0.0610,-0.2441,-0.0000,-0.1435,-0.1510,-10.5739,0.0118,-0.0160,-0.0053,0.0000,0.0000,0.0000,0.0000,0.0000,0.0000,0.0000,0.0000,0.0000,0.0000,0.0000,0.0000,0.0000,0.0000,1.0000,0.0000,0.0000,0.0000,0.0000,0.0000,0.0000,0.0000,0.0000,0.0000,0.0000,0.0000,0.0000,0.0000,0.0000,0.0000,0.0000,0.0000,0.0000,-0.1000,-0.1000,-0.1000,-0.1000,0.0000,0.0000,0.0000,0.0000,4
0,-1,0,-10.4253,-0.2014,0.0536,0.0010,0.0510,-0.0290,1.1726,8025.5859,8025.5859,8025.5859,8025.5859,12.2382,0.0000,-0.0610,-0.1831,-0.1831,-0.1458,-0.1343,-10.5668,0.0118,-0.0160,-0.0054,0.0000,0.0000,0.0000,0.0000,0.0000,0.0000,0.0000,0.0000,0.0000,0.0000,0.0000,0.0000,0.0000,0.0000,1.0000,0.0000,0.0000,0.0000,0.0000,0.0000,0.0000,0.0000,0.0000,0.0000,0.0000,0.0000,0.0000,0.0000,0.0000,0.0000,0.0000,0.0000,0.0000,-0.1000,-0.1000,-0.1000,-0.1000,0.0000,0.0000,0.0000,0.0000,4
0,-1,0,-10.4253,-0.2014,0.0536,0.0010,0.0510,-0.0290,1.1726,8025.5859,8025.5859,8025.5859,8025.5859,12.2396,0.0000,0.0000,0.0000,-0.0000,-0.1698,-0.1462,-10.5882,0.0118,-0.0160,-0.0054,0.0000,0.0000,0.0000,0.0000,0.0000,0.0000,0.0000,0.0000,0.0000,0.0000,0.0000,0.0000,0.0000,0.0000,1.0000,0.0000,0.0000,0.0000,0.0000,0.0000,0.0000,0.0000,0.0000,0.0000,0.0000,0.0000,0.0000,0.0000,0.0000,0.0000,0.0000,0.0000,0.0000,-0.1000,-0.1000,-0.1000,-0.1000,0.0000,0.0000,0.0000,0.0000,4
0,-1,0,-10.4253,-0.2014,0.0536,0.0010,0.0510,-0.0290,1.1726,8025.5859,8025.5859,8025.5859,8025.5859,12.2411,0.0000,-0.0610,-0.1831,-0.0000,-0.1841,-0.2014,-10.6097,0.0118,-0.0160,-0.0054,0.0000,0.0000,0.0000,0.0000,0.0000,0.0000,0.0000,0.0000,0.0000,0.0000,0.0000,0.0000,0.0000,0.0000,1.0000,0.0000,0.0000,0.0000,0.0000,0.0000,0.0000,0.0000,0.0000,0.0000,0.0000,0.0000,0.0000,0.0000,0.0000,0.0000,0.0000,0.0000,0.0000,-0.1000,-0.1000,-0.1000,-0.1000,0.0000,0.0000,0.0000,0.0000,4
0,-1,0,-10.4253,-0.2014,0.0536,0.0010,0.0510,-0.0290,1.1726,8025.5859,8025.5859,8025.5859,8025.5859,12.2428,0.0000,-0.0610,-0.3052,-0.0000,-0.1841,-0.1438,-10.5381,0.0118,-0.0160,-0.0054,0.0000,0.0000,0.0000,0.0000,0.0000,0.0000,0.0000,0.0000,0.0000,0.0000,0.0000,0.0000,0.0000,0.0000,1.0000,0.0000,0.0000,0.0000,0.0000,0.0000,0.0000,0.0000,0.0000,0.0000,0.0000,0.0000,0.0000,0.0000,0.0000,0.0000,0.0000,0.0000,0.0000,-0.1000,-0.1000,-0.1000,-0.1000,0.0000,0.0000,0.0000,0.0000,4
0,-1,0,-10.4253,-0.2014,0.0536,0.0010,0.0510,-0.0290,1.1726,8025.5859,8025.5859,8025.5859,8025.5859,12.2440,0.0000,-0.0610,-0.1831,-0.0000,-0.1721,-0.1199,-10.6026,0.0118,-0.0160,-0.0054,0.0000,0.0000,0.0000,0.0000,0.0000,0.0000,0.0000,0.0000,0.0000,0.0000,0.0000,0.0000,0.0000,0.0000,1.0000,0.0000,0.0000,0.0000,0.0000,0.0000,0.0000,0.0000,0.0000,0.0000,0.0000,0.0000,0.0000,0.0000,0.0000,0.0000,0.0000,0.0000,0.0000,-0.1000,-0.1000,-0.1000,-0.1000,0.0000,0.0000,0.0000,0.0000,4
0,-1,0,-10.4253,-0.2014,0.0536,0.0010,0.0510,-0.0290,1.1726,8025.5859,8025.5859,8025.5859,8025.5859,12.2447,0.0000,-0.0610,-0.1221,0.2441,-0.1554,-0.1462,-10.5811,0.0118,-0.0160,-0.0053,0.0000,0.0000,0.0000,0.0000,0.0000,0.0000,0.0000,0.0000,0.0000,0.0000,0.0000,0.0000,0.0000,0.0000,1.0000,0.0000,0.0000,0.0000,0.0000,0.0000,0.0000,0.0000,0.0000,0.0000,0.0000,0.0000,0.0000,0.0000,0.0000,0.0000,0.0000,0.0000,0.0000,-0.1000,-0.1000,-0.1000,-0.1000,0.0000,0.0000,0.0000,0.0000,4
0,-1,0,-10.5047,0.1649,0.0348,0.0010,-0.0190,-0.0590,1.1726,8025.5859,8025.5859,8025.5859,8025.5859,12.2459,0.0000,-0.1831,-0.1831,0.1221,-0.2056,-0.1247,-10.5906,0.0118,-0.0161,-0.0053,0.0000,0.0000,0.0000,0.0000,0.0000,0.0000,0.0000,0.0000,0.0000,0.0000,0.0000,0.0000,0.0000,0.0000,1.0000,0.0000,0.0000,0.0000,0.0000,0.0000,0.0000,0.0000,0.0000,0.0000,0.0000,0.0000,0.0000,0.0000,0.0000,0.0000,0.0000,0.0000,0.0000,-0.1000,-0.1000,-0.1000,-0.1000,0.0000,0.0000,0.0000,0.0000,4
0,-1,0,-10.4045,0.2172,0.0113,0.0110,-0.0990,-0.0490,1.1726,8025.5859,8025.5859,8025.5859,8025.5859,12.2464,0.0000,-0.0610,-0.2441,-0.0610,-0.1913,-0.1175,-10.5954,0.0120,-0.0170,-0.0058,0.0000,0.0000,0.0000,0.0000,0.0000,0.0000,0.0000,0.0000,0.0000,0.0000,0.0000,0.0000,0.0000,0.0000,1.0000,0.0000,0.0000,0.0000,0.0000,0.0000,0.0000,0.0000,0.0000,0.0000,0.0000,0.0000,0.0000,0.0000,0.0000,0.0000,0.0000,0.0000,0.0000,-0.1000,-0.1000,-0.1000,-0.1000,0.0000,0.0000,0.0000,0.0000,4
0,-1,0,-10.4045,0.2172,0.0113,0.0110,-0.0990,-0.0490,1.1726,8025.5859,8025.5859,8025.5859,8025.5859,12.2464,0.0000,-0.0610,-0.1221,0.1221,-0.1626,-0.1127,-10.5835,0.0120,-0.0170,-0.0058,0.0000,0.0000,0.0000,0.0000,0.0000,0.0000,0.0000,0.0000,0.0000,0.0000,0.0000,0.0000,0.0000,0.0000,1.0000,0.0000,0.0000,0.0000,0.0000,0.0000,0.0000,0.0000,0.0000,0.0000,0.0000,0.0000,0.0000,0.0000,0.0000,0.0000,0.0000,0.0000,0.0000,-0.1000,-0.1000,-0.1000,-0.1000,0.0000,0.0000,0.0000,0.0000,4
0,-1,0,-10.4045,0.2172,0.0113,0.0110,-0.0990,-0.0490,1.1726,8025.5859,8025.5859,8025.5859,8025.5859,12.2449,0.0000,0.0000,-0.1221,0.1221,-0.1387,-0.1079,-10.5811,0.0121,-0.0170,-0.0058,0.0000,0.0000,0.0000,0.0000,0.0000,0.0000,0.0000,0.0000,0.0000,0.0000,0.0000,0.0000,0.0000,0.0000,1.0000,0.0000,0.0000,0.0000,0.0000,0.0000,0.0000,0.0000,0.0000,0.0000,0.0000,0.0000,0.0000,0.0000,0.0000,0.0000,0.0000,0.0000,0.0000,-0.1000,-0.1000,-0.1000,-0.1000,0.0000,0.0000,0.0000,0.0000,4
0,-1,0,-10.4045,0.2172,0.0113,0.0110,-0.0990,-0.0490,1.1726,8025.5859,8025.5859,8025.5859,8025.5859,12.2445,0.0000,0.0000,0.0000,-0.1221,-0.1650,-0.1414,-10.5381,0.0121,-0.0170,-0.0058,0.0000,0.0000,0.0000,0.0000,0.0000,0.0000,0.0000,0.0000,0.0000,0.0000,0.0000,0.0000,0.0000,0.0000,1.0000,0.0000,0.0000,0.0000,0.0000,0.0000,0.0000,0.0000,0.0000,0.0000,0.0000,0.0000,0.0000,0.0000,0.0000,0.0000,0.0000,0.0000,0.0000,-0.1000,-0.1000,-0.1000,-0.1000,0.0000,0.0000,0.0000,0.0000,4
0,-1,0,-10.4045,0.2172,0.0113,0.0110,-0.0990,-0.0490,1.1726,8025.5859,8025.5859,8025.5859,8025.5859,12.2445,0.0000,-0.3662,-0.1221,-0.0610,-0.1124,-0.1151,-10.5405,0.0120,-0.0170,-0.0058,0.0000,0.0000,0.0000,0.0000,0.0000,0.0000,0.0000,0.0000,0.0000,0.0000,0.0000,0.0000,0.0000,0.0000,1.0000,0.0000,0.0000,0.0000,0.0000,0.0000,0.0000,0.0000,0.0000,0.0000,0.0000,0.0000,0.0000,0.0000,0.0000,0.0000,0.0000,0.0000,0.0000,-0.1000,-0.1000,-0.1000,-0.1000,0.0000,0.0000,0.0000,0.0000,4
0,-1,0,-10.4256,0.2069,0.0228,0.0110,-0.0990,-0.0490,1.1726,8025.5859,8025.5859,8025.5859,8025.5859,12.2442,0.0000,-0.0610,-0.3052,-0.1221,-0.1626,-0.1630,-10.6145,0.0120,-0.0170,-0.0059,0.0000,0.0000,0.0000,0.0000,0.0000,0.0000,0.0000,0.0000,0.0000,0.0000,0.0000,0.0000,0.0000,0.0000,1.0000,0.0000,0.0000,0.0000,0.0000,0.0000,0.0000,0.0000,0.0000,0.0000,0.0000,0.0000,0.0000,0.0000,0.0000,0.0000,0.0000,0.0000,0.0000,-0.1000,-0.1000,-0.1000,-0.1000,0.0000,0.0000,0.0000,0.0000,4
0,-1,0,-10.4256,0.2069,0.0228,-0.0490,-0.1090,-0.0690,1.1726,8025.5859,8025.5859,8025.5859,8025.5859,12.2440,0.0000,-0.0610,-0.1831,-0.0000,-0.1841,-0.0959,-10.5954,0.0120,-0.0170,-0.0059,0.0000,0.0000,0.0000,0.0000,0.0000,0.0000,0.0000,0.0000,0.0000,0.0000,0.0000,0.0000,0.0000,0.0000,1.0000,0.0000,0.0000,0.0000,0.0000,0.0000,0.0000,0.0000,0.0000,0.0000,0.0000,0.0000,0.0000,0.0000,0.0000,0.0000,0.0000,0.0000,0.0000,-0.1000,-0.1000,-0.1000,-0.1000,0.0000,0.0000,0.0000,0.0000,4
0,-1,0,-10.4256,0.2069,0.0228,-0.0490,-0.1090,-0.0690,1.1726,8025.5859,8025.5859,8025.5859,8025.5859,12.2440,0.0000,-0.1831,-0.1831,-0.0000,-0.1530,-0.1079,-10.5596,0.0120,-0.0170,-0.0059,0.0000,0.0000,0.0000,0.0000,0.0000,0.0000,0.0000,0.0000,0.0000,0.0000,0.0000,0.0000,0.0000,0.0000,1.0000,0.0000,0.0000,0.0000,0.0000,0.0000,0.0000,0.0000,0.0000,0.0000,0.0000,0.0000,0.0000,0.0000,0.0000,0.0000,0.0000,0.0000,0.0000,-0.1000,-0.1000,-0.1000,-0.1000,0.0000,0.0000,0.0000,0.0000,4
0,-1,0,-10.4007,0.2179,0.0240,-0.0290,-0.0390,-0.0590,1.1726,8025.5859,8025.5859,8025.5859,8025.5859,12.2442,0.0000,-0.0610,-0.1831,0.1221,-0.1530,-0.1343,-10.5978,0.0120,-0.0171,-0.0059,0.0000,0.0000,0.0000,0.0000,0.0000,0.0000,0.0000,0.0000,0.0000,0.0000,0.0000,0.0000,0.0000,0.0000,1.0000,0.0000,0.0000,0.0000,0.0000,0.0000,0.0000,0.0000,0.0000,0.0000,0.0000,0.0000,0.0000,0.0000,0.0000,0.0000,0.0000,0.0000,0.0000,-0.1000,-0.1000,-0.1000,-0.1000,0.0000,0.0000,0.0000,0.0000,4
0,-1,0,-10.4295,0.1988,0.0557,0.0010,0.0310,-0.0290,1.1726,8025.5859,8025.5859,8025.5859,8025.5859,12.2442,0.0000,-0.0610,-0.2441,0.1221,-0.2104,-0.1151,-10.5835,0.0122,-0.0105,-0.0060,0.0000,0.0000,0.0000,0.0000,0.0000,0.0000,0.0000,0.0000,0.0000,0.0000,0.0000,0.0000,0.0000,0.0000,1.0000,0.0000,0.0000,0.0000,0.0000,0.0000,0.0000,0.0000,0.0000,0.0000,0.0000,0.0000,0.0000,0.0000,0.0000,0.0000,0.0000,0.0000,0.0000,-0.1000,-0.1000,-0.1000,-0.1000,0.0000,0.0000,0.0000,0.0000,4
0,-1,0,-10.4295,0.1988,0.0557,0.0010,0.0310,-0.0290,1.1726,8025.5859,8025.5859,8025.5859,8025.5859,12.2447,0.0000,0.0000,-0.0610,-0.0000,-0.1674,-0.1223,-10.6050,0.0122,-0.0105,-0.0060,0.0000,0.0000,0.0000,0.0000,0.0000,0.0000,0.0000,0.0000,0.0000,0.0000,0.0000,0.0000,0.0000,0.0000,1.0000,0.0000,0.0000,0.0000,0.0000,0.0000,0.0000,0.0000,0.0000,0.0000,0.0000,0.0000,0.0000,0.0000,0.0000,0.0000,0.0000,0.0000,0.0000,-0.1000,-0.1000,-0.1000,-0.1000,0.0000,0.0000,0.0000,0.0000,4
0,-1,0,-10.4295,0.1988,0.0557,0.0010,0.0310,-0.0290,1.1726,8025.5859,8025.5859,8025.5859,8025.5859,12.2445,0.0000,-0.0610,-0.2441,-0.0000,-0.1315,-0.1031,-10.5906,0.0122,-0.0106,-0.0060,0.0000,0.0000,0.0000,0.0000,0.0000,0.0000,0.0000,0.0000,0.0000,0.0000,0.0000,0.0000,0.0000,0.0000,1.0000,0.0000,0.0000,0.0000,0.0000,0.0000,0.0000,0.0000,0.0000,0.0000,0.0000,0.0000,0.0000,0.0000,0.0000,0.0000,0.0000,0.0000,0.0000,-0.1000,-0.1000,-0.1000,-0.1000,0.0000,0.0000,0.0000,0.0000,4
0,-1,0,-10.4295,0.1988,0.0557,0.0010,0.0310,-0.0290,1.1726,8025.5859,8025.5859,8025.5859,8025.5859,12.2445,0.0000,-0.1831,-0.1221,-0.0000,-0.1315,-0.0791,-10.5882,0.0122,-0.0106,-0.0061,0.0000,0.0000,0.0000,0.0000,0.0000,0.0000,0.0000,0.0000,0.0000,0.0000,0.0000,0.0000,0.0000,0.0000,1.0000,0.0000,0.0000,0.0000,0.0000,0.0000,0.0000,0.0000,0.0000,0.0000,0.0000,0.0000,0.0000,0.0000,0.0000,0.0000,0.0000,0.0000,0.0000,-0.1000,-0.1000,-0.1000,-0.1000,0.0000,0.0000,0.0000,0.0000,4
0,-1,0,-10.4295,0.1988,0.0557,0.0010,0.0310,-0.0290,1.1726,8025.5859,8025.5859,8025.5859,8025.5859,12.2445,0.0000,-0.1831,-0.2441,-0.0000,-0.1578,-0.1366,-10.6073,0.0122,-0.0106,-0.0061,0.0000,0.0000,0.0000,0.0000,0.0000,0.0000,0.0000,0.0000,0.0000,0.0000,0.0000,0.0000,0.0000,0.0000,1.0000,0.0000,0.0000,0.0000,0.0000,0.0000,0.0000,0.0000,0.0000,0.0000,0.0000,0.0000,0.0000,0.0000,0.0000,0.0000,0.0000,0.0000,0.0000,-0.1000,-0.1000,-0.1000,-0.1000,0.0000,0.0000,0.0000,0.0000,4
0,-1,0,-10.4295,0.1988,0.0557,0.0010,0.0310,-0.0290,1.1726,8025.5859,8025.5859,8025.5859,8025.5859,12.2445,0.0000,-0.1831,-0.2441,-0.0000,-0.1626,-0.1295,-10.5453,0.0122,-0.0106,-0.0061,0.0000,0.0000,0.0000,0.0000,0.0000,0.0000,0.0000,0.0000,0.0000,0.0000,0.0000,0.0000,0.0000,0.0000,1.0000,0.0000,0.0000,0.0000,0.0000,0.0000,0.0000,0.0000,0.0000,0.0000,0.0000,0.0000,0.0000,0.0000,0.0000,0.0000,0.0000,0.0000,0.0000,-0.1000,-0.1000,-0.1000,-0.1000,0.0000,0.0000,0.0000,0.0000,4
0,-1,0,-10.4295,0.1988,0.0557,0.0010,0.0310,-0.0290,1.1726,8025.5859,8025.5859,8025.5859,8025.5859,12.2440,0.0000,-0.0610,-0.1831,-0.0610,-0.1650,-0.1199,-10.5620,0.0122,-0.0106,-0.0061,0.0000,0.0000,0.0000,0.0000,0.0000,0.0000,0.0000,0.0000,0.0000,0.0000,0.0000,0.0000,0.0000,0.0000,1.0000,0.0000,0.0000,0.0000,0.0000,0.0000,0.0000,0.0000,0.0000,0.0000,0.0000,0.0000,0.0000,0.0000,0.0000,0.0000,0.0000,0.0000,0.0000,-0.1000,-0.1000,-0.1000,-0.1000,0.0000,0.0000,0.0000,0.0000,4
0,-1,0,-10.4295,0.1988,0.0557,0.0010,0.0310,-0.0290,1.1726,8025.5859,8025.5859,8025.5859,8025.5859,12.2433,0.0000,0.0610,-0.2441,-0.0000,-0.1458,-0.1295,-10.5524,0.0122,-0.0106,-0.0061,0.0000,0.0000,0.0000,0.0000,0.0000,0.0000,0.0000,0.0000,0.0000,0.0000,0.0000,0.0000,0.0000,0.0000,1.0000,0.0000,0.0000,0.0000,0.0000,0.0000,0.0000,0.0000,0.0000,0.0000,0.0000,0.0000,0.0000,0.0000,0.0000,0.0000,0.0000,0.0000,0.0000,-0.1000,-0.1000,-0.1000,-0.1000,0.0000,0.0000,0.0000,0.0000,4
0,-1,0,-10.4056,0.1950,-0.0958,-0.0790,-0.0690,-0.0690,1.1726,8025.5859,123.2422,123.2422,123.2422,12.2425,0.0000,0.0610,0.0000,-0.0610,-0.2200,-0.1103,-10.5668,0.0122,-0.0106,-0.0061,0.0000,0.0000,0.0000,0.0000,0.0000,0.0000,0.0000,0.0000,0.0000,0.0000,0.0000,0.0000,0.0000,0.0000,1.0000,0.0000,0.0000,0.0000,0.0000,0.0000,0.0000,0.0000,0.0000,0.0000,0.0000,0.0000,0.0000,0.0000,0.0000,0.0000,0.0000,0.0000,0.0000,-0.1000,-0.1000,-0.1000,-0.1000,0.0000,0.0000,0.0000,0.0000,4
0,-1,0,-10.4758,-0.0027,-0.1840,-0.0090,-0.0090,-0.0490,1.1726,8025.5859,8025.5859,8025.5859,8025.5859,12.2411,0.0000,-0.1221,-0.0610,-0.0000,-0.1793,-0.1366,-10.5906,0.0124,-0.0050,-0.0066,0.0000,0.0000,0.0000,0.0000,0.0000,0.0000,0.0000,0.0000,0.0000,0.0000,0.0000,0.0000,0.0000,0.0000,1.0000,0.0000,0.0000,0.0000,0.0000,0.0000,0.0000,0.0000,0.0000,0.0000,0.0000,0.0000,0.0000,0.0000,0.0000,0.0000,0.0000,0.0000,0.0000,-0.1000,-0.1000,-0.1000,-0.1000,0.0000,0.0000,0.0000,0.0000,4
0,-1,0,-10.4758,-0.0027,-0.1840,-0.0090,-0.0090,-0.0490,1.1726,8025.5859,8025.5859,8025.5859,8025.5859,12.2399,0.0000,-0.1831,-0.1221,-0.0610,-0.1506,-0.1390,-10.6718,0.0124,-0.0050,-0.0066,0.0000,0.0000,0.0000,0.0000,0.0000,0.0000,0.0000,0.0000,0.0000,0.0000,0.0000,0.0000,0.0000,0.0000,1.0000,0.0000,0.0000,0.0000,0.0000,0.0000,0.0000,0.0000,0.0000,0.0000,0.0000,0.0000,0.0000,0.0000,0.0000,0.0000,0.0000,0.0000,0.0000,-0.1000,-0.1000,-0.1000,-0.1000,0.0000,0.0000,0.0000,0.0000,4
0,-1,0,-10.4758,-0.0027,-0.1840,-0.0090,-0.0090,-0.0490,1.1726,8025.5859,8025.5859,8025.5859,8025.5859,12.2396,0.0000,-0.0610,-0.3052,0.1221,-0.1387,-0.1414,-10.5715,0.0124,-0.0051,-0.0066,0.0000,0.0000,0.0000,0.0000,0.0000,0.0000,0.0000,0.0000,0.0000,0.0000,0.0000,0.0000,0.0000,0.0000,1.0000,0.0000,0.0000,0.0000,0.0000,0.0000,0.0000,0.0000,0.0000,0.0000,0.0000,0.0000,0.0000,0.0000,0.0000,0.0000,0.0000,0.0000,0.0000,-0.1000,-0.1000,-0.1000,-0.1000,0.0000,0.0000,0.0000,0.0000,4
0,-1,0,-10.4758,-0.0027,-0.1840,-0.0090,-0.0090,-0.0490,1.1726,8025.5859,8025.5859,8025.5859,8025.5859,12.2404,0.0000,0.0000,-0.1221,-0.0000,-0.1506,-0.1462,-10.5763,0.0125,-0.0051,-0.0066,0.0000,0.0000,0.0000,0.0000,0.0000,0.0000,0.0000,0.0000,0.0000,0.0000,0.0000,0.0000,0.0000,0.0000,1.0000,0.0000,0.0000,0.0000,0.0000,0.0000,0.0000,0.0000,0.0000,0.0000,0.0000,0.0000,0.0000,0.0000,0.0000,0.0000,0.0000,0.0000,0.0000,-0.1000,-0.1000,-0.1000,-0.1000,0.0000,0.0000,0.0000,0.0000,4
