loop_index, counter, last_step_ns, T_ref, theta_ref, phi_ref, uwind, vwind, wwind, rho, rpm1, rpm2, rpm3, rpm4,v_batt,alt,gyro_roll,gyro_pitch,gyro_yaw,accel_X,accel_Y,accel_Z,roll,pitch,yaw,X,Y,Z,Xdot,Ydot,Zdot,x0,y0,z0,e.xbee_time,xbee_time_received_ns,xbee_x,xbee_y,xbee_z,xbee_qw,xbee_qx,xbee_qy,xbee_qz,sp_roll,sp_pitch,sp_yaw,sp_X,sp_Y,sp_Z,sp_Xdot,sp_Ydot,sp_Zdot,u_roll,u_pitch,u_yaw,u_X,u_Y,u_Z,mot_1,mot_2,mot_3,mot_4,flight mode
0,-1,0,-10.4240,-0.2044,0.0443,0.0810,0.3710,0.1910,1.1647,23.4375,23.4375,23.4375,23.4375,12.2104,0.0000,-0.0610,-0.1831,-0.0000,-0.2152,-0.1990,-10.6193,0.0123,-0.0014,-0.0013,0.0000,0.0000,0.0000,0.0000,0.0000,0.0000,0.0000,0.0000,0.0000,0.0000,0.0000,0.0000,0.0000,0.0000,1.0000,0.0000,0.0000,0.0000,0.0000,0.0000,0.0000,0.0000,0.0000,0.0000,0.0000,0.0000,0.0000,0.0000,0.0000,0.0000,0.0000,0.0000,0.0000,-0.1000,-0.1000,-0.1000,-0.1000,4
0,-1,0,-10.4240,-0.2044,0.0443,0.0810,0.3710,0.1910,1.1647,23.4375,23.4375,23.4375,23.4375,12.2138,0.0000,0.0000,0.0000,-0.0000,-0.0693,-0.1846,-10.6622,0.0123,-0.0014,-0.0013,0.0000,0.0000,0.0000,0.0000,0.0000,0.0000,0.0000,0.0000,0.0000,0.0000,0.0000,0.0000,0.0000,0.0000,1.0000,0.0000,0.0000,0.0000,0.0000,0.0000,0.0000,0.0000,0.0000,0.0000,0.0000,0.0000,0.0000,0.0000,0.0000,0.0000,0.0000,0.0000,0.0000,-0.1000,-0.1000,-0.1000,-0.1000,4
0,-1,0,-10.4240,-0.2044,0.0443,0.0810,0.3710,0.1910,1.1647,23.4375,23.4375,23.4375,23.4375,12.2157,0.0000,-0.0610,-0.2441,-0.0000,-0.1913,-0.2038,-10.5429,0.0123,-0.0015,-0.0013,0.0000,0.0000,0.0000,0.0000,0.0000,0.0000,0.0000,0.0000,0.0000,0.0000,0.0000,0.0000,0.0000,0.0000,1.0000,0.0000,0.0000,0.0000,0.0000,0.0000,0.0000,0.0000,0.0000,0.0000,0.0000,0.0000,0.0000,0.0000,0.0000,0.0000,0.0000,0.0000,0.0000,-0.1000,-0.1000,-0.1000,-0.1000,4
0,-1,0,-10.4240,-0.2044,0.0443,0.0810,0.3710,0.1910,1.1647,23.4375,23.4375,23.4375,23.4375,12.2171,0.0000,0.0610,0.0000,-0.0000,-0.1482,-0.2182,-10.6002,0.0123,-0.0015,-0.0013,0.0000,0.0000,0.0000,0.0000,0.0000,0.0000,0.0000,0.0000,0.0000,0.0000,0.0000,0.0000,0.0000,0.0000,1.0000,0.0000,0.0000,0.0000,0.0000,0.0000,0.0000,0.0000,0.0000,0.0000,0.0000,0.0000,0.0000,0.0000,0.0000,0.0000,0.0000,0.0000,0.0000,-0.1000,-0.1000,-0.1000,-0.1000,4
0,-1,0,-10.4240,-0.2044,0.0443,0.0810,0.3710,0.1910,1.1647,23.4375,23.4375,23.4375,23.4375,12.2188,0.0000,0.0000,0.0000,-0.0000,-0.0622,-0.1319,-10.6240,0.0124,-0.0015,-0.0013,0.0000,0.0000,0.0000,0.0000,0.0000,0.0000,0.0000,0.0000,0.0000,0.0000,0.0000,0.0000,0.0000,0.0000,1.0000,0.0000,0.0000,0.0000,0.0000,0.0000,0.0000,0.0000,0.0000,0.0000,0.0000,0.0000,0.0000,0.0000,0.0000,0.0000,0.0000,0.0000,0.0000,-0.1000,-0.1000,-0.1000,-0.1000,4
0,-1,0,-10.4240,-0.2044,0.0443,0.0810,0.3710,0.1910,1.1647,23.4375,23.4375,23.4375,23.4375,12.2210,0.0000,0.0000,-0.0610,-0.0000,-0.2367,-0.2230,-10.5501,0.0124,-0.0015,-0.0013,0.0000,0.0000,0.0000,0.0000,0.0000,0.0000,0.0000,0.0000,0.0000,0.0000,0.0000,0.0000,0.0000,0.0000,1.0000,0.0000,0.0000,0.0000,0.0000,0.0000,0.0000,0.0000,0.0000,0.0000,0.0000,0.0000,0.0000,0.0000,0.0000,0.0000,0.0000,0.0000,0.0000,-0.1000,-0.1000,-0.1000,-0.1000,4
0,-1,0,-10.4240,-0.2044,0.0443,0.0810,0.3710,0.1910,1.1647,23.4375,23.4375,23.4375,23.4375,12.2229,0.0000,-0.0610,-0.2441,-0.0000,-0.1028,-0.1966,-10.6073,0.0124,-0.0015,-0.0013,0.0000,0.0000,0.0000,0.0000,0.0000,0.0000,0.0000,0.0000,0.0000,0.0000,0.0000,0.0000,0.0000,0.0000,1.0000,0.0000,0.0000,0.0000,0.0000,0.0000,0.0000,0.0000,0.0000,0.0000,0.0000,0.0000,0.0000,0.0000,0.0000,0.0000,0.0000,0.0000,0.0000,-0.1000,-0.1000,-0.1000,-0.1000,4
0,-1,0,-10.4240,-0.2044,0.0443,0.0810,0.3710,0.1910,1.1647,23.4375,23.4375,23.4375,23.4375,12.2246,0.0000,-0.0610,-0.1221,-0.0000,-0.0932,-0.1223,-10.6026,0.0124,-0.0015,-0.0014,0.0000,0.0000,0.0000,0.0000,0.0000,0.0000,0.0000,0.0000,0.0000,0.0000,0.0000,0.0000,0.0000,0.0000,1.0000,0.0000,0.0000,0.0000,0.0000,0.0000,0.0000,0.0000,0.0000,0.0000,0.0000,0.0000,0.0000,0.0000,0.0000,0.0000,0.0000,0.0000,0.0000,-0.1000,-0.1000,-0.1000,-0.1000,4
0,-1,0,-10.4240,-0.2044,0.0443,0.0810,0.3710,0.1910,1.1647,23.4375,23.4375,23.4375,23.4375,12.2266,0.0000,0.1221,-0.2441,0.1221,-0.2104,-0.2613,-10.6193,0.0124,-0.0016,-0.0013,0.0000,0.0000,0.0000,0.0000,0.0000,0.0000,0.0000,0.0000,0.0000,0.0000,0.0000,0.0000,0.0000,0.0000,1.0000,0.0000,0.0000,0.0000,0.0000,0.0000,0.0000,0.0000,0.0000,0.0000,0.0000,0.0000,0.0000,0.0000,0.0000,0.0000,0.0000,0.0000,0.0000,-0.1000,-0.1000,-0.1000,-0.1000,4
0,-1,0,-10.4240,-0.2044,0.0443,0.0810,0.3710,0.1910,1.1647,23.4375,23.4375,23.4375,23.4375,12.2287,0.0000,0.0000,0.0000,0.1831,-0.1387,-0.1702,-10.5572,0.0124,-0.0016,-0.0013,0.0000,0.0000,0.0000,0.0000,0.0000,0.0000,0.0000,0.0000,0.0000,0.0000,0.0000,0.0000,0.0000,0.0000,1.0000,0.0000,0.0000,0.0000,0.0000,0.0000,0.0000,0.0000,0.0000,0.0000,0.0000,0.0000,0.0000,0.0000,0.0000,0.0000,0.0000,0.0000,0.0000,-0.1000,-0.1000,-0.1000,-0.1000,4
0,-1,0,-10.4240,-0.2044,0.0443,0.0810,0.3710,0.1910,1.1647,23.4375,23.4375,23.4375,23.4375,12.2307,0.0000,-0.0610,-0.1221,-0.0000,-0.1243,-0.1798,-10.6097,0.0124,-0.0016,-0.0013,0.0000,0.0000,0.0000,0.0000,0.0000,0.0000,0.0000,0.0000,0.0000,0.0000,0.0000,0.0000,0.0000,0.0000,1.0000,0.0000,0.0000,0.0000,0.0000,0.0000,0.0000,0.0000,0.0000,0.0000,0.0000,0.0000,0.0000,0.0000,0.0000,0.0000,0.0000,0.0000,0.0000,-0.1000,-0.1000,-0.1000,-0.1000,4
0,-1,0,-10.4240,-0.2044,0.0443,0.0810,0.3710,0.1910,1.1647,23.4375,23.4375,23.4375,23.4375,12.2324,0.0000,0.1221,-0.1221,-0.0000,-0.1984,-0.2709,-10.5739,0.0125,-0.0016,-0.0013,0.0000,0.0000,0.0000,0.0000,0.0000,0.0000,0.0000,0.0000,0.0000,0.0000,0.0000,0.0000,0.0000,0.0000,1.0000,0.0000,0.0000,0.0000,0.0000,0.0000,0.0000,0.0000,0.0000,0.0000,0.0000,0.0000,0.0000,0.0000,0.0000,0.0000,0.0000,0.0000,0.0000,-0.1000,-0.1000,-0.1000,-0.1000,4
0,-1,0,-10.4240,-0.2044,0.0443,0.0810,0.3710,0.1910,1.1647,23.4375,23.4375,23.4375,23.4375,12.2341,0.0000,0.0610,-0.0610,-0.0610,-0.1387,-0.1366,-10.6336,0.0125,-0.0017,-0.0013,0.0000,0.0000,0.0000,0.0000,0.0000,0.0000,0.0000,0.0000,0.0000,0.0000,0.0000,0.0000,0.0000,0.0000,1.0000,0.0000,0.0000,0.0000,0.0000,0.0000,0.0000,0.0000,0.0000,0.0000,0.0000,0.0000,0.0000,0.0000,0.0000,0.0000,0.0000,0.0000,0.0000,-0.1000,-0.1000,-0.1000,-0.1000,4
0,-1,0,-10.4240,-0.2044,0.0443,0.0810,0.3710,0.1910,1.1647,23.4375,23.4375,23.4375,23.4375,12.2360,0.0000,-0.0610,-0.1831,-0.0000,-0.1172,-0.1462,-10.6312,0.0125,-0.0017,-0.0014,0.0000,0.0000,0.0000,0.0000,0.0000,0.0000,0.0000,0.0000,0.0000,0.0000,0.0000,0.0000,0.0000,0.0000,1.0000,0.0000,0.0000,0.0000,0.0000,0.0000,0.0000,0.0000,0.0000,0.0000,0.0000,0.0000,0.0000,0.0000,0.0000,0.0000,0.0000,0.0000,0.0000,-0.1000,-0.1000,-0.1000,-0.1000,4
0,-1,0,-10.4240,-0.2044,0.0443,0.0810,0.3710,0.1910,1.1647,23.4375,23.4375,23.4375,23.4375,12.2375,0.0000,-0.0610,-0.2441,-0.0000,-0.1363,-0.2661,-10.5501,0.0125,-0.0017,-0.0014,0.0000,0.0000,0.0000,0.0000,0.0000,0.0000,0.0000,0.0000,0.0000,0.0000,0.0000,0.0000,0.0000,0.0000,1.0000,0.0000,0.0000,0.0000,0.0000,0.0000,0.0000,0.0000,0.0000,0.0000,0.0000,0.0000,0.0000,0.0000,0.0000,0.0000,0.0000,0.0000,0.0000,-0.1000,-0.1000,-0.1000,-0.1000,4
0,-1,0,-10.4240,-0.2044,0.0443,0.0810,0.3710,0.1910,1.1647,23.4375,23.4375,23.4375,23.4375,12.2394,0.0000,-0.0610,-0.3052,0.1221,-0.1626,-0.1582,-10.5978,0.0125,-0.0017,-0.0013,0.0000,0.0000,0.0000,0.0000,0.0000,0.0000,0.0000,0.0000,0.0000,0.0000,0.0000,0.0000,0.0000,0.0000,1.0000,0.0000,0.0000,0.0000,0.0000,0.0000,0.0000,0.0000,0.0000,0.0000,0.0000,0.0000,0.0000,0.0000,0.0000,0.0000,0.0000,0.0000,0.0000,-0.1000,-0.1000,-0.1000,-0.1000,4
0,-1,0,-10.4240,-0.2044,0.0443,0.0810,0.3710,0.1910,1.1647,23.4375,23.4375,23.4375,23.4375,12.2413,0.0000,0.1221,0.0000,-0.0000,-0.1172,-0.1942,-10.6169,0.0125,-0.0017,-0.0013,0.0000,0.0000,0.0000,0.0000,0.0000,0.0000,0.0000,0.0000,0.0000,0.0000,0.0000,0.0000,0.0000,0.0000,1.0000,0.0000,0.0000,0.0000,0.0000,0.0000,0.0000,0.0000,0.0000,0.0000,0.0000,0.0000,0.0000,0.0000,0.0000,0.0000,0.0000,0.0000,0.0000,-0.1000,-0.1000,-0.1000,-0.1000,4
0,-1,0,-10.4240,-0.2044,0.0443,0.0810,0.3710,0.1910,1.1647,23.4375,23.4375,23.4375,23.4375,12.2435,0.0000,0.0000,-0.0610,-0.0000,-0.1698,-0.1846,-10.6169,0.0126,-0.0018,-0.0013,0.0000,0.0000,0.0000,0.0000,0.0000,0.0000,0.0000,0.0000,0.0000,0.0000,0.0000,0.0000,0.0000,0.0000,1.0000,0.0000,0.0000,0.0000,0.0000,0.0000,0.0000,0.0000,0.0000,0.0000,0.0000,0.0000,0.0000,0.0000,0.0000,0.0000,0.0000,0.0000,0.0000,-0.1000,-0.1000,-0.1000,-0.1000,4
0,-1,0,-10.4240,-0.2044,0.0443,0.0810,0.3710,0.1910,1.1647,23.4375,23.4375,23.4375,23.4375,12.2459,0.0000,0.0000,0.0000,-0.0000,-0.1339,-0.1894,-10.5859,0.0126,-0.0018,-0.0013,0.0000,0.0000,0.0000,0.0000,0.0000,0.0000,0.0000,0.0000,0.0000,0.0000,0.0000,0.0000,0.0000,0.0000,1.0000,0.0000,0.0000,0.0000,0.0000,0.0000,0.0000,0.0000,0.0000,0.0000,0.0000,0.0000,0.0000,0.0000,0.0000,0.0000,0.0000,0.0000,0.0000,-0.1000,-0.1000,-0.1000,-0.1000,4
0,-1,0,-10.4240,-0.2044,0.0443,0.0810,0.3710,0.1910,1.1647,23.4375,23.4375,23.4375,23.4375,12.2478,0.0000,-0.0610,-0.2441,-0.0000,-0.1076,-0.1966,-10.5429,0.0126,-0.0018,-0.0013,0.0000,0.0000,0.0000,0.0000,0.0000,0.0000,0.0000,0.0000,0.0000,0.0000,0.0000,0.0000,0.0000,0.0000,1.0000,0.0000,0.0000,0.0000,0.0000,0.0000,0.0000,0.0000,0.0000,0.0000,0.0000,0.0000,0.0000,0.0000,0.0000,0.0000,0.0000,0.0000,0.0000,-0.1000,-0.1000,-0.1000,-0.1000,4
0,-1,0,-10.4240,-0.2044,0.0443,0.0810,0.3710,0.1910,1.1647,23.4375,23.4375,23.4375,23.4375,12.2481,0.0000,0.0000,-0.1221,-0.0000,-0.1674,-0.2253,-10.5811,0.0126,-0.0018,-0.0014,0.0000,0.0000,0.0000,0.0000,0.0000,0.0000,0.0000,0.0000,0.0000,0.0000,0.0000,0.0000,0.0000,0.0000,1.0000,0.0000,0.0000,0.0000,0.0000,0.0000,0.0000,0.0000,0.0000,0.0000,0.0000,0.0000,0.0000,0.0000,0.0000,0.0000,0.0000,0.0000,0.0000,-0.1000,-0.1000,-0.1000,-0.1000,4
0,-1,0,-10.4240,-0.2044,0.0443,0.0810,0.3710,0.1910,1.1647,23.4375,23.4375,23.4375,23.4375,12.2466,0.0000,-0.0610,-0.1831,-0.1221,-0.1458,-0.1750,-10.5715,0.0126,-0.0018,-0.0014,0.0000,0.0000,0.0000,0.0000,0.0000,0.0000,0.0000,0.0000,0.0000,0.0000,0.0000,0.0000,0.0000,0.0000,1.0000,0.0000,0.0000,0.0000,0.0000,0.0000,0.0000,0.0000,0.0000,0.0000,0.0000,0.0000,0.0000,0.0000,0.0000,0.0000,0.0000,0.0000,0.0000,-0.1000,-0.1000,-0.1000,-0.1000,4
0,-1,0,-10.4240,-0.2044,0.0443,0.0810,0.3710,0.1910,1.1647,23.4375,23.4375,23.4375,23.4375,12.2464,0.0000,-0.2441,-0.1221,-0.0610,-0.1148,-0.1918,-10.5596,0.0126,-0.0019,-0.0014,0.0000,0.0000,0.0000,0.0000,0.0000,0.0000,0.0000,0.0000,0.0000,0.0000,0.0000,0.0000,0.0000,0.0000,1.0000,0.0000,0.0000,0.0000,0.0000,0.0000,0.0000,0.0000,0.0000,0.0000,0.0000,0.0000,0.0000,0.0000,0.0000,0.0000,0.0000,0.0000,0.0000,-0.1000,-0.1000,-0.1000,-0.1000,4
0,-1,0,-10.4240,-0.2044,0.0443,0.0810,0.3710,0.1910,1.1647,23.4375,23.4375,23.4375,23.4375,12.2466,0.0000,-0.0610,-0.1221,-0.0000,-0.1793,-0.2301,-10.5906,0.0126,-0.0019,-0.0014,0.0000,0.0000,0.0000,0.0000,0.0000,0.0000,0.0000,0.0000,0.0000,0.0000,0.0000,0.0000,0.0000,0.0000,1.0000,0.0000,0.0000,0.0000,0.0000,0.0000,0.0000,0.0000,0.0000,0.0000,0.0000,0.0000,0.0000,0.0000,0.0000,0.0000,0.0000,0.0000,0.0000,-0.1000,-0.1000,-0.1000,-0.1000,4
0,-1,0,-10.4240,-0.2044,0.0443,0.0810,0.3710,0.1910,1.1647,23.4375,23.4375,23.4375,23.4375,12.2466,0.0000,0.1831,0.0000,-0.0000,-0.1100,-0.2349,-10.6360,0.0126,-0.0019,-0.0014,0.0000,0.0000,0.0000,0.0000,0.0000,0.0000,0.0000,0.0000,0.0000,0.0000,0.0000,0.0000,0.0000,0.0000,1.0000,0.0000,0.0000,0.0000,0.0000,0.0000,0.0000,0.0000,0.0000,0.0000,0.0000,0.0000,0.0000,0.0000,0.0000,0.0000,0.0000,0.0000,0.0000,-0.1000,-0.1000,-0.1000,-0.1000,4
0,-1,0,-10.4240,-0.2044,0.0443,0.0810,0.3710,0.1910,1.1647,23.4375,23.4375,23.4375,23.4375,12.2454,0.0000,-0.0610,-0.1831,-0.0000,-0.1411,-0.1582,-10.5596,0.0126,-0.0019,-0.0014,0.0000,0.0000,0.0000,0.0000,0.0000,0.0000,0.0000,0.0000,0.0000,0.0000,0.0000,0.0000,0.0000,0.0000,1.0000,0.0000,0.0000,0.0000,0.0000,0.0000,0.0000,0.0000,0.0000,0.0000,0.0000,0.0000,0.0000,0.0000,0.0000,0.0000,0.0000,0.0000,0.0000,-0.1000,-0.1000,-0.1000,-0.1000,4
0,-1,0,-10.4240,-0.2044,0.0443,0.0610,0.1210,0.0310,1.1647,23.4375,23.4375,23.4375,23.4375,12.2447,0.0000,-0.0610,-0.1221,-0.0000,-0.1578,-0.1990,-10.6288,0.0126,-0.0019,-0.0014,0.0000,0.0000,0.0000,0.0000,0.0000,0.0000,0.0000,0.0000,0.0000,0.0000,0.0000,0.0000,0.0000,0.0000,1.0000,0.0000,0.0000,0.0000,0.0000,0.0000,0.0000,0.0000,0.0000,0.0000,0.0000,0.0000,0.0000,0.0000,0.0000,0.0000,0.0000,0.0000,0.0000,-0.1000,-0.1000,-0.1000,-0.1000,4
0,-1,0,-10.4240,-0.2044,0.0443,0.0610,0.1210,0.0310,1.1647,23.4375,23.4375,23.4375,23.4375,12.2437,0.0000,-0.0610,-0.1831,0.1221,-0.1650,-0.1942,-10.5906,0.0127,-0.0020,-0.0014,0.0000,0.0000,0.0000,0.0000,0.0000,0.0000,0.0000,0.0000,0.0000,0.0000,0.0000,0.0000,0.0000,0.0000,1.0000,0.0000,0.0000,0.0000,0.0000,0.0000,0.0000,0.0000,0.0000,0.0000,0.0000,0.0000,0.0000,0.0000,0.0000,0.0000,0.0000,0.0000,0.0000,-0.1000,-0.1000,-0.1000,-0.1000,4
0,-1,0,-10.4240,-0.2044,0.0443,0.0610,0.1210,0.0310,1.1647,23.4375,23.4375,23.4375,23.4375,12.2423,0.0000,-0.0610,-0.1831,0.1221,-0.1554,-0.1942,-10.6073,0.0127,-0.0020,-0.0014,0.0000,0.0000,0.0000,0.0000,0.0000,0.0000,0.0000,0.0000,0.0000,0.0000,0.0000,0.0000,0.0000,0.0000,1.0000,0.0000,0.0000,0.0000,0.0000,0.0000,0.0000,0.0000,0.0000,0.0000,0.0000,0.0000,0.0000,0.0000,0.0000,0.0000,0.0000,0.0000,0.0000,-0.1000,-0.1000,-0.1000,-0.1000,4
0,-1,0,-10.4240,-0.2044,0.0443,0.0610,0.1210,0.0310,1.1647,23.4375,23.4375,23.4375,23.4375,12.2408,0.0000,-0.0610,-0.1831,-0.0000,-0.1530,-0.2182,-10.6026,0.0127,-0.0020,-0.0014,0.0000,0.0000,0.0000,0.0000,0.0000,0.0000,0.0000,0.0000,0.0000,0.0000,0.0000,0.0000,0.0000,0.0000,1.0000,0.0000,0.0000,0.0000,0.0000,0.0000,0.0000,0.0000,0.0000,0.0000,0.0000,0.0000,0.0000,0.0000,0.0000,0.0000,0.0000,0.0000,0.0000,-0.1000,-0.1000,-0.1000,-0.1000,4
0,-1,0,-10.4240,-0.2044,0.0443,0.0610,0.1210,0.0310,1.1647,23.4375,23.4375,23.4375,23.4375,12.2401,0.0000,0.0000,-0.1221,0.1831,-0.1482,-0.2038,-10.6050,0.0127,-0.0020,-0.0014,0.0000,0.0000,0.0000,0.0000,0.0000,0.0000,0.0000,0.0000,0.0000,0.0000,0.0000,0.0000,0.0000,0.0000,1.0000,0.0000,0.0000,0.0000,0.0000,0.0000,0.0000,0.0000,0.0000,0.0000,0.0000,0.0000,0.0000,0.0000,0.0000,0.0000,0.0000,0.0000,0.0000,-0.1000,-0.1000,-0.1000,-0.1000,4
0,-1,0,-10.4240,-0.2044,0.0443,0.0610,0.1210,0.0310,1.1647,23.4375,23.4375,23.4375,23.4375,12.2391,0.0000,0.0000,-0.0610,-0.0610,-0.1411,-0.1918,-10.6360,0.0127,-0.0020,-0.0014,0.0000,0.0000,0.0000,0.0000,0.0000,0.0000,0.0000,0.0000,0.0000,0.0000,0.0000,0.0000,0.0000,0.0000,1.0000,0.0000,0.0000,0.0000,0.0000,0.0000,0.0000,0.0000,0.0000,0.0000,0.0000,0.0000,0.0000,0.0000,0.0000,0.0000,0.0000,0.0000,0.0000,-0.1000,-0.1000,-0.1000,-0.1000,4
0,-1,0,-10.4240,-0.2044,0.0443,0.0610,0.1210,0.0310,1.1647,23.4375,23.4375,23.4375,23.4375,12.2379,0.0000,0.0000,-0.1831,-0.0000,-0.1698,-0.1894,-10.6026,0.0127,-0.0021,-0.0014,0.0000,0.0000,0.0000,0.0000,0.0000,0.0000,0.0000,0.0000,0.0000,0.0000,0.0000,0.0000,0.0000,0.0000,1.0000,0.0000,0.0000,0.0000,0.0000,0.0000,0.0000,0.0000,0.0000,0.0000,0.0000,0.0000,0.0000,0.0000,0.0000,0.0000,0.0000,0.0000,0.0000,-0.1000,-0.1000,-0.1000,-0.1000,4
0,-1,0,-10.4906,-0.1577,0.0790,0.0610,0.1210,0.0310,1.1647,23.4375,23.4375,23.4375,23.4375,12.2365,0.0000,0.0000,0.0000,-0.0610,-0.1626,-0.1798,-10.6360,0.0127,-0.0021,-0.0014,0.0000,0.0000,0.0000,0.0000,0.0000,0.0000,0.0000,0.0000,0.0000,0.0000,0.0000,0.0000,0.0000,0.0000,1.0000,0.0000,0.0000,0.0000,0.0000,0.0000,0.0000,0.0000,0.0000,0.0000,0.0000,0.0000,0.0000,0.0000,0.0000,0.0000,0.0000,0.0000,0.0000,-0.1000,-0.1000,-0.1000,-0.1000,4
0,-1,0,-10.4906,-0.1577,0.0790,0.0610,0.1210,0.0310,1.1647,23.4375,23.4375,23.4375,23.4375,12.2355,0.0000,0.1221,-0.1221,-0.0610,-0.1530,-0.2421,-10.6384,0.0128,-0.0022,-0.0014,0.0000,0.0000,0.0000,0.0000,0.0000,0.0000,0.0000,0.0000,0.0000,0.0000,0.0000,0.0000,0.0000,0.0000,1.0000,0.0000,0.0000,0.0000,0.0000,0.0000,0.0000,0.0000,0.0000,0.0000,0.0000,0.0000,0.0000,0.0000,0.0000,0.0000,0.0000,0.0000,0.0000,-0.1000,-0.1000,-0.1000,-0.1000,4
0,-1,0,-10.4906,-0.1577,0.0790,0.0610,0.1210,0.0310,1.1647,23.4375,23.4375,23.4375,23.4375,12.2345,0.0000,0.0000,-0.0610,0.1221,-0.1435,-0.2014,-10.6240,0.0128,-0.0022,-0.0014,0.0000,0.0000,0.0000,0.0000,0.0000,0.0000,0.0000,0.0000,0.0000,0.0000,0.0000,0.0000,0.0000,0.0000,1.0000,0.0000,0.0000,0.0000,0.0000,0.0000,0.0000,0.0000,0.0000,0.0000,0.0000,0.0000,0.0000,0.0000,0.0000,0.0000,0.0000,0.0000,0.0000,-0.1000,-0.1000,-0.1000,-0.1000,4
0,-1,0,-10.4906,-0.1577,0.0790,0.0610,0.1210,0.0310,1.1647,23.4375,23.4375,23.4375,23.4375,12.2333,0.0000,-0.0610,-0.1831,-0.0000,-0.1674,-0.1894,-10.5906,0.0129,-0.0024,-0.0014,0.0000,0.0000,0.0000,0.0000,0.0000,0.0000,0.0000,0.0000,0.0000,0.0000,0.0000,0.0000,0.0000,0.0000,1.0000,0.0000,0.0000,0.0000,0.0000,0.0000,0.0000,0.0000,0.0000,0.0000,0.0000,0.0000,0.0000,0.0000,0.0000,0.0000,0.0000,0.0000,0.0000,-0.1000,-0.1000,-0.1000,-0.1000,4
0,-1,0,-10.4906,-0.1577,0.0790,0.0610,0.1210,0.0310,1.1647,23.4375,23.4375,23.4375,23.4375,12.2321,0.0000,-0.1831,-0.0610,-0.0610,-0.1626,-0.2110,-10.6813,0.0129,-0.0024,-0.0014,0.0000,0.0000,0.0000,0.0000,0.0000,0.0000,0.0000,0.0000,0.0000,0.0000,0.0000,0.0000,0.0000,0.0000,1.0000,0.0000,0.0000,0.0000,0.0000,0.0000,0.0000,0.0000,0.0000,0.0000,0.0000,0.0000,0.0000,0.0000,0.0000,0.0000,0.0000,0.0000,0.0000,-0.1000,-0.1000,-0.1000,-0.1000,4
0,-1,0,-10.4906,-0.1577,0.0790,0.0610,0.1210,0.0310,1.1647,23.4375,23.4375,23.4375,23.4375,12.2300,0.0000,-0.2441,0.0000,-0.0000,-0.1172,-0.1990,-10.6050,0.0129,-0.0024,-0.0014,0.0000,0.0000,0.0000,0.0000,0.0000,0.0000,0.0000,0.0000,0.0000,0.0000,0.0000,0.0000,0.0000,0.0000,1.0000,0.0000,0.0000,0.0000,0.0000,0.0000,0.0000,0.0000,0.0000,0.0000,0.0000,0.0000,0.0000,0.0000,0.0000,0.0000,0.0000,0.0000,0.0000,-0.1000,-0.1000,-0.1000,-0.1000,4
0,-1,0,-10.4906,-0.1577,0.0790,0.0610,0.1210,0.0310,1.1647,23.4375,23.4375,23.4375,23.4375,12.2287,0.0000,0.0000,0.0000,-0.0000,-0.1961,-0.1534,-10.6240,0.0129,-0.0024,-0.0014,0.0000,0.0000,0.0000,0.0000,0.0000,0.0000,0.0000,0.0000,0.0000,0.0000,0.0000,0.0000,0.0000,0.0000,1.0000,0.0000,0.0000,0.0000,0.0000,0.0000,0.0000,0.0000,0.0000,0.0000,0.0000,0.0000,0.0000,0.0000,0.0000,0.0000,0.0000,0.0000,0.0000,-0.1000,-0.1000,-0.1000,-0.1000,4
0,-1,0,-10.4906,-0.1577,0.0790,0.0910,0.1210,0.0210,1.1647,23.4375,23.4375,23.4375,23.4375,12.2280,0.0000,-0.0610,-0.1831,0.1221,-0.1339,-0.2086,-10.5930,0.0129,-0.0024,-0.0014,0.0000,0.0000,0.0000,0.0000,0.0000,0.0000,0.0000,0.0000,0.0000,0.0000,0.0000,0.0000,0.0000,0.0000,1.0000,0.0000,0.0000,0.0000,0.0000,0.0000,0.0000,0.0000,0.0000,0.0000,0.0000,0.0000,0.0000,0.0000,0.0000,0.0000,0.0000,0.0000,0.0000,-0.1000,-0.1000,-0.1000,-0.1000,4
0,-1,0,-10.4906,-0.1577,0.0790,0.0910,0.1210,0.0210,1.1647,23.4375,23.4375,23.4375,23.4375,12.2273,0.0000,0.0610,0.0000,-0.0000,-0.1076,-0.1750,-10.5882,0.0129,-0.0024,-0.0014,0.0000,0.0000,0.0000,0.0000,0.0000,0.0000,0.0000,0.0000,0.0000,0.0000,0.0000,0.0000,0.0000,0.0000,1.0000,0.0000,0.0000,0.0000,0.0000,0.0000,0.0000,0.0000,0.0000,0.0000,0.0000,0.0000,0.0000,0.0000,0.0000,0.0000,0.0000,0.0000,0.0000,-0.1000,-0.1000,-0.1000,-0.1000,4
0,-1,0,-10.5223,-0.1270,0.0949,0.0910,0.1210,0.0210,1.1647,23.4375,23.4375,23.4375,23.4375,12.2263,0.0000,0.0000,-0.0610,-0.0000,-0.1219,-0.2397,-10.6431,0.0129,-0.0024,-0.0014,0.0000,0.0000,0.0000,0.0000,0.0000,0.0000,0.0000,0.0000,0.0000,0.0000,0.0000,0.0000,0.0000,0.0000,1.0000,0.0000,0.0000,0.0000,0.0000,0.0000,0.0000,0.0000,0.0000,0.0000,0.0000,0.0000,0.0000,0.0000,0.0000,0.0000,0.0000,0.0000,0.0000,-0.1000,-0.1000,-0.1000,-0.1000,4
0,-1,0,-10.5223,-0.1270,0.0949,0.0910,0.1210,0.0210,1.1647,23.4375,23.4375,23.4375,23.4375,12.2251,0.0000,0.0000,-0.1221,0.1221,-0.1387,-0.2038,-10.6026,0.0130,-0.0025,-0.0015,0.0000,0.0000,0.0000,0.0000,0.0000,0.0000,0.0000,0.0000,0.0000,0.0000,0.0000,0.0000,0.0000,0.0000,1.0000,0.0000,0.0000,0.0000,0.0000,0.0000,0.0000,0.0000,0.0000,0.0000,0.0000,0.0000,0.0000,0.0000,0.0000,0.0000,0.0000,0.0000,0.0000,-0.1000,-0.1000,-0.1000,-0.1000,4
0,-1,0,-10.5223,-0.1270,0.0949,0.0910,0.1210,0.0210,1.1647,23.4375,23.4375,23.4375,23.4375,12.2239,0.0000,0.0610,-0.1221,0.1831,-0.1387,-0.1822,-10.6288,0.0130,-0.0026,-0.0015,0.0000,0.0000,0.0000,0.0000,0.0000,0.0000,0.0000,0.0000,0.0000,0.0000,0.0000,0.0000,0.0000,0.0000,1.0000,0.0000,0.0000,0.0000,0.0000,0.0000,0.0000,0.0000,0.0000,0.0000,0.0000,0.0000,0.0000,0.0000,0.0000,0.0000,0.0000,0.0000,0.0000,-0.1000,-0.1000,-0.1000,-0.1000,4
0,-1,0,-10.5223,-0.1270,0.0949,0.0910,0.1210,0.0210,1.1647,23.4375,23.4375,23.4375,23.4375,12.2234,0.0000,-0.0610,-0.2441,-0.0000,-0.1076,-0.1702,-10.6169,0.0131,-0.0028,-0.0015,0.0000,0.0000,0.0000,0.0000,0.0000,0.0000,0.0000,0.0000,0.0000,0.0000,0.0000,0.0000,0.0000,0.0000,1.0000,0.0000,0.0000,0.0000,0.0000,0.0000,0.0000,0.0000,0.0000,0.0000,0.0000,0.0000,0.0000,0.0000,0.0000,0.0000,0.0000,0.0000,0.0000,-0.1000,-0.1000,-0.1000,-0.1000,4
0,-1,0,-10.5223,-0.1270,0.0949,0.0910,0.1210,0.0210,1.1647,23.4375,23.4375,23.4375,23.4375,12.2237,0.0000,-0.0610,-0.1831,-0.0000,-0.1578,-0.1774,-10.6789,0.0131,-0.0028,-0.0015,0.0000,0.0000,0.0000,0.0000,0.0000,0.0000,0.0000,0.0000,0.0000,0.0000,0.0000,0.0000,0.0000,0.0000,1.0000,0.0000,0.0000,0.0000,0.0000,0.0000,0.0000,0.0000,0.0000,0.0000,0.0000,0.0000,0.0000,0.0000,0.0000,0.0000,0.0000,0.0000,0.0000,-0.1000,-0.1000,-0.1000,-0.1000,4
0,-1,0,-10.5223,-0.1270,0.0949,0.0910,0.1210,0.0210,1.1647,23.4375,23.4375,23.4375,23.4375,12.2239,0.0000,-0.0610,-0.2441,-0.0000,-0.1721,-0.2062,-10.5668,0.0131,-0.0028,-0.0015,0.0000,0.0000,0.0000,0.0000,0.0000,0.0000,0.0000,0.0000,0.0000,0.0000,0.0000,0.0000,0.0000,0.0000,1.0000,0.0000,0.0000,0.0000,0.0000,0.0000,0.0000,0.0000,0.0000,0.0000,0.0000,0.0000,0.0000,0.0000,0.0000,0.0000,0.0000,0.0000,0.0000,-0.1000,-0.1000,-0.1000,-0.1000,4
0,-1,0,-10.5223,-0.1270,0.0949,0.0910,0.1210,0.0210,1.1647,23.4375,23.4375,23.4375,23.4375,12.2234,0.0000,0.0000,0.0000,0.1221,-0.1339,-0.1654,-10.6336,0.0131,-0.0028,-0.0015,0.0000,0.0000,0.0000,0.0000,0.0000,0.0000,0.0000,0.0000,0.0000,0.0000,0.0000,0.0000,0.0000,0.0000,1.0000,0.0000,0.0000,0.0000,0.0000,0.0000,0.0000,0.0000,0.0000,0.0000,0.0000,0.0000,0.0000,0.0000,0.0000,0.0000,0.0000,0.0000,0.0000,-0.1000,-0.1000,-0.1000,-0.1000,4
0,-1,0,-10.5223,-0.1270,0.0949,0.0910,0.1210,0.0210,1.1647,23.4375,23.4375,23.4375,23.4375,12.2234,0.0000,0.0000,-0.1831,0.1831,-0.1769,-0.1942,-10.6312,0.0131,-0.0029,-0.0015,0.0000,0.0000,0.0000,0.0000,0.0000,0.0000,0.0000,0.0000,0.0000,0.0000,0.0000,0.0000,0.0000,0.0000,1.0000,0.0000,0.0000,0.0000,0.0000,0.0000,0.0000,0.0000,0.0000,0.0000,0.0000,0.0000,0.0000,0.0000,0.0000,0.0000,0.0000,0.0000,0.0000,-0.1000,-0.1000,-0.1000,-0.1000,4
0,-1,0,-10.5223,-0.1270,0.0949,0.0910,0.1210,0.0210,1.1647,23.4375,23.4375,23.4375,23.4375,12.2227,0.0000,-0.0610,-0.1831,-0.0000,-0.1339,-0.1750,-10.6073,0.0131,-0.0029,-0.0015,0.0000,0.0000,0.0000,0.0000,0.0000,0.0000,0.0000,0.0000,0.0000,0.0000,0.0000,0.0000,0.0000,0.0000,1.0000,0.0000,0.0000,0.0000,0.0000,0.0000,0.0000,0.0000,0.0000,0.0000,0.0000,0.0000,0.0000,0.0000,0.0000,0.0000,0.0000,0.0000,0.0000,-0.1000,-0.1000,-0.1000,-0.1000,4
0,-1,0,-10.5223,-0.1270,0.0949,0.0910,0.1210,0.0210,1.1647,23.4375,23.4375,23.4375,23.4375,12.2227,0.0000,-0.0610,-0.3052,-0.0000,-0.1626,-0.1774,-10.6288,0.0131,-0.0029,-0.0015,0.0000,0.0000,0.0000,0.0000,0.0000,0.0000,0.0000,0.0000,0.0000,0.0000,0.0000,0.0000,0.0000,0.0000,1.0000,0.0000,0.0000,0.0000,0.0000,0.0000,0.0000,0.0000,0.0000,0.0000,0.0000,0.0000,0.0000,0.0000,0.0000,0.0000,0.0000,0.0000,0.0000,-0.1000,-0.1000,-0.1000,-0.1000,4
0,-1,0,-10.5223,-0.1270,0.0949,0.0910,0.1210,0.0210,1.1647,23.4375,23.4375,23.4375,23.4375,12.2232,0.0000,0.0000,-0.1221,-0.0000,-0.1482,-0.2110,-10.6193,0.0131,-0.0029,-0.0015,0.0000,0.0000,0.0000,0.0000,0.0000,0.0000,0.0000,0.0000,0.0000,0.0000,0.0000,0.0000,0.0000,0.0000,1.0000,0.0000,0.0000,0.0000,0.0000,0.0000,0.0000,0.0000,0.0000,0.0000,0.0000,0.0000,0.0000,0.0000,0.0000,0.0000,0.0000,0.0000,0.0000,-0.1000,-0.1000,-0.1000,-0.1000,4
0,-1,0,-10.5223,-0.1270,0.0949,0.0910,0.1210,0.0210,1.1647,23.4375,23.4375,23.4375,23.4375,12.2239,0.0000,-0.0610,-0.1831,-0.0000,-0.1745,-0.2014,-10.6193,0.0132,-0.0030,-0.0015,0.0000,0.0000,0.0000,0.0000,0.0000,0.0000,0.0000,0.0000,0.0000,0.0000,0.0000,0.0000,0.0000,0.0000,1.0000,0.0000,0.0000,0.0000,0.0000,0.0000,0.0000,0.0000,0.0000,0.0000,0.0000,0.0000,0.0000,0.0000,0.0000,0.0000,0.0000,0.0000,0.0000,-0.1000,-0.1000,-0.1000,-0.1000,4
0,-1,0,-10.5223,-0.1270,0.0949,0.0910,0.1210,0.0210,1.1647,23.4375,23.4375,23.4375,23.4375,12.2239,0.0000,0.0610,0.0000,-0.0610,-0.1506,-0.2397,-10.5524,0.0132,-0.0030,-0.0015,0.0000,0.0000,0.0000,0.0000,0.0000,0.0000,0.0000,0.0000,0.0000,0.0000,0.0000,0.0000,0.0000,0.0000,1.0000,0.0000,0.0000,0.0000,0.0000,0.0000,0.0000,0.0000,0.0000,0.0000,0.0000,0.0000,0.0000,0.0000,0.0000,0.0000,0.0000,0.0000,0.0000,-0.1000,-0.1000,-0.1000,-0.1000,4
0,-1,0,-10.5223,-0.1270,0.0949,0.0910,0.1210,0.0210,1.1647,23.4375,23.4375,23.4375,23.4375,12.2234,0.0000,0.1221,-0.1831,-0.0000,-0.1674,-0.2062,-10.5882,0.0132,-0.0030,-0.0015,0.0000,0.0000,0.0000,0.0000,0.0000,0.0000,0.0000,0.0000,0.0000,0.0000,0.0000,0.0000,0.0000,0.0000,1.0000,0.0000,0.0000,0.0000,0.0000,0.0000,0.0000,0.0000,0.0000,0.0000,0.0000,0.0000,0.0000,0.0000,0.0000,0.0000,0.0000,0.0000,0.0000,-0.1000,-0.1000,-0.1000,-0.1000,4
0,-1,0,-10.5223,-0.1270,0.0949,0.0910,0.1210,0.0210,1.1647,23.4375,23.4375,23.4375,23.4375,12.2234,0.0000,0.0000,-0.1831,-0.0610,-0.1530,-0.2182,-10.5644,0.0132,-0.0030,-0.0015,0.0000,0.0000,0.0000,0.0000,0.0000,0.0000,0.0000,0.0000,0.0000,0.0000,0.0000,0.0000,0.0000,0.0000,1.0000,0.0000,0.0000,0.0000,0.0000,0.0000,0.0000,0.0000,0.0000,0.0000,0.0000,0.0000,0.0000,0.0000,0.0000,0.0000,0.0000,0.0000,0.0000,-0.1000,-0.1000,-0.1000,-0.1000,4
0,-1,0,-10.5207,-0.1577,-0.0227,-0.0290,0.2010,-0.0290,1.1647,23.4375,23.4375,23.4375,23.4375,12.2237,0.0000,0.0000,0.0000,-0.0610,-0.1435,-0.2158,-10.6217,0.0132,-0.0030,-0.0015,0.0000,0.0000,0.0000,0.0000,0.0000,0.0000,0.0000,0.0000,0.0000,0.0000,0.0000,0.0000,0.0000,0.0000,1.0000,0.0000,0.0000,0.0000,0.0000,0.0000,0.0000,0.0000,0.0000,0.0000,0.0000,0.0000,0.0000,0.0000,0.0000,0.0000,0.0000,0.0000,0.0000,-0.1000,-0.1000,-0.1000,-0.1000,4
0,-1,0,-10.5207,-0.1577,-0.0227,-0.0290,0.2010,-0.0290,1.1647,23.4375,23.4375,23.4375,23.4375,12.2246,0.0000,0.0000,0.0000,-0.0000,-0.1745,-0.1822,-10.6026,0.0133,-0.0032,-0.0016,0.0000,0.0000,0.0000,0.0000,0.0000,0.0000,0.0000,0.0000,0.0000,0.0000,0.0000,0.0000,0.0000,0.0000,1.0000,0.0000,0.0000,0.0000,0.0000,0.0000,0.0000,0.0000,0.0000,0.0000,0.0000,0.0000,0.0000,0.0000,0.0000,0.0000,0.0000,0.0000,0.0000,-0.1000,-0.1000,-0.1000,-0.1000,4
0,-1,0,-10.5207,-0.1577,-0.0227,-0.0290,0.2010,-0.0290,1.1647,23.4375,23.4375,23.4375,23.4375,12.2244,0.0000,0.3052,0.0610,-0.0000,-0.0693,-0.1942,-10.5882,0.0134,-0.0032,-0.0016,0.0000,0.0000,0.0000,0.0000,0.0000,0.0000,0.0000,0.0000,0.0000,0.0000,0.0000,0.0000,0.0000,0.0000,1.0000,0.0000,0.0000,0.0000,0.0000,0.0000,0.0000,0.0000,0.0000,0.0000,0.0000,0.0000,0.0000,0.0000,0.0000,0.0000,0.0000,0.0000,0.0000,-0.1000,-0.1000,-0.1000,-0.1000,4
0,-1,0,-10.5207,-0.1577,-0.0227,-0.0290,0.2010,-0.0290,1.1647,23.4375,23.4375,23.4375,23.4375,12.2242,0.0000,0.0000,0.0000,-0.0610,-0.1387,-0.1438,-10.5811,0.0134,-0.0032,-0.0016,0.0000,0.0000,0.0000,0.0000,0.0000,0.0000,0.0000,0.0000,0.0000,0.0000,0.0000,0.0000,0.0000,0.0000,1.0000,0.0000,0.0000,0.0000,0.0000,0.0000,0.0000,0.0000,0.0000,0.0000,0.0000,0.0000,0.0000,0.0000,0.0000,0.0000,0.0000,0.0000,0.0000,-0.1000,-0.1000,-0.1000,-0.1000,4
0,-1,0,-10.5207,-0.1577,-0.0227,-0.0290,0.2010,-0.0290,1.1647,23.4375,23.4375,23.4375,23.4375,12.2242,0.0000,0.0610,-0.1221,-0.0610,-0.1530,-0.1966,-10.6073,0.0134,-0.0032,-0.0016,0.0000,0.0000,0.0000,0.0000,0.0000,0.0000,0.0000,0.0000,0.0000,0.0000,0.0000,0.0000,0.0000,0.0000,1.0000,0.0000,0.0000,0.0000,0.0000,0.0000,0.0000,0.0000,0.0000,0.0000,0.0000,0.0000,0.0000,0.0000,0.0000,0.0000,0.0000,0.0000,0.0000,-0.1000,-0.1000,-0.1000,-0.1000,4
0,-1,0,-10.5207,-0.1577,-0.0227,-0.0290,0.2010,-0.0290,1.1647,23.4375,23.4375,23.4375,23.4375,12.2242,0.0000,-0.1221,-0.0610,0.1221,-0.1650,-0.1918,-10.6121,0.0134,-0.0032,-0.0016,0.0000,0.0000,0.0000,0.0000,0.0000,0.0000,0.0000,0.0000,0.0000,0.0000,0.0000,0.0000,0.0000,0.0000,1.0000,0.0000,0.0000,0.0000,0.0000,0.0000,0.0000,0.0000,0.0000,0.0000,0.0000,0.0000,0.0000,0.0000,0.0000,0.0000,0.0000,0.0000,0.0000,-0.1000,-0.1000,-0.1000,-0.1000,4
0,-1,0,-10.5207,-0.1577,-0.0227,-0.0290,0.2010,-0.0290,1.1647,23.4375,23.4375,23.4375,23.4375,12.2244,0.0000,-0.1831,-0.2441,0.1221,-0.1937,-0.2206,-10.5763,0.0134,-0.0033,-0.0016,0.0000,0.0000,0.0000,0.0000,0.0000,0.0000,0.0000,0.0000,0.0000,0.0000,0.0000,0.0000,0.0000,0.0000,1.0000,0.0000,0.0000,0.0000,0.0000,0.0000,0.0000,0.0000,0.0000,0.0000,0.0000,0.0000,0.0000,0.0000,0.0000,0.0000,0.0000,0.0000,0.0000,-0.1000,-0.1000,-0.1000,-0.1000,4
0,-1,0,-10.5207,-0.1577,-0.0227,-0.0290,0.2010,-0.0290,1.1647,23.4375,23.4375,23.4375,23.4375,12.2246,0.0000,0.0610,-0.1221,-0.0000,-0.1387,-0.1894,-10.5668,0.0134,-0.0033,-0.0016,0.0000,0.0000,0.0000,0.0000,0.0000,0.0000,0.0000,0.0000,0.0000,0.0000,0.0000,0.0000,0.0000,0.0000,1.0000,0.0000,0.0000,0.0000,0.0000,0.0000,0.0000,0.0000,0.0000,0.0000,0.0000,0.0000,0.0000,0.0000,0.0000,0.0000,0.0000,0.0000,0.0000,-0.1000,-0.1000,-0.1000,-0.1000,4
0,-1,0,-10.5207,-0.1577,-0.0227,-0.0290,0.2010,-0.0290,1.1647,23.4375,23.4375,23.4375,23.4375,12.2249,0.0000,-0.1831,-0.1831,-0.0000,-0.1506,-0.2014,-10.5930,0.0134,-0.0033,-0.0016,0.0000,0.0000,0.0000,0.0000,0.0000,0.0000,0.0000,0.0000,0.0000,0.0000,0.0000,0.0000,0.0000,0.0000,1.0000,0.0000,0.0000,0.0000,0.0000,0.0000,0.0000,0.0000,0.0000,0.0000,0.0000,0.0000,0.0000,0.0000,0.0000,0.0000,0.0000,0.0000,0.0000,-0.1000,-0.1000,-0.1000,-0.1000,4
0,-1,0,-10.5207,-0.1577,-0.0227,-0.0290,0.2010,-0.0290,1.1647,23.4375,23.4375,23.4375,23.4375,12.2249,0.0000,0.0000,-0.0610,-0.0000,-0.1506,-0.1894,-10.5310,0.0134,-0.0033,-0.0016,0.0000,0.0000,0.0000,0.0000,0.0000,0.0000,0.0000,0.0000,0.0000,0.0000,0.0000,0.0000,0.0000,0.0000,1.0000,0.0000,0.0000,0.0000,0.0000,0.0000,0.0000,0.0000,0.0000,0.0000,0.0000,0.0000,0.0000,0.0000,0.0000,0.0000,0.0000,0.0000,0.0000,-0.1000,-0.1000,-0.1000,-0.1000,4
0,-1,0,-10.5207,-0.1577,-0.0227,-0.0290,0.2010,-0.0290,1.1647,23.4375,23.4375,23.4375,23.4375,12.2242,0.0000,0.0610,-0.1831,-0.0000,-0.1387,-0.1678,-10.5405,0.0135,-0.0034,-0.0016,0.0000,0.0000,0.0000,0.0000,0.0000,0.0000,0.0000,0.0000,0.0000,0.0000,0.0000,0.0000,0.0000,0.0000,1.0000,0.0000,0.0000,0.0000,0.0000,0.0000,0.0000,0.0000,0.0000,0.0000,0.0000,0.0000,0.0000,0.0000,0.0000,0.0000,0.0000,0.0000,0.0000,-0.1000,-0.1000,-0.1000,-0.1000,4
0,-1,0,-10.5207,-0.1577,-0.0227,-0.0290,0.2010,-0.0290,1.1647,23.4375,23.4375,23.4375,23.4375,12.2249,0.0000,0.0610,0.0610,0.1221,-0.1793,-0.1966,-10.6240,0.0135,-0.0034,-0.0016,0.0000,0.0000,0.0000,0.0000,0.0000,0.0000,0.0000,0.0000,0.0000,0.0000,0.0000,0.0000,0.0000,0.0000,1.0000,0.0000,0.0000,0.0000,0.0000,0.0000,0.0000,0.0000,0.0000,0.0000,0.0000,0.0000,0.0000,0.0000,0.0000,0.0000,0.0000,0.0000,0.0000,-0.1000,-0.1000,-0.1000,-0.1000,4
0,-1,0,-10.5207,-0.1577,-0.0227,-0.0290,0.2010,-0.0290,1.1647,23.4375,23.4375,23.4375,23.4375,12.2246,0.0000,0.0610,-0.0610,-0.0000,-0.1554,-0.1870,-10.6145,0.0135,-0.0034,-0.0016,0.0000,0.0000,0.0000,0.0000,0.0000,0.0000,0.0000,0.0000,0.0000,0.0000,0.0000,0.0000,0.0000,0.0000,1.0000,0.0000,0.0000,0.0000,0.0000,0.0000,0.0000,0.0000,0.0000,0.0000,0.0000,0.0000,0.0000,0.0000,0.0000,0.0000,0.0000,0.0000,0.0000,-0.1000,-0.1000,-0.1000,-0.1000,4
0,-1,0,-10.5207,-0.1577,-0.0227,-0.0290,0.2010,-0.0290,1.1647,23.4375,23.4375,23.4375,23.4375,12.2246,0.0000,0.1221,-0.1221,-0.0000,-0.2080,-0.1414,-10.5381,0.0135,-0.0034,-0.0016,0.0000,0.0000,0.0000,0.0000,0.0000,0.0000,0.0000,0.0000,0.0000,0.0000,0.0000,0.0000,0.0000,0.0000,1.0000,0.0000,0.0000,0.0000,0.0000,0.0000,0.0000,0.0000,0.0000,0.0000,0.0000,0.0000,0.0000,0.0000,0.0000,0.0000,0.0000,0.0000,0.0000,-0.1000,-0.1000,-0.1000,-0.1000,4
0,-1,0,-10.5207,-0.1577,-0.0227,-0.0290,0.2010,-0.0290,1.1647,23.4375,23.4375,23.4375,23.4375,12.2246,0.0000,0.0000,-0.1831,0.1221,-0.1889,-0.2014,-10.5644,0.0135,-0.0034,-0.0016,0.0000,0.0000,0.0000,0.0000,0.0000,0.0000,0.0000,0.0000,0.0000,0.0000,0.0000,0.0000,0.0000,0.0000,1.0000,0.0000,0.0000,0.0000,0.0000,0.0000,0.0000,0.0000,0.0000,0.0000,0.0000,0.0000,0.0000,0.0000,0.0000,0.0000,0.0000,0.0000,0.0000,-0.1000,-0.1000,-0.1000,-0.1000,4
0,-1,0,-10.5207,-0.1577,-0.0227,-0.0290,0.2010,-0.0290,1.1647,23.4375,23.4375,23.4375,23.4375,12.2239,0.0000,0.0610,-0.1221,-0.0000,-0.1482,-0.2469,-10.6169,0.0135,-0.0035,-0.0016,0.0000,0.0000,0.0000,0.0000,0.0000,0.0000,0.0000,0.0000,0.0000,0.0000,0.0000,0.0000,0.0000,0.0000,1.0000,0.0000,0.0000,0.0000,0.0000,0.0000,0.0000,0.0000,0.0000,0.0000,0.0000,0.0000,0.0000,0.0000,0.0000,0.0000,0.0000,0.0000,0.0000,-0.1000,-0.1000,-0.1000,-0.1000,4
0,-1,0,-10.5207,-0.1577,-0.0227,-0.0290,0.2010,-0.0290,1.1647,23.4375,23.4375,23.4375,23.4375,12.2249,0.0000,-0.0610,-0.1221,-0.0610,-0.1817,-0.1918,-10.5787,0.0136,-0.0035,-0.0016,0.0000,0.0000,0.0000,0.0000,0.0000,0.0000,0.0000,0.0000,0.0000,0.0000,0.0000,0.0000,0.0000,0.0000,1.0000,0.0000,0.0000,0.0000,0.0000,0.0000,0.0000,0.0000,0.0000,0.0000,0.0000,0.0000,0.0000,0.0000,0.0000,0.0000,0.0000,0.0000,0.0000,-0.1000,-0.1000,-0.1000,-0.1000,4
0,-1,0,-10.5207,-0.1577,-0.0227,-0.0290,0.2010,-0.0290,1.1647,23.4375,23.4375,23.4375,23.4375,12.2256,0.0000,-0.0610,-0.1221,-0.0000,-0.1411,-0.1822,-10.6097,0.0136,-0.0035,-0.0016,0.0000,0.0000,0.0000,0.0000,0.0000,0.0000,0.0000,0.0000,0.0000,0.0000,0.0000,0.0000,0.0000,0.0000,1.0000,0.0000,0.0000,0.0000,0.0000,0.0000,0.0000,0.0000,0.0000,0.0000,0.0000,0.0000,0.0000,0.0000,0.0000,0.0000,0.0000,0.0000,0.0000,-0.1000,-0.1000,-0.1000,-0.1000,4
0,-1,0,-10.5207,-0.1577,-0.0227,-0.0290,0.2010,-0.0290,1.1647,23.4375,23.4375,23.4375,23.4375,12.2258,0.0000,0.0000,-0.1831,0.1221,-0.1195,-0.1678,-10.6217,0.0136,-0.0035,-0.0016,0.0000,0.0000,0.0000,0.0000,0.0000,0.0000,0.0000,0.0000,0.0000,0.0000,0.0000,0.0000,0.0000,0.0000,1.0000,0.0000,0.0000,0.0000,0.0000,0.0000,0.0000,0.0000,0.0000,0.0000,0.0000,0.0000,0.0000,0.0000,0.0000,0.0000,0.0000,0.0000,0.0000,-0.1000,-0.1000,-0.1000,-0.1000,4
0,-1,0,-10.5207,-0.1577,-0.0227,-0.0290,0.2010,-0.0290,1.1647,23.4375,23.4375,23.4375,23.4375,12.2258,0.0000,-0.0610,-0.1831,-0.0000,-0.1458,-0.2373,-10.5691,0.0136,-0.0035,-0.0016,0.0000,0.0000,0.0000,0.0000,0.0000,0.0000,0.0000,0.0000,0.0000,0.0000,0.0000,0.0000,0.0000,0.0000,1.0000,0.0000,0.0000,0.0000,0.0000,0.0000,0.0000,0.0000,0.0000,0.0000,0.0000,0.0000,0.0000,0.0000,0.0000,0.0000,0.0000,0.0000,0.0000,-0.1000,-0.1000,-0.1000,-0.1000,4
0,-1,0,-10.5207,-0.1577,-0.0227,-0.0290,0.2010,-0.0290,1.1647,23.4375,23.4375,23.4375,23.4375,12.2251,0.0000,-0.0610,-0.1831,-0.0000,-0.1315,-0.2038,-10.6479,0.0136,-0.0036,-0.0016,0.0000,0.0000,0.0000,0.0000,0.0000,0.0000,0.0000,0.0000,0.0000,0.0000,0.0000,0.0000,0.0000,0.0000,1.0000,0.0000,0.0000,0.0000,0.0000,0.0000,0.0000,0.0000,0.0000,0.0000,0.0000,0.0000,0.0000,0.0000,0.0000,0.0000,0.0000,0.0000,0.0000,-0.1000,-0.1000,-0.1000,-0.1000,4
0,-1,0,-10.5207,-0.1577,-0.0227,-0.0290,0.2010,-0.0290,1.1647,23.4375,23.4375,23.4375,23.4375,12.2254,0.0000,-0.0610,-0.2441,-0.0610,-0.1339,-0.2253,-10.5882,0.0136,-0.0036,-0.0016,0.0000,0.0000,0.0000,0.0000,0.0000,0.0000,0.0000,0.0000,0.0000,0.0000,0.0000,0.0000,0.0000,0.0000,1.0000,0.0000,0.0000,0.0000,0.0000,0.0000,0.0000,0.0000,0.0000,0.0000,0.0000,0.0000,0.0000,0.0000,0.0000,0.0000,0.0000,0.0000,0.0000,-0.1000,-0.1000,-0.1000,-0.1000,4
0,-1,0,-10.5207,-0.1577,-0.0227,0.0810,-0.0890,-0.0890,1.1647,23.4375,23.4375,23.4375,23.4375,12.2251,0.0000,-0.0610,-0.1831,-0.0610,-0.1291,-0.2182,-10.6503,0.0136,-0.0036,-0.0017,0.0000,0.0000,0.0000,0.0000,0.0000,0.0000,0.0000,0.0000,0.0000,0.0000,0.0000,0.0000,0.0000,0.0000,1.0000,0.0000,0.0000,0.0000,0.0000,0.0000,0.0000,0.0000,0.0000,0.0000,0.0000,0.0000,0.0000,0.0000,0.0000,0.0000,0.0000,0.0000,0.0000,-0.1000,-0.1000,-0.1000,-0.1000,4
0,-1,0,-10.4013,0.1630,0.1467,0.0810,-0.0890,-0.0890,1.1647,23.4375,23.4375,23.4375,23.4375,12.2246,0.0000,-0.0610,-0.2441,0.1221,-0.1363,-0.1942,-10.6885,0.0136,-0.0036,-0.0016,0.0000,0.0000,0.0000,0.0000,0.0000,0.0000,0.0000,0.0000,0.0000,0.0000,0.0000,0.0000,0.0000,0.0000,1.0000,0.0000,0.0000,0.0000,0.0000,0.0000,0.0000,0.0000,0.0000,0.0000,0.0000,0.0000,0.0000,0.0000,0.0000,0.0000,0.0000,0.0000,0.0000,-0.1000,-0.1000,-0.1000,-0.1000,4
0,-1,0,-10.4013,0.1630,0.1467,0.0810,-0.0890,-0.0890,1.1647,23.4375,23.4375,23.4375,23.4375,12.2242,0.0000,-0.1831,-0.1831,-0.0610,-0.1793,-0.1990,-10.5501,0.0136,-0.0037,-0.0017,0.0000,0.0000,0.0000,0.0000,0.0000,0.0000,0.0000,0.0000,0.0000,0.0000,0.0000,0.0000,0.0000,0.0000,1.0000,0.0000,0.0000,0.0000,0.0000,0.0000,0.0000,0.0000,0.0000,0.0000,0.0000,0.0000,0.0000,0.0000,0.0000,0.0000,0.0000,0.0000,0.0000,-0.1000,-0.1000,-0.1000,-0.1000,4
0,-1,0,-10.4013,0.1630,0.1467,0.0810,-0.0890,-0.0890,1.1647,23.4375,23.4375,23.4375,23.4375,12.2246,0.0000,0.1221,-0.1221,-0.0000,-0.1387,-0.1990,-10.5811,0.0138,0.0037,-0.0017,0.0000,0.0000,0.0000,0.0000,0.0000,0.0000,0.0000,0.0000,0.0000,0.0000,0.0000,0.0000,0.0000,0.0000,1.0000,0.0000,0.0000,0.0000,0.0000,0.0000,0.0000,0.0000,0.0000,0.0000,0.0000,0.0000,0.0000,0.0000,0.0000,0.0000,0.0000,0.0000,0.0000,-0.1000,-0.1000,-0.1000,-0.1000,4
0,-1,0,-10.4013,0.1630,0.1467,0.0810,-0.0890,-0.0890,1.1647,23.4375,23.4375,23.4375,23.4375,12.2246,0.0000,-0.0610,-0.2441,-0.0000,-0.1458,-0.1534,-10.5739,0.0138,0.0037,-0.0017,0.0000,0.0000,0.0000,0.0000,0.0000,0.0000,0.0000,0.0000,0.0000,0.0000,0.0000,0.0000,0.0000,0.0000,1.0000,0.0000,0.0000,0.0000,0.0000,0.0000,0.0000,0.0000,0.0000,0.0000,0.0000,0.0000,0.0000,0.0000,0.0000,0.0000,0.0000,0.0000,0.0000,-0.1000,-0.1000,-0.1000,-0.1000,4
0,-1,0,-10.4013,0.1630,0.1467,0.0810,-0.0890,-0.0890,1.1647,23.4375,23.4375,23.4375,23.4375,12.2246,0.0000,-0.0610,-0.1221,0.1221,-0.1172,-0.2062,-10.6718,0.0138,0.0037,-0.0017,0.0000,0.0000,0.0000,0.0000,0.0000,0.0000,0.0000,0.0000,0.0000,0.0000,0.0000,0.0000,0.0000,0.0000,1.0000,0.0000,0.0000,0.0000,0.0000,0.0000,0.0000,0.0000,0.0000,0.0000,0.0000,0.0000,0.0000,0.0000,0.0000,0.0000,0.0000,0.0000,0.0000,-0.1000,-0.1000,-0.1000,-0.1000,4
0,-1,0,-10.4013,0.1630,0.1467,0.0810,-0.0890,-0.0890,1.1647,23.4375,23.4375,23.4375,23.4375,12.2246,0.0000,-0.0610,-0.3052,-0.0000,-0.1195,-0.1606,-10.5763,0.0138,0.0036,-0.0017,0.0000,0.0000,0.0000,0.0000,0.0000,0.0000,0.0000,0.0000,0.0000,0.0000,0.0000,0.0000,0.0000,0.0000,1.0000,0.0000,0.0000,0.0000,0.0000,0.0000,0.0000,0.0000,0.0000,0.0000,0.0000,0.0000,0.0000,0.0000,0.0000,0.0000,0.0000,0.0000,0.0000,-0.1000,-0.1000,-0.1000,-0.1000,4
0,-1,0,-10.4013,0.1630,0.1467,0.0810,-0.0890,-0.0890,1.1647,23.4375,23.4375,23.4375,23.4375,12.2242,0.0000,-0.0610,-0.1831,-0.0000,-0.1435,-0.2134,-10.5787,0.0138,0.0036,-0.0017,0.0000,0.0000,0.0000,0.0000,0.0000,0.0000,0.0000,0.0000,0.0000,0.0000,0.0000,0.0000,0.0000,0.0000,1.0000,0.0000,0.0000,0.0000,0.0000,0.0000,0.0000,0.0000,0.0000,0.0000,0.0000,0.0000,0.0000,0.0000,0.0000,0.0000,0.0000,0.0000,0.0000,-0.1000,-0.1000,-0.1000,-0.1000,4
0,-1,0,-10.4013,0.1630,0.1467,0.0810,-0.0890,-0.0890,1.1647,23.4375,23.4375,23.4375,23.4375,12.2251,0.0000,-0.0610,-0.1831,-0.0000,-0.1530,-0.1942,-10.5691,0.0138,0.0036,-0.0017,0.0000,0.0000,0.0000,0.0000,0.0000,0.0000,0.0000,0.0000,0.0000,0.0000,0.0000,0.0000,0.0000,0.0000,1.0000,0.0000,0.0000,0.0000,0.0000,0.0000,0.0000,0.0000,0.0000,0.0000,0.0000,0.0000,0.0000,0.0000,0.0000,0.0000,0.0000,0.0000,0.0000,-0.1000,-0.1000,-0.1000,-0.1000,4
0,-1,0,-10.4013,0.1630,0.1467,0.0810,-0.0890,-0.0890,1.1647,23.4375,23.4375,23.4375,23.4375,12.2258,0.0000,-0.2441,-0.1831,0.1221,-0.1435,-0.1726,-10.6288,0.0138,0.0035,-0.0017,0.0000,0.0000,0.0000,0.0000,0.0000,0.0000,0.0000,0.0000,0.0000,0.0000,0.0000,0.0000,0.0000,0.0000,1.0000,0.0000,0.0000,0.0000,0.0000,0.0000,0.0000,0.0000,0.0000,0.0000,0.0000,0.0000,0.0000,0.0000,0.0000,0.0000,0.0000,0.0000,0.0000,-0.1000,-0.1000,-0.1000,-0.1000,4
0,-1,0,-10.4013,0.1630,0.1467,0.0810,-0.0890,-0.0890,1.1647,23.4375,23.4375,23.4375,23.4375,12.2261,0.0000,0.0000,-0.1221,-0.0000,-0.1435,-0.2182,-10.6240,0.0138,0.0035,-0.0017,0.0000,0.0000,0.0000,0.0000,0.0000,0.0000,0.0000,0.0000,0.0000,0.0000,0.0000,0.0000,0.0000,0.0000,1.0000,0.0000,0.0000,0.0000,0.0000,0.0000,0.0000,0.0000,0.0000,0.0000,0.0000,0.0000,0.0000,0.0000,0.0000,0.0000,0.0000,0.0000,0.0000,-0.1000,-0.1000,-0.1000,-0.1000,4
0,-1,0,-10.4013,0.1630,0.1467,0.0810,-0.0890,-0.0890,1.1647,23.4375,23.4375,23.4375,23.4375,12.2258,0.0000,0.0000,0.0000,0.1221,-0.1435,-0.1798,-10.6455,0.0138,0.0035,-0.0017,0.0000,0.0000,0.0000,0.0000,0.0000,0.0000,0.0000,0.0000,0.0000,0.0000,0.0000,0.0000,0.0000,0.0000,1.0000,0.0000,0.0000,0.0000,0.0000,0.0000,0.0000,0.0000,0.0000,0.0000,0.0000,0.0000,0.0000,0.0000,0.0000,0.0000,0.0000,0.0000,0.0000,-0.1000,-0.1000,-0.1000,-0.1000,4
0,-1,0,-10.4013,0.1630,0.1467,0.0810,-0.0890,-0.0890,1.1647,23.4375,23.4375,23.4375,23.4375,12.2261,0.0000,-0.0610,-0.1221,-0.0610,-0.1458,-0.2230,-10.6050,0.0138,0.0035,-0.0017,0.0000,0.0000,0.0000,0.0000,0.0000,0.0000,0.0000,0.0000,0.0000,0.0000,0.0000,0.0000,0.0000,0.0000,1.0000,0.0000,0.0000,0.0000,0.0000,0.0000,0.0000,0.0000,0.0000,0.0000,0.0000,0.0000,0.0000,0.0000,0.0000,0.0000,0.0000,0.0000,0.0000,-0.1000,-0.1000,-0.1000,-0.1000,4
0,-1,0,-10.4013,0.1630,0.1467,0.0810,-0.0890,-0.0890,1.1647,23.4375,23.4375,23.4375,23.4375,12.2263,0.0000,-0.0610,-0.1221,-0.0000,-0.1865,-0.1438,-10.6718,0.0138,0.0035,-0.0017,0.0000,0.0000,0.0000,0.0000,0.0000,0.0000,0.0000,0.0000,0.0000,0.0000,0.0000,0.0000,0.0000,0.0000,1.0000,0.0000,0.0000,0.0000,0.0000,0.0000,0.0000,0.0000,0.0000,0.0000,0.0000,0.0000,0.0000,0.0000,0.0000,0.0000,0.0000,0.0000,0.0000,-0.1000,-0.1000,-0.1000,-0.1000,4
0,-1,0,-10.4013,0.1630,0.1467,0.0810,-0.0890,-0.0890,1.1647,23.4375,23.4375,23.4375,23.4375,12.2249,0.0000,-0.0610,-0.1221,-0.0000,-0.1841,-0.1462,-10.5620,0.0138,0.0034,-0.0017,0.0000,0.0000,0.0000,0.0000,0.0000,0.0000,0.0000,0.0000,0.0000,0.0000,0.0000,0.0000,0.0000,0.0000,1.0000,0.0000,0.0000,0.0000,0.0000,0.0000,0.0000,0.0000,0.0000,0.0000,0.0000,0.0000,0.0000,0.0000,0.0000,0.0000,0.0000,0.0000,0.0000,-0.1000,-0.1000,-0.1000,-0.1000,4
0,-1,0,-10.4013,0.1630,0.1467,0.0810,-0.0890,-0.0890,1.1647,23.4375,23.4375,23.4375,23.4375,12.2242,0.0000,0.0000,0.0000,-0.0610,-0.1506,-0.2253,-10.6073,0.0138,0.0034,-0.0017,0.0000,0.0000,0.0000,0.0000,0.0000,0.0000,0.0000,0.0000,0.0000,0.0000,0.0000,0.0000,0.0000,0.0000,1.0000,0.0000,0.0000,0.0000,0.0000,0.0000,0.0000,0.0000,0.0000,0.0000,0.0000,0.0000,0.0000,0.0000,0.0000,0.0000,0.0000,0.0000,0.0000,-0.1000,-0.1000,-0.1000,-0.1000,4
0,-1,0,-10.4013,0.1630,0.1467,0.0810,-0.0890,-0.0890,1.1647,23.4375,23.4375,23.4375,23.4375,12.2239,0.0000,-0.0610,-0.3052,0.1221,-0.1028,-0.1678,-10.6217,0.0138,0.0034,-0.0017,0.0000,0.0000,0.0000,0.0000,0.0000,0.0000,0.0000,0.0000,0.0000,0.0000,0.0000,0.0000,0.0000,0.0000,1.0000,0.0000,0.0000,0.0000,0.0000,0.0000,0.0000,0.0000,0.0000,0.0000,0.0000,0.0000,0.0000,0.0000,0.0000,0.0000,0.0000,0.0000,0.0000,-0.1000,-0.1000,-0.1000,-0.1000,4
0,-1,0,-10.4013,0.1630,0.1467,0.0810,-0.0890,-0.0890,1.1647,23.4375,23.4375,23.4375,23.4375,12.2239,0.0000,0.0000,-0.0610,-0.0000,-0.1841,-0.1798,-10.6503,0.0139,0.0034,-0.0017,0.0000,0.0000,0.0000,0.0000,0.0000,0.0000,0.0000,0.0000,0.0000,0.0000,0.0000,0.0000,0.0000,0.0000,1.0000,0.0000,0.0000,0.0000,0.0000,0.0000,0.0000,0.0000,0.0000,0.0000,0.0000,0.0000,0.0000,0.0000,0.0000,0.0000,0.0000,0.0000,0.0000,-0.1000,-0.1000,-0.1000,-0.1000,4
0,-1,0,-10.4013,0.1630,0.1467,0.0810,-0.0690,-0.0690,1.1647,23.4375,23.4375,23.4375,23.4375,12.2242,0.0000,-0.0610,-0.1831,-0.0000,-0.1411,-0.2086,-10.5023,0.0139,0.0033,-0.0017,0.0000,0.0000,0.0000,0.0000,0.0000,0.0000,0.0000,0.0000,0.0000,0.0000,0.0000,0.0000,0.0000,0.0000,1.0000,0.0000,0.0000,0.0000,0.0000,0.0000,0.0000,0.0000,0.0000,0.0000,0.0000,0.0000,0.0000,0.0000,0.0000,0.0000,0.0000,0.0000,0.0000,-0.1000,-0.1000,-0.1000,-0.1000,4
0,-1,0,-10.4013,0.1630,0.1467,0.0810,-0.0690,-0.0690,1.1647,23.4375,23.4375,23.4375,23.4375,12.2234,0.0000,-0.0610,-0.2441,-0.0000,-0.1315,-0.1343,-10.6288,0.0139,0.0033,-0.0017,0.0000,0.0000,0.0000,0.0000,0.0000,0.0000,0.0000,0.0000,0.0000,0.0000,0.0000,0.0000,0.0000,0.0000,1.0000,0.0000,0.0000,0.0000,0.0000,0.0000,0.0000,0.0000,0.0000,0.0000,0.0000,0.0000,0.0000,0.0000,0.0000,0.0000,0.0000,0.0000,0.0000,-0.1000,-0.1000,-0.1000,-0.1000,4
0,-1,0,-10.4073,0.1415,0.1641,0.0810,-0.0690,-0.0690,1.1647,23.4375,23.4375,23.4375,23.4375,12.2242,0.0000,0.0000,0.0000,-0.0610,-0.1554,-0.1894,-10.6384,0.0139,0.0033,-0.0017,0.0000,0.0000,0.0000,0.0000,0.0000,0.0000,0.0000,0.0000,0.0000,0.0000,0.0000,0.0000,0.0000,0.0000,1.0000,0.0000,0.0000,0.0000,0.0000,0.0000,0.0000,0.0000,0.0000,0.0000,0.0000,0.0000,0.0000,0.0000,0.0000,0.0000,0.0000,0.0000,0.0000,-0.1000,-0.1000,-0.1000,-0.1000,4
0,-1,0,-10.4073,0.1415,0.1641,0.0810,-0.0690,-0.0690,1.1647,23.4375,23.4375,23.4375,23.4375,12.2242,0.0000,-0.0610,-0.3052,0.1221,-0.1387,-0.2373,-10.5596,0.0139,0.0032,-0.0017,0.0000,0.0000,0.0000,0.0000,0.0000,0.0000,0.0000,0.0000,0.0000,0.0000,0.0000,0.0000,0.0000,0.0000,1.0000,0.0000,0.0000,0.0000,0.0000,0.0000,0.0000,0.0000,0.0000,0.0000,0.0000,0.0000,0.0000,0.0000,0.0000,0.0000,0.0000,0.0000,0.0000,-0.1000,-0.1000,-0.1000,-0.1000,4
0,-1,0,-10.4073,0.1415,0.1641,0.0810,-0.0690,-0.0690,1.1647,23.4375,23.4375,23.4375,23.4375,12.2237,0.0000,0.0000,-0.1221,-0.0000,-0.1554,-0.2301,-10.5811,0.0139,0.0031,-0.0017,0.0000,0.0000,0.0000,0.0000,0.0000,0.0000,0.0000,0.0000,0.0000,0.0000,0.0000,0.0000,0.0000,0.0000,1.0000,0.0000,0.0000,0.0000,0.0000,0.0000,0.0000,0.0000,0.0000,0.0000,0.0000,0.0000,0.0000,0.0000,0.0000,0.0000,0.0000,0.0000,0.0000,-0.1000,-0.1000,-0.1000,-0.1000,4
0,-1,0,-10.4073,0.1415,0.1641,0.0810,-0.0690,-0.0690,1.1647,23.4375,23.4375,23.4375,23.4375,12.2232,0.0000,-0.0610,-0.1221,0.1221,-0.1721,-0.1942,-10.6193,0.0139,0.0031,-0.0017,0.0000,0.0000,0.0000,0.0000,0.0000,0.0000,0.0000,0.0000,0.0000,0.0000,0.0000,0.0000,0.0000,0.0000,1.0000,0.0000,0.0000,0.0000,0.0000,0.0000,0.0000,0.0000,0.0000,0.0000,0.0000,0.0000,0.0000,0.0000,0.0000,0.0000,0.0000,0.0000,0.0000,-0.1000,-0.1000,-0.1000,-0.1000,4
0,-1,0,-10.4073,0.1415,0.1641,0.0810,-0.0690,-0.0690,1.1647,23.4375,23.4375,23.4375,23.4375,12.2232,0.0000,-0.0610,-0.2441,-0.0000,-0.1363,-0.2014,-10.5978,0.0140,0.0029,-0.0017,0.0000,0.0000,0.0000,0.0000,0.0000,0.0000,0.0000,0.0000,0.0000,0.0000,0.0000,0.0000,0.0000,0.0000,1.0000,0.0000,0.0000,0.0000,0.0000,0.0000,0.0000,0.0000,0.0000,0.0000,0.0000,0.0000,0.0000,0.0000,0.0000,0.0000,0.0000,0.0000,0.0000,-0.1000,-0.1000,-0.1000,-0.1000,4
0,-1,0,-10.4073,0.1415,0.1641,0.0810,-0.0690,-0.0690,1.1647,23.4375,23.4375,23.4375,23.4375,12.2232,0.0000,-0.0610,-0.1831,0.1221,-0.1674,-0.2062,-10.6169,0.0140,0.0028,-0.0017,0.0000,0.0000,0.0000,0.0000,0.0000,0.0000,0.0000,0.0000,0.0000,0.0000,0.0000,0.0000,0.0000,0.0000,1.0000,0.0000,0.0000,0.0000,0.0000,0.0000,0.0000,0.0000,0.0000,0.0000,0.0000,0.0000,0.0000,0.0000,0.0000,0.0000,0.0000,0.0000,0.0000,-0.1000,-0.1000,-0.1000,-0.1000,4
0,-1,0,-10.4073,0.1415,0.1641,0.0810,-0.0690,-0.0690,1.1647,23.4375,23.4375,23.4375,23.4375,12.2234,0.0000,0.0000,-0.0610,-0.0000,-0.1387,-0.2086,-10.5453,0.0140,0.0028,-0.0017,0.0000,0.0000,0.0000,0.0000,0.0000,0.0000,0.0000,0.0000,0.0000,0.0000,0.0000,0.0000,0.0000,0.0000,1.0000,0.0000,0.0000,0.0000,0.0000,0.0000,0.0000,0.0000,0.0000,0.0000,0.0000,0.0000,0.0000,0.0000,0.0000,0.0000,0.0000,0.0000,0.0000,-0.1000,-0.1000,-0.1000,-0.1000,4
0,-1,0,-10.4073,0.1415,0.1641,0.0810,-0.0690,-0.0690,1.1647,23.4375,23.4375,23.4375,23.4375,12.2229,0.0000,-0.0610,-0.1221,-0.0000,-0.1554,-0.2182,-10.5978,0.0140,0.0028,-0.0017,0.0000,0.0000,0.0000,0.0000,0.0000,0.0000,0.0000,0.0000,0.0000,0.0000,0.0000,0.0000,0.0000,0.0000,1.0000,0.0000,0.0000,0.0000,0.0000,0.0000,0.0000,0.0000,0.0000,0.0000,0.0000,0.0000,0.0000,0.0000,0.0000,0.0000,0.0000,0.0000,0.0000,-0.1000,-0.1000,-0.1000,-0.1000,4
0,-1,0,-10.4073,0.1415,0.1641,0.0810,-0.0690,-0.0690,1.1647,23.4375,23.4375,23.4375,23.4375,12.2225,0.0000,-0.1831,-0.1831,-0.0000,-0.1411,-0.2014,-10.5978,0.0140,0.0028,-0.0017,0.0000,0.0000,0.0000,0.0000,0.0000,0.0000,0.0000,0.0000,0.0000,0.0000,0.0000,0.0000,0.0000,0.0000,1.0000,0.0000,0.0000,0.0000,0.0000,0.0000,0.0000,0.0000,0.0000,0.0000,0.0000,0.0000,0.0000,0.0000,0.0000,0.0000,0.0000,0.0000,0.0000,-0.1000,-0.1000,-0.1000,-0.1000,4
0,-1,0,-10.4073,0.1415,0.1641,0.0810,-0.0690,-0.0690,1.1647,23.4375,23.4375,23.4375,23.4375,12.2215,0.0000,0.0000,0.0000,-0.0000,-0.0980,-0.1990,-10.5859,0.0141,0.0028,-0.0017,0.0000,0.0000,0.0000,0.0000,0.0000,0.0000,0.0000,0.0000,0.0000,0.0000,0.0000,0.0000,0.0000,0.0000,1.0000,0.0000,0.0000,0.0000,0.0000,0.0000,0.0000,0.0000,0.0000,0.0000,0.0000,0.0000,0.0000,0.0000,0.0000,0.0000,0.0000,0.0000,0.0000,-0.1000,-0.1000,-0.1000,-0.1000,4
0,-1,0,-10.4073,0.1415,0.1641,0.0810,-0.0690,-0.0690,1.1647,23.4375,23.4375,23.4375,23.4375,12.2217,0.0000,0.0000,-0.1221,-0.0000,-0.1698,-0.1390,-10.5859,0.0141,0.0027,-0.0017,0.0000,0.0000,0.0000,0.0000,0.0000,0.0000,0.0000,0.0000,0.0000,0.0000,0.0000,0.0000,0.0000,0.0000,1.0000,0.0000,0.0000,0.0000,0.0000,0.0000,0.0000,0.0000,0.0000,0.0000,0.0000,0.0000,0.0000,0.0000,0.0000,0.0000,0.0000,0.0000,0.0000,-0.1000,-0.1000,-0.1000,-0.1000,4
0,-1,0,-10.4073,0.1415,0.1641,0.0810,-0.0690,-0.0690,1.1647,23.4375,23.4375,23.4375,23.4375,12.2225,0.0000,0.0610,-0.1221,-0.0000,-0.1482,-0.2277,-10.5811,0.0141,0.0027,-0.0017,0.0000,0.0000,0.0000,0.0000,0.0000,0.0000,0.0000,0.0000,0.0000,0.0000,0.0000,0.0000,0.0000,0.0000,1.0000,0.0000,0.0000,0.0000,0.0000,0.0000,0.0000,0.0000,0.0000,0.0000,0.0000,0.0000,0.0000,0.0000,0.0000,0.0000,0.0000,0.0000,0.0000,-0.1000,-0.1000,-0.1000,-0.1000,4
0,-1,0,-10.4073,0.1415,0.1641,0.0810,-0.0690,-0.0690,1.1647,23.4375,23.4375,23.4375,23.4375,12.2222,0.0000,-0.1831,-0.3052,0.1221,-0.1291,-0.1774,-10.5978,0.0141,0.0027,-0.0017,0.0000,0.0000,0.0000,0.0000,0.0000,0.0000,0.0000,0.0000,0.0000,0.0000,0.0000,0.0000,0.0000,0.0000,1.0000,0.0000,0.0000,0.0000,0.0000,0.0000,0.0000,0.0000,0.0000,0.0000,0.0000,0.0000,0.0000,0.0000,0.0000,0.0000,0.0000,0.0000,0.0000,-0.1000,-0.1000,-0.1000,-0.1000,4
0,-1,0,-10.4073,0.1415,0.1641,0.0810,-0.0690,-0.0690,1.1647,23.4375,23.4375,23.4375,23.4375,12.2227,0.0000,0.0000,0.0000,-0.0000,-0.1482,-0.1510,-10.6002,0.0141,0.0027,-0.0017,0.0000,0.0000,0.0000,0.0000,0.0000,0.0000,0.0000,0.0000,0.0000,0.0000,0.0000,0.0000,0.0000,0.0000,1.0000,0.0000,0.0000,0.0000,0.0000,0.0000,0.0000,0.0000,0.0000,0.0000,0.0000,0.0000,0.0000,0.0000,0.0000,0.0000,0.0000,0.0000,0.0000,-0.1000,-0.1000,-0.1000,-0.1000,4
0,-1,0,-10.4073,0.1415,0.1641,0.0810,-0.0690,-0.0690,1.1647,23.4375,23.4375,23.4375,23.4375,12.2225,0.0000,0.0000,0.0000,0.1221,-0.1411,-0.2277,-10.6026,0.0141,0.0026,-0.0017,0.0000,0.0000,0.0000,0.0000,0.0000,0.0000,0.0000,0.0000,0.0000,0.0000,0.0000,0.0000,0.0000,0.0000,1.0000,0.0000,0.0000,0.0000,0.0000,0.0000,0.0000,0.0000,0.0000,0.0000,0.0000,0.0000,0.0000,0.0000,0.0000,0.0000,0.0000,0.0000,0.0000,-0.1000,-0.1000,-0.1000,-0.1000,4
0,-1,0,-10.4073,0.1415,0.1641,0.0810,-0.0690,-0.0690,1.1647,23.4375,23.4375,23.4375,23.4375,12.2225,0.0000,-0.0610,-0.2441,-0.0000,-0.1219,-0.1798,-10.6073,0.0141,0.0026,-0.0017,0.0000,0.0000,0.0000,0.0000,0.0000,0.0000,0.0000,0.0000,0.0000,0.0000,0.0000,0.0000,0.0000,0.0000,1.0000,0.0000,0.0000,0.0000,0.0000,0.0000,0.0000,0.0000,0.0000,0.0000,0.0000,0.0000,0.0000,0.0000,0.0000,0.0000,0.0000,0.0000,0.0000,-0.1000,-0.1000,-0.1000,-0.1000,4
0,-1,0,-10.4073,0.1415,0.1641,0.0810,-0.0690,-0.0690,1.1647,23.4375,23.4375,23.4375,23.4375,12.2227,0.0000,0.0000,0.0000,0.1221,-0.1172,-0.2230,-10.6121,0.0141,0.0026,-0.0017,0.0000,0.0000,0.0000,0.0000,0.0000,0.0000,0.0000,0.0000,0.0000,0.0000,0.0000,0.0000,0.0000,0.0000,1.0000,0.0000,0.0000,0.0000,0.0000,0.0000,0.0000,0.0000,0.0000,0.0000,0.0000,0.0000,0.0000,0.0000,0.0000,0.0000,0.0000,0.0000,0.0000,-0.1000,-0.1000,-0.1000,-0.1000,4
0,-1,0,-10.4013,0.1630,0.1467,0.0810,-0.0890,-0.0890,1.1647,23.4375,23.4375,23.4375,23.4375,12.2232,0.0000,0.0000,-0.1221,-0.0000,-0.1339,-0.1942,-10.5548,0.0141,0.0026,-0.0017,0.0000,0.0000,0.0000,0.0000,0.0000,0.0000,0.0000,0.0000,0.0000,0.0000,0.0000,0.0000,0.0000,0.0000,1.0000,0.0000,0.0000,0.0000,0.0000,0.0000,0.0000,0.0000,0.0000,0.0000,0.0000,0.0000,0.0000,0.0000,0.0000,0.0000,0.0000,0.0000,0.0000,-0.1000,-0.1000,-0.1000,-0.1000,4
0,-1,0,-10.4013,0.1630,0.1467,0.0810,-0.0890,-0.0890,1.1647,23.4375,23.4375,23.4375,23.4375,12.2234,0.0000,-0.0610,-0.1221,-0.1831,-0.1984,-0.2062,-10.5620,0.0142,0.0024,-0.0017,0.0000,0.0000,0.0000,0.0000,0.0000,0.0000,0.0000,0.0000,0.0000,0.0000,0.0000,0.0000,0.0000,0.0000,1.0000,0.0000,0.0000,0.0000,0.0000,0.0000,0.0000,0.0000,0.0000,0.0000,0.0000,0.0000,0.0000,0.0000,0.0000,0.0000,0.0000,0.0000,0.0000,-0.1000,-0.1000,-0.1000,-0.1000,4
0,-1,0,-10.4013,0.1630,0.1467,0.0810,-0.0890,-0.0890,1.1647,23.4375,23.4375,23.4375,23.4375,12.2232,0.0000,0.0610,-0.1221,-0.0000,-0.1195,-0.2014,-10.5930,0.0142,0.0024,-0.0017,0.0000,0.0000,0.0000,0.0000,0.0000,0.0000,0.0000,0.0000,0.0000,0.0000,0.0000,0.0000,0.0000,0.0000,1.0000,0.0000,0.0000,0.0000,0.0000,0.0000,0.0000,0.0000,0.0000,0.0000,0.0000,0.0000,0.0000,0.0000,0.0000,0.0000,0.0000,0.0000,0.0000,-0.1000,-0.1000,-0.1000,-0.1000,4
0,-1,0,-10.4013,0.1630,0.1467,0.0810,-0.0890,-0.0890,1.1647,23.4375,23.4375,23.4375,23.4375,12.2229,0.0000,0.1221,-0.1831,-0.0610,-0.1363,-0.1966,-10.6599,0.0142,0.0023,-0.0018,0.0000,0.0000,0.0000,0.0000,0.0000,0.0000,0.0000,0.0000,0.0000,0.0000,0.0000,0.0000,0.0000,0.0000,1.0000,0.0000,0.0000,0.0000,0.0000,0.0000,0.0000,0.0000,0.0000,0.0000,0.0000,0.0000,0.0000,0.0000,0.0000,0.0000,0.0000,0.0000,0.0000,-0.1000,-0.1000,-0.1000,-0.1000,4
0,-1,0,-10.4013,0.1630,0.1467,0.0810,-0.0890,-0.0890,1.1647,23.4375,23.4375,23.4375,23.4375,12.2229,0.0000,0.1221,0.0000,-0.0000,-0.1650,-0.2158,-10.5835,0.0143,0.0023,-0.0018,0.0000,0.0000,0.0000,0.0000,0.0000,0.0000,0.0000,0.0000,0.0000,0.0000,0.0000,0.0000,0.0000,0.0000,1.0000,0.0000,0.0000,0.0000,0.0000,0.0000,0.0000,0.0000,0.0000,0.0000,0.0000,0.0000,0.0000,0.0000,0.0000,0.0000,0.0000,0.0000,0.0000,-0.1000,-0.1000,-0.1000,-0.1000,4
0,-1,0,-10.4013,0.1630,0.1467,0.0810,-0.0890,-0.0890,1.1647,23.4375,23.4375,23.4375,23.4375,12.2234,0.0000,0.0610,0.0000,-0.0000,-0.1148,-0.1534,-10.6312,0.0143,0.0023,-0.0018,0.0000,0.0000,0.0000,0.0000,0.0000,0.0000,0.0000,0.0000,0.0000,0.0000,0.0000,0.0000,0.0000,0.0000,1.0000,0.0000,0.0000,0.0000,0.0000,0.0000,0.0000,0.0000,0.0000,0.0000,0.0000,0.0000,0.0000,0.0000,0.0000,0.0000,0.0000,0.0000,0.0000,-0.1000,-0.1000,-0.1000,-0.1000,4
0,-1,0,-10.4013,0.1630,0.1467,0.0810,-0.0890,-0.0890,1.1647,23.4375,23.4375,23.4375,23.4375,12.2237,0.0000,-0.0610,-0.1831,-0.0000,-0.1650,-0.2182,-10.6455,0.0143,0.0023,-0.0018,0.0000,0.0000,0.0000,0.0000,0.0000,0.0000,0.0000,0.0000,0.0000,0.0000,0.0000,0.0000,0.0000,0.0000,1.0000,0.0000,0.0000,0.0000,0.0000,0.0000,0.0000,0.0000,0.0000,0.0000,0.0000,0.0000,0.0000,0.0000,0.0000,0.0000,0.0000,0.0000,0.0000,-0.1000,-0.1000,-0.1000,-0.1000,4
0,-1,0,-10.4013,0.1630,0.1467,0.0810,-0.0890,-0.0890,1.1647,23.4375,23.4375,23.4375,23.4375,12.2237,0.0000,0.0000,-0.1221,-0.0000,-0.1435,-0.1606,-10.6288,0.0143,0.0022,-0.0018,0.0000,0.0000,0.0000,0.0000,0.0000,0.0000,0.0000,0.0000,0.0000,0.0000,0.0000,0.0000,0.0000,0.0000,1.0000,0.0000,0.0000,0.0000,0.0000,0.0000,0.0000,0.0000,0.0000,0.0000,0.0000,0.0000,0.0000,0.0000,0.0000,0.0000,0.0000,0.0000,0.0000,-0.1000,-0.1000,-0.1000,-0.1000,4
0,-1,0,-10.4013,0.1630,0.1467,0.0810,-0.0890,-0.0890,1.1647,23.4375,23.4375,23.4375,23.4375,12.2237,0.0000,-0.3052,-0.1221,0.1221,-0.1219,-0.1918,-10.6264,0.0143,0.0022,-0.0018,0.0000,0.0000,0.0000,0.0000,0.0000,0.0000,0.0000,0.0000,0.0000,0.0000,0.0000,0.0000,0.0000,0.0000,1.0000,0.0000,0.0000,0.0000,0.0000,0.0000,0.0000,0.0000,0.0000,0.0000,0.0000,0.0000,0.0000,0.0000,0.0000,0.0000,0.0000,0.0000,0.0000,-0.1000,-0.1000,-0.1000,-0.1000,4
0,-1,0,-10.4013,0.1630,0.1467,0.0810,-0.0890,-0.0890,1.1647,23.4375,23.4375,23.4375,23.4375,12.2237,0.0000,0.0000,-0.0610,0.1221,-0.1530,-0.1942,-10.6169,0.0143,0.0022,-0.0018,0.0000,0.0000,0.0000,0.0000,0.0000,0.0000,0.0000,0.0000,0.0000,0.0000,0.0000,0.0000,0.0000,0.0000,1.0000,0.0000,0.0000,0.0000,0.0000,0.0000,0.0000,0.0000,0.0000,0.0000,0.0000,0.0000,0.0000,0.0000,0.0000,0.0000,0.0000,0.0000,0.0000,-0.1000,-0.1000,-0.1000,-0.1000,4
0,-1,0,-10.4013,0.1630,0.1467,0.0810,-0.0890,-0.0890,1.1647,23.4375,23.4375,23.4375,23.4375,12.2237,0.0000,0.0000,-0.0610,0.1221,-0.1554,-0.1486,-10.5357,0.0143,0.0022,-0.0018,0.0000,0.0000,0.0000,0.0000,0.0000,0.0000,0.0000,0.0000,0.0000,0.0000,0.0000,0.0000,0.0000,0.0000,1.0000,0.0000,0.0000,0.0000,0.0000,0.0000,0.0000,0.0000,0.0000,0.0000,0.0000,0.0000,0.0000,0.0000,0.0000,0.0000,0.0000,0.0000,0.0000,-0.1000,-0.1000,-0.1000,-0.1000,4
0,-1,0,-10.4013,0.1630,0.1467,0.0810,-0.0890,-0.0890,1.1647,23.4375,23.4375,23.4375,23.4375,12.2239,0.0000,-0.1831,-0.1221,-0.0000,-0.1291,-0.2469,-10.5835,0.0143,0.0022,-0.0018,0.0000,0.0000,0.0000,0.0000,0.0000,0.0000,0.0000,0.0000,0.0000,0.0000,0.0000,0.0000,0.0000,0.0000,1.0000,0.0000,0.0000,0.0000,0.0000,0.0000,0.0000,0.0000,0.0000,0.0000,0.0000,0.0000,0.0000,0.0000,0.0000,0.0000,0.0000,0.0000,0.0000,-0.1000,-0.1000,-0.1000,-0.1000,4
0,-1,0,-10.4013,0.1630,0.1467,0.0810,-0.0890,-0.0890,1.1647,23.4375,23.4375,23.4375,23.4375,12.2246,0.0000,-0.0610,-0.1831,-0.0000,-0.1482,-0.1774,-10.5548,0.0143,0.0021,-0.0018,0.0000,0.0000,0.0000,0.0000,0.0000,0.0000,0.0000,0.0000,0.0000,0.0000,0.0000,0.0000,0.0000,0.0000,1.0000,0.0000,0.0000,0.0000,0.0000,0.0000,0.0000,0.0000,0.0000,0.0000,0.0000,0.0000,0.0000,0.0000,0.0000,0.0000,0.0000,0.0000,0.0000,-0.1000,-0.1000,-0.1000,-0.1000,4
0,-1,0,-10.4013,0.1630,0.1467,0.0810,-0.0890,-0.0890,1.1647,23.4375,23.4375,23.4375,23.4375,12.2244,0.0000,0.0000,0.0000,-0.0610,-0.1530,-0.1726,-10.5691,0.0143,0.0021,-0.0018,0.0000,0.0000,0.0000,0.0000,0.0000,0.0000,0.0000,0.0000,0.0000,0.0000,0.0000,0.0000,0.0000,0.0000,1.0000,0.0000,0.0000,0.0000,0.0000,0.0000,0.0000,0.0000,0.0000,0.0000,0.0000,0.0000,0.0000,0.0000,0.0000,0.0000,0.0000,0.0000,0.0000,-0.1000,-0.1000,-0.1000,-0.1000,4
0,-1,0,-10.4013,0.1630,0.1467,0.0810,-0.0890,-0.0890,1.1647,23.4375,23.4375,23.4375,23.4375,12.2242,0.0000,0.0610,0.0000,0.1831,-0.1411,-0.1918,-10.6503,0.0143,0.0021,-0.0018,0.0000,0.0000,0.0000,0.0000,0.0000,0.0000,0.0000,0.0000,0.0000,0.0000,0.0000,0.0000,0.0000,0.0000,1.0000,0.0000,0.0000,0.0000,0.0000,0.0000,0.0000,0.0000,0.0000,0.0000,0.0000,0.0000,0.0000,0.0000,0.0000,0.0000,0.0000,0.0000,0.0000,-0.1000,-0.1000,-0.1000,-0.1000,4
0,-1,0,-10.4013,0.1630,0.1467,0.0810,-0.0890,-0.0890,1.1647,23.4375,23.4375,23.4375,23.4375,12.2244,0.0000,0.0610,0.0000,0.1221,-0.1339,-0.1726,-10.6121,0.0143,0.0021,-0.0018,0.0000,0.0000,0.0000,0.0000,0.0000,0.0000,0.0000,0.0000,0.0000,0.0000,0.0000,0.0000,0.0000,0.0000,1.0000,0.0000,0.0000,0.0000,0.0000,0.0000,0.0000,0.0000,0.0000,0.0000,0.0000,0.0000,0.0000,0.0000,0.0000,0.0000,0.0000,0.0000,0.0000,-0.1000,-0.1000,-0.1000,-0.1000,4
0,-1,0,-10.4013,0.1630,0.1467,0.0810,-0.0890,-0.0890,1.1647,23.4375,23.4375,23.4375,23.4375,12.2244,0.0000,-0.0610,-0.3052,-0.0000,-0.1745,-0.1798,-10.5572,0.0144,0.0020,-0.0018,0.0000,0.0000,0.0000,0.0000,0.0000,0.0000,0.0000,0.0000,0.0000,0.0000,0.0000,0.0000,0.0000,0.0000,1.0000,0.0000,0.0000,0.0000,0.0000,0.0000,0.0000,0.0000,0.0000,0.0000,0.0000,0.0000,0.0000,0.0000,0.0000,0.0000,0.0000,0.0000,0.0000,-0.1000,-0.1000,-0.1000,-0.1000,4
0,-1,0,-10.4013,0.1630,0.1467,0.0810,-0.0890,-0.0890,1.1647,23.4375,23.4375,23.4375,23.4375,12.2246,0.0000,0.0000,-0.0610,-0.0000,-0.1793,-0.2158,-10.6145,0.0144,0.0020,-0.0018,0.0000,0.0000,0.0000,0.0000,0.0000,0.0000,0.0000,0.0000,0.0000,0.0000,0.0000,0.0000,0.0000,0.0000,1.0000,0.0000,0.0000,0.0000,0.0000,0.0000,0.0000,0.0000,0.0000,0.0000,0.0000,0.0000,0.0000,0.0000,0.0000,0.0000,0.0000,0.0000,0.0000,-0.1000,-0.1000,-0.1000,-0.1000,4
