loop_index, counter, last_step_ns, T_ref, theta_ref, phi_ref, uwind, vwind, wwind, rho, rpm1, rpm2, rpm3, rpm4,v_batt,alt,gyro_roll,gyro_pitch,gyro_yaw,accel_X,accel_Y,accel_Z,roll,pitch,yaw,X,Y,Z,Xdot,Ydot,Zdot,x0,y0,z0,e.xbee_time,xbee_time_received_ns,xbee_x,xbee_y,xbee_z,xbee_qw,xbee_qx,xbee_qy,xbee_qz,sp_roll,sp_pitch,sp_yaw,sp_X,sp_Y,sp_Z,sp_Xdot,sp_Ydot,sp_Zdot,u_roll,u_pitch,u_yaw,u_X,u_Y,u_Z,mot_1,mot_2,mot_3,mot_4,thrust_mot1,thrust_mot2,thrust_mot3,thrust_mot4,flight_mode
1,23,1255505812156,-10.5214,-0.1044,-0.1200,-0.0590,0.0510,0.0110,1.1726,6745.2441,6352.9390,6244.1597,6352.9390,12.0866,0.0000,-1.8921,-2.8076,-1.5259,1.3867,13.9261,-26.5398,0.0068,-0.0031,-0.0102,0.0000,0.0000,0.0000,0.0000,0.0000,0.0000,0.0000,0.0000,0.0000,0.0000,0.0000,0.0000,0.0000,0.0000,1.0000,0.0000,0.0000,0.0000,-0.1044,-0.1200,0.0000,0.0000,0.0000,0.0000,0.0000,0.0000,-0.0000,-0.0000,-0.0000,0.0000,0.0000,0.0000,-0.5726,0.6996,0.6618,0.6514,0.6618,0.5726,0.5726,0.5726,0.5726,5
2,23,1255564325387,-10.4053,-0.2171,0.0069,-0.0690,-0.0390,-0.0290,1.1726,6507.0747,6507.0747,6504.4663,6504.4663,12.0878,0.0000,0.2441,0.0000,-0.4883,-0.2295,-0.1798,-10.4546,0.0104,-0.0077,-0.0113,0.0000,0.0000,0.0000,0.0000,0.0000,0.0000,0.0000,0.0000,0.0000,0.0000,0.0000,0.0000,0.0000,0.0000,1.0000,0.0000,0.0000,0.0000,0.0000,0.0000,0.0000,0.0000,0.0000,0.0000,0.0000,0.0000,-0.0000,0.0020,0.0020,0.0020,0.0000,0.0000,-0.6001,0.6765,0.6765,0.6765,0.6765,0.6011,0.5971,0.6011,0.6011,5
3,23,1255569079160,-10.4053,-0.2171,0.0069,-0.0690,-0.0390,-0.0290,1.1726,6507.0747,6507.0747,6507.0747,6504.4663,12.0893,0.0000,-0.2441,-0.1831,0.2441,0.1865,-0.1630,-10.4856,0.0104,-0.0078,-0.0113,0.0000,0.0000,0.0000,0.0000,0.0000,0.0000,0.0000,0.0000,0.0000,0.0000,0.0000,0.0000,0.0000,0.0000,1.0000,0.0000,0.0000,0.0000,0.0000,0.0000,0.0000,0.0000,0.0000,0.0000,0.0000,0.0000,-0.0000,0.0005,0.0022,0.0040,0.0000,0.0000,-0.6001,0.6765,0.6765,0.6765,0.6765,0.6029,0.5967,0.6012,0.5994,5
4,23,1255574085355,-10.4053,-0.2171,0.0069,-0.0690,-0.0390,-0.0290,1.1726,6507.0747,6507.0747,6507.0747,6504.4663,12.0902,0.0000,-0.1831,-0.3662,-0.0610,-0.6001,0.0671,-10.6694,0.0104,-0.0078,-0.0113,0.0000,0.0000,0.0000,0.0000,0.0000,0.0000,0.0000,0.0000,0.0000,0.0000,0.0000,0.0000,0.0000,0.0000,1.0000,0.0000,0.0000,0.0000,0.0000,0.0000,0.0000,0.0000,0.0000,0.0000,0.0000,0.0000,-0.0000,-0.0006,0.0022,0.0060,0.0000,0.0000,-0.6001,0.6765,0.6765,0.6765,0.6765,0.6044,0.5962,0.6017,0.5979,5
5,23,1255579043265,-10.4508,0.0976,-0.1707,-0.0690,-0.0390,-0.0290,1.1726,6507.0747,6507.0747,6507.0747,6666.5708,12.0917,0.0000,0.0610,0.0000,0.1221,-0.0646,-0.4315,-10.4928,0.0103,-0.0078,-0.0113,0.0000,0.0000,0.0000,0.0000,0.0000,0.0000,0.0000,0.0000,0.0000,0.0000,0.0000,0.0000,0.0000,0.0000,1.0000,0.0000,0.0000,0.0000,0.0000,0.0000,0.0000,0.0000,0.0000,0.0000,0.0000,0.0000,-0.0000,-0.0012,0.0024,0.0080,0.0000,0.0000,-0.6001,0.6768,0.6768,0.6768,0.6921,0.6059,0.5955,0.6022,0.5967,5
6,23,1255584055043,-10.4508,0.0976,-0.1707,-0.0390,0.1010,0.0210,1.1726,6507.0747,6507.0747,6507.0747,6666.5708,12.0919,0.0000,-0.1831,0.1221,-0.7935,-0.2128,0.1534,-10.6933,0.0104,-0.0078,-0.0114,0.0000,0.0000,0.0000,0.0000,0.0000,0.0000,0.0000,0.0000,0.0000,0.0000,0.0000,0.0000,0.0000,0.0000,1.0000,0.0000,0.0000,0.0000,0.0000,0.0000,0.0000,0.0000,0.0000,0.0000,0.0000,0.0000,-0.0000,-0.0019,0.0022,0.0100,0.0000,0.0000,-0.6001,0.6768,0.6768,0.6768,0.6921,0.6071,0.5949,0.6030,0.5952,5
7,23,1255589037283,-10.4508,0.0976,-0.1707,-0.0390,0.1010,0.0210,1.1726,6507.0747,6507.0747,6507.0747,6666.5708,12.1110,0.0000,0.0000,0.0000,0.4272,0.1578,-0.2086,-10.5143,0.0103,-0.0078,-0.0114,0.0000,0.0000,0.0000,0.0000,0.0000,0.0000,0.0000,0.0000,0.0000,0.0000,0.0000,0.0000,0.0000,0.0000,1.0000,0.0000,0.0000,0.0000,0.0000,0.0000,0.0000,0.0000,0.0000,0.0000,0.0000,0.0000,-0.0000,-0.0020,0.0022,0.0120,0.0000,0.0000,-0.6001,0.6768,0.6768,0.6768,0.6921,0.6082,0.5939,0.6039,0.5942,5
8,23,1255594018981,-10.4508,0.0976,-0.1707,-0.0390,0.1010,0.0210,1.1726,6702.6494,6507.0747,6507.0747,6666.5708,12.1233,0.0000,0.0000,-0.2441,-0.0610,-0.4471,-0.0767,-10.6431,0.0104,-0.0078,-0.0114,0.0000,0.0000,0.0000,0.0000,0.0000,0.0000,0.0000,0.0000,0.0000,0.0000,0.0000,0.0000,0.0000,0.0000,1.0000,0.0000,0.0000,0.0000,0.0000,0.0000,0.0000,0.0000,0.0000,0.0000,0.0000,0.0000,-0.0000,-0.0024,0.0022,0.0140,0.0000,0.0000,-0.6001,0.6768,0.6768,0.6768,0.6921,0.6093,0.5932,0.6048,0.5929,5
9,23,1255599017344,-10.4508,0.0976,-0.1707,-0.0390,0.1010,0.0210,1.1726,6702.6494,6507.0747,6507.0747,6666.5708,12.1236,0.0000,-0.2441,0.1221,-0.0610,-0.1817,-0.0839,-10.5143,0.0103,-0.0078,-0.0114,0.0000,0.0000,0.0000,0.0000,0.0000,0.0000,0.0000,0.0000,0.0000,0.0000,0.0000,0.0000,0.0000,0.0000,1.0000,0.0000,0.0000,0.0000,0.0000,0.0000,0.0000,0.0000,0.0000,0.0000,0.0000,0.0000,-0.0000,-0.0024,0.0023,0.0160,0.0000,0.0000,-0.6001,0.6768,0.6768,0.6768,0.6921,0.6104,0.5921,0.6057,0.5920,5
10,23,1255604040787,-10.4508,0.0976,-0.1707,-0.0390,0.1010,0.0210,1.1726,6702.6494,6636.3438,6507.0747,6666.5708,12.1236,0.0000,0.0610,0.0000,-0.0610,-0.0454,-0.2973,-10.7100,0.0104,-0.0078,-0.0114,0.0000,0.0000,0.0000,0.0000,0.0000,0.0000,0.0000,0.0000,0.0000,0.0000,0.0000,0.0000,0.0000,0.0000,1.0000,0.0000,0.0000,0.0000,0.0000,0.0000,0.0000,0.0000,0.0000,0.0000,0.0000,0.0000,-0.0000,-0.0026,0.0022,0.0180,0.0000,0.0000,-0.6001,0.6768,0.6768,0.6768,0.6921,0.6115,0.5912,0.6066,0.5909,5
11,23,1255609015403,-10.4508,0.0976,-0.1707,-0.0390,0.1010,0.0210,1.1726,6702.6494,6636.3438,6507.0747,6666.5708,12.1265,0.0000,-0.2441,-0.0610,-1.4648,-0.3491,0.1462,-10.6503,0.0104,-0.0078,-0.0115,0.0000,0.0000,0.0000,0.0000,0.0000,0.0000,0.0000,0.0000,0.0000,0.0000,0.0000,0.0000,0.0000,0.0000,1.0000,0.0000,0.0000,0.0000,0.0000,0.0000,0.0000,0.0000,0.0000,0.0000,0.0000,0.0000,-0.0000,-0.0027,0.0022,0.0200,0.0000,0.0000,-0.6001,0.6768,0.6768,0.6768,0.6921,0.6125,0.5903,0.6076,0.5898,5
12,23,1255614177492,-10.4508,0.0976,-0.1707,-0.0390,0.1010,0.0210,1.1726,6702.6494,6636.3438,6701.6738,6666.5708,12.1287,0.0000,-0.0610,-0.2441,1.5259,-0.3873,0.4891,-10.2040,0.0103,-0.0078,-0.0114,0.0000,0.0000,0.0000,0.0000,0.0000,0.0000,0.0000,0.0000,0.0000,0.0000,0.0000,0.0000,0.0000,0.0000,1.0000,0.0000,0.0000,0.0000,0.0000,0.0000,0.0000,0.0000,0.0000,0.0000,0.0000,0.0000,-0.0000,-0.0026,0.0024,0.0207,0.0000,0.0000,-0.6001,0.6768,0.6768,0.6768,0.6921,0.6129,0.5898,0.6079,0.5896,5
13,23,1255619038708,-10.4508,0.0976,-0.1707,-0.0390,0.1010,0.0210,1.1726,6702.6494,6636.3438,6701.6738,6666.5708,12.1289,0.0000,-0.1221,-0.0610,0.8545,-0.6384,-0.4123,-10.8222,0.0103,-0.0079,-0.0113,0.0000,0.0000,0.0000,0.0000,0.0000,0.0000,0.0000,0.0000,0.0000,0.0000,0.0000,0.0000,0.0000,0.0000,1.0000,0.0000,0.0000,0.0000,0.0000,0.0000,0.0000,0.0000,0.0000,0.0000,0.0000,0.0000,-0.0000,-0.0023,0.0025,0.0218,0.0000,0.0000,-0.6001,0.6768,0.6768,0.6768,0.6921,0.6133,0.5890,0.6086,0.5892,5
14,23,1255624040112,-10.4508,0.0976,-0.1707,-0.0390,0.1010,0.0210,1.1726,6702.6494,6636.3438,6701.6738,6666.5708,12.1279,0.0000,0.4272,-0.2441,2.0752,-0.0454,-0.3860,-10.7195,0.0103,-0.0079,-0.0112,0.0000,0.0000,0.0000,0.0000,0.0000,0.0000,0.0000,0.0000,0.0000,0.0000,0.0000,0.0000,0.0000,0.0000,1.0000,0.0000,0.0000,0.0000,0.0000,0.0000,0.0000,0.0000,0.0000,0.0000,0.0000,0.0000,-0.0000,-0.0029,0.0028,0.0218,0.0000,0.0000,-0.6001,0.6768,0.6768,0.6768,0.6921,0.6138,0.5892,0.6081,0.5891,5
15,23,1255629070761,-10.5025,-0.1585,-0.0609,-0.0690,0.1510,-0.0190,1.1726,6702.6494,6636.3438,6701.6738,6613.1147,12.1265,0.0000,-0.3052,-0.2441,0.9155,-0.0454,0.2134,-10.5930,0.0104,-0.0080,-0.0111,0.0000,0.0000,0.0000,0.0000,0.0000,0.0000,0.0000,0.0000,0.0000,0.0000,0.0000,0.0000,0.0000,0.0000,1.0000,0.0000,0.0000,0.0000,0.0000,0.0000,0.0000,0.0000,0.0000,0.0000,0.0000,0.0000,-0.0000,-0.0029,0.0027,0.0225,0.0000,0.0000,-0.6001,0.6955,0.6891,0.6954,0.6869,0.6142,0.5889,0.6085,0.5887,5
16,23,1256060366796,-10.4152,-0.2130,-0.0178,-0.0590,0.7010,0.4010,1.1726,6833.2153,6709.0190,6821.1152,6707.7026,12.1105,0.0000,-0.0610,-0.1221,1.4648,-0.2750,0.0048,-10.7959,0.0103,-0.0080,-0.0110,0.0000,0.0000,0.0000,0.0000,0.0000,0.0000,0.0000,0.0000,0.0000,0.0000,0.0000,0.0000,0.0000,0.0000,1.0000,0.0000,0.0000,0.0000,0.0000,0.0000,0.0000,0.0000,0.0000,0.0000,0.0000,0.0000,-0.0000,-0.0027,0.0026,0.0227,0.0000,0.0000,-0.6001,0.7118,0.6968,0.7103,0.6966,0.6141,0.5888,0.6088,0.5886,5
17,23,1256119044892,-10.5630,-0.1174,-0.0607,-0.7590,0.7510,0.0510,1.1726,6887.0742,6705.3149,6820.7183,6704.4307,12.1093,0.0000,1.7700,-0.5493,-0.1831,-15.4742,7.6547,38.5172,0.0079,-0.0085,-0.0114,0.0000,0.0000,0.0000,0.0000,0.0000,0.0000,0.0000,0.0000,0.0000,0.0000,0.0000,0.0000,0.0000,0.0000,1.0000,0.0000,0.0000,0.0000,0.0000,0.0000,0.0000,0.0000,0.0000,0.0000,0.0000,0.0000,-0.0000,0.0119,0.0057,0.0273,0.0000,0.0000,-0.6000,0.7135,0.6959,0.7095,0.6958,0.6106,0.5776,0.6168,0.5952,5
18,23,1256123917524,-10.5630,-0.1174,-0.0607,-0.7590,0.7510,0.0510,1.1726,6887.0742,6705.3149,6820.7183,6704.4307,12.1086,0.0000,1.4648,-2.5635,0.1831,-12.3421,9.2058,19.5176,0.0073,-0.0103,-0.0113,0.0000,0.0000,0.0000,0.0000,0.0000,0.0000,0.0000,0.0000,0.0000,0.0000,0.0000,0.0000,0.0000,0.0000,1.0000,0.0000,0.0000,0.0000,0.0000,0.0000,0.0000,0.0000,0.0000,0.0000,0.0000,0.0000,-0.0000,0.0109,0.0152,0.0278,0.0000,0.0000,-0.6000,0.7135,0.6959,0.7095,0.6958,0.6161,0.5731,0.6118,0.5992,5
19,23,1256128918929,-10.5630,-0.1174,-0.0607,-0.7590,0.7510,0.0510,1.1726,6887.0742,6740.5117,6820.7183,6704.4307,12.1067,0.0000,1.0986,-2.6245,-0.0610,-7.7347,10.0544,-3.2629,0.0066,-0.0117,-0.0113,0.0000,0.0000,0.0000,0.0000,0.0000,0.0000,0.0000,0.0000,0.0000,0.0000,0.0000,0.0000,0.0000,0.0000,1.0000,0.0000,0.0000,0.0000,0.0000,0.0000,0.0000,0.0000,0.0000,0.0000,0.0000,0.0000,-0.0000,0.0115,0.0200,0.0284,0.0000,0.0000,-0.6001,0.7135,0.6959,0.7095,0.6958,0.6185,0.5701,0.6100,0.6016,5
20,23,1256133959079,-10.5630,-0.1174,-0.0607,-0.7590,0.7510,0.0510,1.1726,6887.0742,6740.5117,6820.7183,6704.4307,12.1045,0.0000,0.6104,-2.2583,0.3662,-2.7855,12.9025,-27.9576,0.0056,-0.0126,-0.0113,0.0000,0.0000,0.0000,0.0000,0.0000,0.0000,0.0000,0.0000,0.0000,0.0000,0.0000,0.0000,0.0000,0.0000,1.0000,0.0000,0.0000,0.0000,0.0000,0.0000,0.0000,0.0000,0.0000,0.0000,0.0000,0.0000,-0.0000,0.0128,0.0204,0.0285,0.0000,0.0000,-0.6001,0.7135,0.6959,0.7095,0.6958,0.6181,0.5692,0.6105,0.6024,5
21,23,1256138868914,-10.5630,-0.1174,-0.0607,-0.7590,0.7510,0.0510,1.1726,6887.0742,6740.5117,6873.9688,6704.4307,12.0934,0.0000,-0.6104,-1.7090,0.6104,3.1011,10.7377,-46.7210,0.0043,-0.0130,-0.0112,0.0000,0.0000,0.0000,0.0000,0.0000,0.0000,0.0000,0.0000,0.0000,0.0000,0.0000,0.0000,0.0000,0.0000,1.0000,0.0000,0.0000,0.0000,0.0000,0.0000,0.0000,0.0000,0.0000,0.0000,0.0000,0.0000,-0.0000,0.0161,0.0174,0.0284,0.0000,0.0000,-0.6001,0.7135,0.6959,0.7095,0.6958,0.6149,0.5691,0.6136,0.6026,5
22,23,1256143838907,-10.5630,-0.1174,-0.0607,-0.7590,0.7510,0.0510,1.1726,6887.0742,6740.5117,6873.9688,6704.4307,12.0818,0.0000,-0.9766,-2.3193,0.2441,7.4478,11.6079,-56.8724,0.0032,-0.0129,-0.0112,0.0000,0.0000,0.0000,0.0000,0.0000,0.0000,0.0000,0.0000,0.0000,0.0000,0.0000,0.0000,0.0000,0.0000,1.0000,0.0000,0.0000,0.0000,0.0000,0.0000,0.0000,0.0000,0.0000,0.0000,0.0000,0.0000,-0.0000,0.0175,0.0121,0.0285,0.0000,0.0000,-0.6001,0.7135,0.6959,0.7095,0.6958,0.6116,0.5710,0.6170,0.6006,5
23,23,1256148912927,-10.5552,-0.0972,-0.0977,-0.7590,0.7510,0.0510,1.1726,6887.0742,6740.5117,6873.9688,6819.9248,12.0704,0.0000,-1.8311,0.9766,1.8311,10.7616,10.2774,-67.5490,0.0019,-0.0120,-0.0111,0.0000,0.0000,0.0000,0.0000,0.0000,0.0000,0.0000,0.0000,0.0000,0.0000,0.0000,0.0000,0.0000,0.0000,1.0000,0.0000,0.0000,0.0000,0.0000,0.0000,0.0000,0.0000,0.0000,0.0000,0.0000,0.0000,-0.0000,0.0196,0.0040,0.0275,0.0000,0.0000,-0.6000,0.7182,0.6991,0.7165,0.7093,0.6060,0.5745,0.6215,0.5981,5
24,23,1256153916582,-10.5552,-0.0972,-0.0977,-0.0390,0.7010,0.4510,1.1726,6887.0742,6740.5117,6873.9688,6819.9248,12.0598,0.0000,-2.9297,-0.0610,-1.0986,9.7240,9.1794,-66.0691,0.0007,-0.0108,-0.0111,0.0000,0.0000,0.0000,0.0000,0.0000,0.0000,0.0000,0.0000,0.0000,0.0000,0.0000,0.0000,0.0000,0.0000,1.0000,0.0000,0.0000,0.0000,0.0000,0.0000,0.0000,0.0000,0.0000,0.0000,0.0000,0.0000,-0.0000,0.0208,-0.0030,0.0287,0.0000,0.0000,-0.6000,0.7182,0.6991,0.7165,0.7093,0.6025,0.5768,0.6263,0.5946,5
25,23,1256158967063,-10.5552,-0.0972,-0.0977,-0.0390,0.7010,0.4510,1.1726,6887.0742,6740.5117,6873.9688,6819.9248,12.0484,0.0000,-2.5024,1.0376,2.1973,10.6086,6.9786,-58.6721,-0.0004,-0.0097,-0.0109,0.0000,0.0000,0.0000,0.0000,0.0000,0.0000,0.0000,0.0000,0.0000,0.0000,0.0000,0.0000,0.0000,0.0000,1.0000,0.0000,0.0000,0.0000,0.0000,0.0000,0.0000,0.0000,0.0000,0.0000,0.0000,0.0000,-0.0000,0.0209,-0.0078,0.0274,0.0000,0.0000,-0.6000,0.7182,0.6991,0.7165,0.7093,0.5993,0.5798,0.6281,0.5929,5
26,23,1256164186479,-10.5552,-0.0972,-0.0977,-0.0390,0.7010,0.4510,1.1726,6808.8555,6740.5117,6873.9688,6819.9248,12.0382,0.0000,-2.8076,1.7700,-2.3193,9.8794,7.4078,-44.8568,-0.0013,-0.0085,-0.0111,0.0000,0.0000,0.0000,0.0000,0.0000,0.0000,0.0000,0.0000,0.0000,0.0000,0.0000,0.0000,0.0000,0.0000,1.0000,0.0000,0.0000,0.0000,0.0000,0.0000,0.0000,0.0000,0.0000,0.0000,0.0000,0.0000,-0.0000,0.0199,-0.0121,0.0296,0.0000,0.0000,-0.6000,0.7182,0.6991,0.7165,0.7093,0.5988,0.5813,0.6308,0.5891,5
27,23,1256168908466,-10.5552,-0.0972,-0.0977,-0.0390,0.7010,0.4510,1.1726,6808.8555,6740.5117,6873.9688,6819.9248,12.0276,0.0000,-2.6855,0.4272,2.2583,6.2117,5.4587,-25.9622,-0.0023,-0.0075,-0.0110,0.0000,0.0000,0.0000,0.0000,0.0000,0.0000,0.0000,0.0000,0.0000,0.0000,0.0000,0.0000,0.0000,0.0000,1.0000,0.0000,0.0000,0.0000,0.0000,0.0000,0.0000,0.0000,0.0000,0.0000,0.0000,0.0000,-0.0000,0.0195,-0.0139,0.0281,0.0000,0.0000,-0.6000,0.7182,0.6991,0.7165,0.7093,0.5974,0.5832,0.6307,0.5888,5
28,23,1256173895706,-10.5552,-0.0972,-0.0977,-0.0390,0.7010,0.4510,1.1726,6808.8555,6658.3311,6873.9688,6819.9248,12.0179,0.0000,-2.1362,0.1831,-2.6855,4.5954,3.1429,-13.0324,-0.0030,-0.0068,-0.0112,0.0000,0.0000,0.0000,0.0000,0.0000,0.0000,0.0000,0.0000,0.0000,0.0000,0.0000,0.0000,0.0000,0.0000,1.0000,0.0000,0.0000,0.0000,0.0000,0.0000,0.0000,0.0000,0.0000,0.0000,0.0000,0.0000,-0.0000,0.0178,-0.0128,0.0305,0.0000,0.0000,-0.6000,0.7182,0.6991,0.7165,0.7093,0.5999,0.5823,0.6305,0.5873,5
29,23,1256178819206,-10.5552,-0.0972,-0.0977,-0.0390,0.7010,0.4510,1.1726,6808.8555,6658.3311,6873.9688,6819.9248,12.0199,0.0000,-0.8545,0.0000,1.4648,0.8512,-0.6209,-2.6518,-0.0033,-0.0063,-0.0111,0.0000,0.0000,0.0000,0.0000,0.0000,0.0000,0.0000,0.0000,0.0000,0.0000,0.0000,0.0000,0.0000,0.0000,1.0000,0.0000,0.0000,0.0000,0.0000,0.0000,0.0000,0.0000,0.0000,0.0000,0.0000,0.0000,-0.0000,0.0147,-0.0110,0.0295,0.0000,0.0000,-0.6000,0.7182,0.6991,0.7165,0.7093,0.6019,0.5834,0.6276,0.5871,5
30,23,1256744971014,-10.5627,-0.0983,-0.0888,-0.7990,0.8810,0.0310,1.1726,6829.7451,6721.7251,6957.6274,6743.5830,12.0208,0.0000,-0.1831,-1.2207,-2.0142,0.5117,-3.0830,1.3486,-0.0033,-0.0064,-0.0112,0.0000,0.0000,0.0000,0.0000,0.0000,0.0000,0.0000,0.0000,0.0000,0.0000,0.0000,0.0000,0.0000,0.0000,1.0000,0.0000,0.0000,0.0000,0.0000,0.0000,0.0000,0.0000,0.0000,0.0000,0.0000,0.0000,-0.0000,0.0100,-0.0069,0.0312,0.0000,0.0000,-0.6000,0.7109,0.6975,0.7279,0.6996,0.6071,0.5829,0.6241,0.5860,5
31,23,1256803806047,-10.5345,-0.1265,-0.0825,-0.0990,0.1510,-0.0190,1.1726,6715.5938,6579.9121,6808.5430,6597.7217,12.0201,0.0000,-0.3052,-1.8311,-1.2207,-2.2929,13.3963,-21.0691,0.0038,-0.0044,-0.0116,0.0000,0.0000,0.0000,0.0000,0.0000,0.0000,0.0000,0.0000,0.0000,0.0000,0.0000,0.0000,0.0000,0.0000,1.0000,0.0000,0.0000,0.0000,0.0000,0.0000,0.0000,0.0000,0.0000,0.0000,0.0000,0.0000,-0.0000,-0.0359,-0.0161,0.0339,0.0000,0.0000,-0.6000,0.6969,0.6838,0.7078,0.6855,0.6269,0.6090,0.6071,0.5571,5
32,23,1256808753043,-10.5345,-0.1265,-0.0825,-0.0990,0.1510,-0.0190,1.1726,6715.5938,6579.9121,6808.5430,6597.7217,12.0187,0.0000,-0.7935,-1.5869,-0.0000,0.3563,15.5587,-29.7048,0.0024,-0.0047,-0.0116,0.0000,0.0000,0.0000,0.0000,0.0000,0.0000,0.0000,0.0000,0.0000,0.0000,0.0000,0.0000,0.0000,0.0000,1.0000,0.0000,0.0000,0.0000,0.0000,0.0000,0.0000,0.0000,0.0000,0.0000,0.0000,0.0000,-0.0000,-0.0167,-0.0086,0.0336,0.0000,0.0000,-0.6000,0.6969,0.6838,0.7078,0.6855,0.6209,0.5958,0.6128,0.5706,5
33,23,1256814012078,-10.5345,-0.1265,-0.0825,-0.0990,0.1510,-0.0190,1.1726,6715.5938,6579.9121,6808.5430,6597.7217,12.0196,0.0000,-0.9766,-1.0986,-1.0986,4.7389,14.4775,-39.2500,0.0009,-0.0048,-0.0117,0.0000,0.0000,0.0000,0.0000,0.0000,0.0000,0.0000,0.0000,0.0000,0.0000,0.0000,0.0000,0.0000,0.0000,1.0000,0.0000,0.0000,0.0000,0.0000,0.0000,0.0000,0.0000,0.0000,0.0000,0.0000,0.0000,-0.0000,-0.0020,-0.0052,0.0342,0.0000,0.0000,-0.6000,0.6969,0.6838,0.7078,0.6855,0.6155,0.5866,0.6187,0.5793,5
34,23,1256818761394,-10.5345,-0.1265,-0.0825,-0.1090,0.1710,-0.0190,1.1726,6715.5938,6579.9121,6808.5430,6597.7217,12.0211,0.0000,-0.7324,-0.8545,-0.0000,9.0928,12.0418,-45.0621,-0.0006,-0.0044,-0.0116,0.0000,0.0000,0.0000,0.0000,0.0000,0.0000,0.0000,0.0000,0.0000,0.0000,0.0000,0.0000,0.0000,0.0000,1.0000,0.0000,0.0000,0.0000,0.0000,0.0000,0.0000,0.0000,0.0000,0.0000,0.0000,0.0000,-0.0000,0.0074,-0.0056,0.0338,0.0000,0.0000,-0.6000,0.6969,0.6838,0.7078,0.6855,0.6104,0.5822,0.6234,0.5840,5
35,23,1256823737178,-10.5345,-0.1265,-0.0825,-0.1090,0.1710,-0.0190,1.1726,6715.5938,6579.9121,6808.5430,6597.7217,12.0230,0.0000,-1.5869,1.5259,0.4272,11.3235,7.1896,-45.7233,-0.0019,-0.0033,-0.0116,0.0000,0.0000,0.0000,0.0000,0.0000,0.0000,0.0000,0.0000,0.0000,0.0000,0.0000,0.0000,0.0000,0.0000,1.0000,0.0000,0.0000,0.0000,0.0000,0.0000,0.0000,0.0000,0.0000,0.0000,0.0000,0.0000,-0.0000,0.0129,-0.0098,0.0332,0.0000,0.0000,-0.6000,0.6969,0.6838,0.7078,0.6855,0.6053,0.5818,0.6280,0.5849,5
36,23,1256828769912,-10.5345,-0.1265,-0.0825,-0.1090,0.1710,-0.0190,1.1726,6715.5938,6579.9121,6808.5430,6597.7217,12.0385,0.0000,-1.3428,2.1973,0.2441,10.0850,1.5415,-37.2188,-0.0027,-0.0020,-0.0116,0.0000,0.0000,0.0000,0.0000,0.0000,0.0000,0.0000,0.0000,0.0000,0.0000,0.0000,0.0000,0.0000,0.0000,1.0000,0.0000,0.0000,0.0000,0.0000,0.0000,0.0000,0.0000,0.0000,0.0000,0.0000,0.0000,-0.0000,0.0139,-0.0144,0.0329,0.0000,0.0000,-0.6000,0.6969,0.6838,0.7078,0.6855,0.6023,0.5838,0.6306,0.5833,5
37,23,1256994869465,-10.5685,-0.0898,-0.0914,-0.8390,0.8210,0.0110,1.1726,6828.7476,6720.5151,6971.0947,6717.4468,12.0387,0.0000,-1.9531,1.8311,1.0376,7.3259,-2.5148,-21.7398,-0.0030,-0.0009,-0.0115,0.0000,0.0000,0.0000,0.0000,0.0000,0.0000,0.0000,0.0000,0.0000,0.0000,0.0000,0.0000,0.0000,0.0000,1.0000,0.0000,0.0000,0.0000,0.0000,0.0000,0.0000,0.0000,0.0000,0.0000,0.0000,0.0000,-0.0000,0.0116,-0.0167,0.0321,0.0000,0.0000,-0.6000,0.7109,0.6975,0.7299,0.6972,0.6019,0.5865,0.6302,0.5814,5
38,23,1257068827951,-10.4087,-0.1946,-0.0936,-0.1390,0.1710,0.0310,1.1726,6681.8228,6596.1392,6837.1104,6567.4775,12.0387,0.0000,1.0986,-3.1738,0.5493,-3.5099,12.8665,-14.3118,-0.0015,-0.0039,-0.0113,0.0000,0.0000,0.0000,0.0000,0.0000,0.0000,0.0000,0.0000,0.0000,0.0000,0.0000,0.0000,0.0000,0.0000,1.0000,0.0000,0.0000,0.0000,0.0000,0.0000,0.0000,0.0000,0.0000,0.0000,0.0000,0.0000,-0.0000,-0.0010,0.0071,0.0300,0.0000,0.0000,-0.6000,0.6937,0.6854,0.7115,0.6826,0.6191,0.5819,0.6110,0.5880,5
39,23,1257260329311,-10.5657,-0.0955,-0.0885,-0.8290,0.8910,0.0210,1.1726,6911.3691,6715.2432,6884.7090,6751.2637,12.0399,0.0000,0.0000,-0.6104,-0.4272,2.1399,14.0316,-44.6826,-0.0027,-0.0043,-0.0113,0.0000,0.0000,0.0000,0.0000,0.0000,0.0000,0.0000,0.0000,0.0000,0.0000,0.0000,0.0000,0.0000,0.0000,1.0000,0.0000,0.0000,0.0000,0.0000,0.0000,0.0000,0.0000,0.0000,0.0000,0.0000,0.0000,-0.0000,0.0069,0.0076,0.0305,0.0000,0.0000,-0.6000,0.7219,0.6969,0.7183,0.7005,0.6156,0.5775,0.6149,0.5920,5
40,23,1257318652847,-10.5432,-0.1309,-0.0635,-0.0290,0.1210,-0.0090,1.1726,6755.5913,6543.1943,6755.4932,6628.1909,12.0411,0.0000,1.8311,-1.4038,-0.0000,-5.7574,9.2849,14.1948,-0.0082,-0.0024,-0.0113,0.0000,0.0000,0.0000,0.0000,0.0000,0.0000,0.0000,0.0000,0.0000,0.0000,0.0000,0.0000,0.0000,0.0000,1.0000,0.0000,0.0000,0.0000,0.0000,0.0000,0.0000,0.0000,0.0000,0.0000,0.0000,0.0000,-0.0000,0.0382,-0.0057,0.0309,0.0000,0.0000,-0.6000,0.7013,0.6805,0.7008,0.6884,0.5935,0.5683,0.6374,0.6008,5
41,23,1258061118295,-10.5597,-0.1291,-0.0369,-0.1890,0.2110,0.0110,1.1726,6663.4038,6511.5181,6882.9351,6697.9033,12.0421,0.0000,0.7324,0.0000,-0.2441,-7.5219,16.1269,6.9602,-0.0090,-0.0030,-0.0114,0.0000,0.0000,0.0000,0.0000,0.0000,0.0000,0.0000,0.0000,0.0000,0.0000,0.0000,0.0000,0.0000,0.0000,1.0000,0.0000,0.0000,0.0000,0.0000,0.0000,0.0000,0.0000,0.0000,0.0000,0.0000,0.0000,-0.0000,0.0320,-0.0003,0.0312,0.0000,0.0000,-0.6000,0.6912,0.6772,0.7174,0.6952,0.5995,0.5686,0.6318,0.6003,5
42,23,1258118622213,-10.5592,-0.0961,-0.0945,-0.1590,0.1610,-0.0390,1.1726,6682.9717,6505.8818,6870.1890,6693.3218,12.0433,0.0000,-0.0610,-2.1973,-0.1831,1.3604,16.0334,-43.2433,-0.0112,-0.0017,-0.0113,0.0000,0.0000,0.0000,0.0000,0.0000,0.0000,0.0000,0.0000,0.0000,0.0000,0.0000,0.0000,0.0000,0.0000,1.0000,0.0000,0.0000,0.0000,0.0000,0.0000,0.0000,0.0000,0.0000,0.0000,0.0000,0.0000,-0.0000,0.0358,-0.0079,0.0309,0.0000,0.0000,-0.6000,0.6943,0.6773,0.7158,0.6947,0.5936,0.5706,0.6373,0.5985,5
43,23,1258123525426,-10.5592,-0.0961,-0.0945,-0.1590,0.1610,-0.0390,1.1726,6682.9717,6505.8818,6870.1890,6693.3218,12.0443,0.0000,-0.4883,-0.1831,-0.1221,6.6660,13.5402,-60.4050,-0.0127,-0.0016,-0.0113,0.0000,0.0000,0.0000,0.0000,0.0000,0.0000,0.0000,0.0000,0.0000,0.0000,0.0000,0.0000,0.0000,0.0000,1.0000,0.0000,0.0000,0.0000,0.0000,0.0000,0.0000,0.0000,0.0000,0.0000,0.0000,0.0000,-0.0000,0.0348,-0.0061,0.0311,0.0000,0.0000,-0.6000,0.6943,0.6773,0.7158,0.6947,0.5951,0.5701,0.6360,0.5989,5
44,23,1258128479549,-10.5592,-0.0961,-0.0945,-0.1590,0.1610,-0.0390,1.1726,6682.9717,6505.8818,6864.1582,6693.3218,12.0455,0.0000,-1.8921,0.2441,-0.3662,9.4514,14.5926,-68.1409,-0.0141,-0.0009,-0.0114,0.0000,0.0000,0.0000,0.0000,0.0000,0.0000,0.0000,0.0000,0.0000,0.0000,0.0000,0.0000,0.0000,0.0000,1.0000,0.0000,0.0000,0.0000,0.0000,0.0000,0.0000,0.0000,0.0000,0.0000,0.0000,0.0000,-0.0000,0.0334,-0.0082,0.0314,0.0000,0.0000,-0.6001,0.6943,0.6773,0.7158,0.6947,0.5950,0.5717,0.6366,0.5970,5
45,23,1258133360682,-10.5592,-0.0961,-0.0945,-0.1590,0.1610,-0.0390,1.1726,6682.9717,6505.8818,6864.1582,6693.3218,12.0479,0.0000,-2.8687,2.2583,1.4038,11.9954,12.1521,-65.2218,-0.0156,0.0002,-0.0113,0.0000,0.0000,0.0000,0.0000,0.0000,0.0000,0.0000,0.0000,0.0000,0.0000,0.0000,0.0000,0.0000,0.0000,1.0000,0.0000,0.0000,0.0000,0.0000,0.0000,0.0000,0.0000,0.0000,0.0000,0.0000,0.0000,-0.0000,0.0336,-0.0124,0.0304,0.0000,0.0000,-0.6001,0.6943,0.6773,0.7158,0.6947,0.5923,0.5742,0.6383,0.5955,5
46,23,1258138307556,-10.5100,-0.1183,-0.1160,-0.1590,0.1610,-0.0390,1.1726,6682.9717,6505.8818,6864.1582,6679.6587,12.0496,0.0000,-4.1504,1.5869,-0.4883,12.2106,6.6334,-47.5970,-0.0171,0.0016,-0.0113,0.0000,0.0000,0.0000,0.0000,0.0000,0.0000,0.0000,0.0000,0.0000,0.0000,0.0000,0.0000,0.0000,0.0000,1.0000,0.0000,0.0000,0.0000,0.0000,0.0000,0.0000,0.0000,0.0000,0.0000,0.0000,0.0000,-0.0000,0.0331,-0.0164,0.0310,0.0000,0.0000,-0.6001,0.6937,0.6767,0.7150,0.6934,0.5908,0.5763,0.6403,0.5929,5
47,23,1258143381619,-10.5100,-0.1183,-0.1160,-0.1090,0.1110,0.0210,1.1726,6682.9717,6505.8818,6864.1582,6679.6587,12.0515,0.0000,-2.8076,2.5024,2.7466,8.1483,0.5490,-18.0735,-0.0179,0.0030,-0.0111,0.0000,0.0000,0.0000,0.0000,0.0000,0.0000,0.0000,0.0000,0.0000,0.0000,0.0000,0.0000,0.0000,0.0000,1.0000,0.0000,0.0000,0.0000,0.0000,0.0000,0.0000,0.0000,0.0000,0.0000,0.0000,0.0000,-0.0000,0.0290,-0.0199,0.0291,0.0000,0.0000,-0.6001,0.6937,0.6767,0.7150,0.6934,0.5902,0.5810,0.6391,0.5901,5
48,23,1259061133226,-10.4151,-0.2122,-0.0294,-0.0990,0.1110,0.0610,1.1726,6622.0972,6687.4307,6997.8730,6740.0269,12.0530,0.0000,-2.5024,1.0376,-1.8921,4.0383,-4.1210,5.6593,-0.0181,0.0038,-0.0113,0.0000,0.0000,0.0000,0.0000,0.0000,0.0000,0.0000,0.0000,0.0000,0.0000,0.0000,0.0000,0.0000,0.0000,1.0000,0.0000,0.0000,0.0000,0.0000,0.0000,0.0000,0.0000,0.0000,0.0000,0.0000,0.0000,-0.0000,0.0229,-0.0193,0.0308,0.0000,0.0000,-0.6001,0.7000,0.6948,0.7336,0.6999,0.5944,0.5829,0.6366,0.5865,5
49,23,1259118192763,-10.4374,-0.0189,-0.2019,-0.1190,0.0110,0.0510,1.1726,6641.1982,6576.5542,6873.6089,6596.8740,12.0530,0.0000,-2.3193,0.3662,0.7324,7.8973,6.9930,-59.9491,-0.0052,0.0005,-0.0113,0.0000,0.0000,0.0000,0.0000,0.0000,0.0000,0.0000,0.0000,0.0000,0.0000,0.0000,0.0000,0.0000,0.0000,1.0000,0.0000,0.0000,0.0000,0.0000,0.0000,0.0000,0.0000,0.0000,0.0000,0.0000,0.0000,-0.0000,-0.0611,0.0066,0.0309,0.0000,0.0000,-0.6000,0.6897,0.6835,0.7162,0.6855,0.6493,0.6118,0.5816,0.5573,5
50,23,1259123130514,-10.4374,-0.0189,-0.2019,-0.1690,0.2110,-0.0090,1.1726,6641.1982,6576.5542,6873.6089,6596.8740,12.0537,0.0000,-2.3193,1.3428,1.3428,11.2446,2.4021,-64.8088,-0.0060,0.0014,-0.0112,0.0000,0.0000,0.0000,0.0000,0.0000,0.0000,0.0000,0.0000,0.0000,0.0000,0.0000,0.0000,0.0000,0.0000,1.0000,0.0000,0.0000,0.0000,0.0000,0.0000,0.0000,0.0000,0.0000,0.0000,0.0000,0.0000,-0.0000,-0.0364,-0.0009,0.0300,0.0000,0.0000,-0.6000,0.6897,0.6835,0.7162,0.6855,0.6327,0.6037,0.5973,0.5664,5
51,23,1259128042769,-10.4374,-0.0189,-0.2019,-0.1690,0.2110,-0.0090,1.1726,6641.1982,6576.5542,6873.6089,6596.8740,12.0544,0.0000,-3.1128,1.3428,-0.3662,12.3492,-1.1435,-57.6243,-0.0065,0.0026,-0.0112,0.0000,0.0000,0.0000,0.0000,0.0000,0.0000,0.0000,0.0000,0.0000,0.0000,0.0000,0.0000,0.0000,0.0000,1.0000,0.0000,0.0000,0.0000,0.0000,0.0000,0.0000,0.0000,0.0000,0.0000,0.0000,0.0000,-0.0000,-0.0216,-0.0081,0.0304,0.0000,0.0000,-0.6000,0.6897,0.6835,0.7162,0.6855,0.6220,0.5996,0.6084,0.5700,5
52,23,1259133113543,-10.4374,-0.0189,-0.2019,-0.1690,0.2110,-0.0090,1.1726,6951.3789,6576.5542,6873.6089,6596.8740,12.0542,0.0000,-2.3804,1.0986,0.8545,10.9362,-5.7656,-42.1071,-0.0065,0.0039,-0.0111,0.0000,0.0000,0.0000,0.0000,0.0000,0.0000,0.0000,0.0000,0.0000,0.0000,0.0000,0.0000,0.0000,0.0000,1.0000,0.0000,0.0000,0.0000,0.0000,0.0000,0.0000,0.0000,0.0000,0.0000,0.0000,0.0000,-0.0000,-0.0139,-0.0135,0.0299,0.0000,0.0000,-0.6000,0.6897,0.6835,0.7162,0.6855,0.6152,0.5988,0.6148,0.5713,5
53,23,1259138068291,-10.4374,-0.0189,-0.2019,-0.1690,0.2110,-0.0090,1.1726,6951.3789,6576.5542,6873.6089,6596.8740,12.0530,0.0000,-1.5259,0.7935,-1.3428,8.2512,-7.6811,-23.4607,-0.0061,0.0050,-0.0112,0.0000,0.0000,0.0000,0.0000,0.0000,0.0000,0.0000,0.0000,0.0000,0.0000,0.0000,0.0000,0.0000,0.0000,1.0000,0.0000,0.0000,0.0000,0.0000,0.0000,0.0000,0.0000,0.0000,0.0000,0.0000,0.0000,-0.0000,-0.0117,-0.0164,0.0310,0.0000,0.0000,-0.6000,0.6897,0.6835,0.7162,0.6855,0.6132,0.5986,0.6179,0.5704,5
54,23,1259143046829,-10.4374,-0.0189,-0.2019,-0.1690,0.2110,-0.0090,1.1726,6951.3789,6694.1060,6873.6089,6596.8740,12.0527,0.0000,-0.8545,0.7324,0.2441,4.7412,-9.9370,-8.0223,-0.0054,0.0059,-0.0112,0.0000,0.0000,0.0000,0.0000,0.0000,0.0000,0.0000,0.0000,0.0000,0.0000,0.0000,0.0000,0.0000,0.0000,1.0000,0.0000,0.0000,0.0000,0.0000,0.0000,0.0000,0.0000,0.0000,0.0000,0.0000,0.0000,-0.0000,-0.0117,-0.0169,0.0309,0.0000,0.0000,-0.6000,0.6897,0.6835,0.7162,0.6855,0.6128,0.5989,0.6181,0.5703,5
55,23,1259148071609,-10.4374,-0.0189,-0.2019,-0.1690,0.2110,-0.0090,1.1726,6951.3789,6694.1060,6797.0327,6596.8740,12.0525,0.0000,0.7935,-0.6714,-1.3428,1.5541,-11.5288,2.2007,-0.0044,0.0063,-0.0113,0.0000,0.0000,0.0000,0.0000,0.0000,0.0000,0.0000,0.0000,0.0000,0.0000,0.0000,0.0000,0.0000,0.0000,1.0000,0.0000,0.0000,0.0000,0.0000,0.0000,0.0000,0.0000,0.0000,0.0000,0.0000,0.0000,-0.0000,-0.0138,-0.0145,0.0319,0.0000,0.0000,-0.6000,0.6897,0.6835,0.7162,0.6855,0.6156,0.5983,0.6163,0.5699,5
56,23,1259153027816,-10.4374,-0.0189,-0.2019,-0.1690,0.2110,-0.0090,1.1726,6951.3789,6694.1060,6797.0327,6596.8740,12.0523,0.0000,1.9531,-0.6104,0.2441,-1.1070,-12.0131,6.5090,-0.0031,0.0064,-0.0113,0.0000,0.0000,0.0000,0.0000,0.0000,0.0000,0.0000,0.0000,0.0000,0.0000,0.0000,0.0000,0.0000,0.0000,1.0000,0.0000,0.0000,0.0000,0.0000,0.0000,0.0000,0.0000,0.0000,0.0000,0.0000,0.0000,-0.0000,-0.0169,-0.0111,0.0316,0.0000,0.0000,-0.6000,0.6897,0.6835,0.7162,0.6855,0.6187,0.5982,0.6129,0.5702,5
57,23,1260061618662,-10.5094,-0.0708,-0.1501,-0.0690,0.1010,0.0010,1.1726,6773.6313,6662.0283,6743.1616,6504.3945,12.0523,0.0000,1.5869,-0.1831,-0.3052,-4.2128,-9.8411,10.1061,-0.0018,0.0063,-0.0113,0.0000,0.0000,0.0000,0.0000,0.0000,0.0000,0.0000,0.0000,0.0000,0.0000,0.0000,0.0000,0.0000,0.0000,1.0000,0.0000,0.0000,0.0000,0.0000,0.0000,0.0000,0.0000,0.0000,0.0000,0.0000,0.0000,-0.0000,-0.0192,-0.0074,0.0317,0.0000,0.0000,-0.6000,0.7033,0.6916,0.6994,0.6764,0.6218,0.5975,0.6100,0.5708,5
58,23,1260117959940,-10.5697,-0.0205,-0.1255,-0.0590,-0.0390,-0.1190,1.1726,6775.8979,6641.8433,6711.1060,6507.3086,12.0537,0.0000,0.6714,0.6714,-0.3662,-4.7412,-11.0805,25.6471,0.0012,-0.0002,-0.0116,0.0000,0.0000,0.0000,0.0000,0.0000,0.0000,0.0000,0.0000,0.0000,0.0000,0.0000,0.0000,0.0000,0.0000,1.0000,0.0000,0.0000,0.0000,0.0000,0.0000,0.0000,0.0000,0.0000,0.0000,0.0000,0.0000,-0.0000,-0.0308,0.0337,0.0342,0.0000,0.0000,-0.6000,0.7056,0.6913,0.6979,0.6768,0.6493,0.5815,0.5848,0.5844,5
59,23,1260122807705,-10.3978,0.1229,-0.1834,-0.0590,-0.0390,-0.1190,1.1726,6775.8979,6641.8433,6711.1060,6491.5649,12.0549,0.0000,2.0142,0.0000,0.1831,-9.5996,-5.8591,43.4509,0.0024,-0.0007,-0.0116,0.0000,0.0000,0.0000,0.0000,0.0000,0.0000,0.0000,0.0000,0.0000,0.0000,0.0000,0.0000,0.0000,0.0000,1.0000,0.0000,0.0000,0.0000,0.0000,0.0000,0.0000,0.0000,0.0000,0.0000,0.0000,0.0000,-0.0000,-0.0288,0.0259,0.0338,0.0000,0.0000,-0.6000,0.7036,0.6898,0.6964,0.6753,0.6442,0.5846,0.5895,0.5817,5
60,23,1260127759664,-10.3978,0.1229,-0.1834,-0.1090,0.0210,-0.0890,1.1726,6775.8979,6641.8433,6711.1060,6491.5649,12.0556,0.0000,1.7090,-0.4272,-0.5493,-12.7557,1.5703,49.1437,0.0031,-0.0017,-0.0117,0.0000,0.0000,0.0000,0.0000,0.0000,0.0000,0.0000,0.0000,0.0000,0.0000,0.0000,0.0000,0.0000,0.0000,1.0000,0.0000,0.0000,0.0000,0.0000,0.0000,0.0000,0.0000,0.0000,0.0000,0.0000,0.0000,-0.0000,-0.0244,0.0237,0.0340,0.0000,0.0000,-0.6000,0.7036,0.6898,0.6964,0.6753,0.6410,0.5834,0.5929,0.5826,5
61,23,1260132755158,-10.3978,0.1229,-0.1834,-0.1090,0.0210,-0.0890,1.1726,6775.8979,6641.8433,6711.1060,6491.5649,12.0561,0.0000,2.3193,-1.0376,-0.0610,-14.1664,9.9609,41.5319,0.0032,-0.0030,-0.0117,0.0000,0.0000,0.0000,0.0000,0.0000,0.0000,0.0000,0.0000,0.0000,0.0000,0.0000,0.0000,0.0000,0.0000,1.0000,0.0000,0.0000,0.0000,0.0000,0.0000,0.0000,0.0000,0.0000,0.0000,0.0000,0.0000,-0.0000,-0.0175,0.0244,0.0338,0.0000,0.0000,-0.6000,0.7036,0.6898,0.6964,0.6753,0.6379,0.5796,0.5959,0.5866,5
62,23,1260137733571,-10.3978,0.1229,-0.1834,-0.1090,0.0210,-0.0890,1.1726,6904.7104,6641.8433,6711.1060,6491.5649,12.0571,0.0000,1.7090,-1.0986,0.1221,-11.8137,15.7409,21.0070,0.0024,-0.0045,-0.0117,0.0000,0.0000,0.0000,0.0000,0.0000,0.0000,0.0000,0.0000,0.0000,0.0000,0.0000,0.0000,0.0000,0.0000,1.0000,0.0000,0.0000,0.0000,0.0000,0.0000,0.0000,0.0000,0.0000,0.0000,0.0000,0.0000,-0.0000,-0.0075,0.0260,0.0335,0.0000,0.0000,-0.6000,0.7036,0.6898,0.6964,0.6753,0.6335,0.5740,0.6000,0.5925,5
63,23,1260142726066,-10.3978,0.1229,-0.1834,-0.1090,0.0210,-0.0890,1.1726,6904.7104,6641.8433,6711.1060,6491.5649,12.0581,0.0000,0.3662,-1.6479,0.4883,-7.4502,20.7489,-4.9074,0.0010,-0.0058,-0.0116,0.0000,0.0000,0.0000,0.0000,0.0000,0.0000,0.0000,0.0000,0.0000,0.0000,0.0000,0.0000,0.0000,0.0000,1.0000,0.0000,0.0000,0.0000,0.0000,0.0000,0.0000,0.0000,0.0000,0.0000,0.0000,0.0000,-0.0000,0.0035,0.0260,0.0329,0.0000,0.0000,-0.6000,0.7036,0.6898,0.6964,0.6753,0.6277,0.5688,0.6052,0.5984,5
64,23,1260147746889,-10.3978,0.1229,-0.1834,-0.1090,0.0210,-0.0890,1.1726,6904.7104,6546.3662,6711.1060,6491.5649,12.0588,0.0000,-1.1597,-0.7324,1.2207,-2.4316,17.8002,-27.0387,-0.0011,-0.0065,-0.0115,0.0000,0.0000,0.0000,0.0000,0.0000,0.0000,0.0000,0.0000,0.0000,0.0000,0.0000,0.0000,0.0000,0.0000,1.0000,0.0000,0.0000,0.0000,0.0000,0.0000,0.0000,0.0000,0.0000,0.0000,0.0000,0.0000,-0.0000,0.0150,0.0231,0.0318,0.0000,0.0000,-0.6000,0.7036,0.6898,0.6964,0.6753,0.6199,0.5651,0.6119,0.6032,5
65,23,1260152790335,-10.3978,0.1229,-0.1834,-0.1090,0.0210,-0.0890,1.1726,6904.7104,6546.3662,6711.1060,6491.5649,12.0581,0.0000,-2.0752,0.0610,0.8545,0.9875,11.8093,-41.5271,-0.0030,-0.0067,-0.0114,0.0000,0.0000,0.0000,0.0000,0.0000,0.0000,0.0000,0.0000,0.0000,0.0000,0.0000,0.0000,0.0000,0.0000,1.0000,0.0000,0.0000,0.0000,0.0000,0.0000,0.0000,0.0000,0.0000,0.0000,0.0000,0.0000,-0.0000,0.0218,0.0176,0.0311,0.0000,0.0000,-0.6000,0.7036,0.6898,0.6964,0.6753,0.6135,0.5647,0.6177,0.6042,5
66,23,1261007514677,-10.4451,-0.1807,-0.0841,-0.0990,0.2110,0.0910,1.1726,6772.8813,6494.3486,6796.6475,6720.6245,12.0583,0.0000,-2.9297,0.7935,1.4648,4.6743,9.2561,-49.7595,-0.0044,-0.0065,-0.0113,0.0000,0.0000,0.0000,0.0000,0.0000,0.0000,0.0000,0.0000,0.0000,0.0000,0.0000,0.0000,0.0000,0.0000,1.0000,0.0000,0.0000,0.0000,0.0000,0.0000,0.0000,0.0000,0.0000,0.0000,0.0000,0.0000,-0.0000,0.0236,0.0114,0.0301,0.0000,0.0000,-0.6000,0.7034,0.6756,0.7065,0.6975,0.6090,0.5675,0.6211,0.6025,5
67,23,1261067669332,-10.4451,-0.1807,-0.0841,-0.1490,0.2110,0.1310,1.1726,6751.7949,6494.3486,6796.6475,6720.6245,12.0576,0.0000,-1.2207,-0.4272,0.5493,3.4214,12.2120,-42.3172,0.0002,-0.0045,-0.0116,0.0000,0.0000,0.0000,0.0000,0.0000,0.0000,0.0000,0.0000,0.0000,0.0000,0.0000,0.0000,0.0000,0.0000,1.0000,0.0000,0.0000,0.0000,0.0000,0.0000,0.0000,0.0000,0.0000,0.0000,0.0000,0.0000,-0.0000,-0.0114,-0.0040,0.0326,0.0000,0.0000,-0.6000,0.7034,0.6756,0.7065,0.6975,0.6200,0.5914,0.6126,0.5760,5
68,23,1261072580839,-10.4451,-0.1807,-0.0841,-0.1490,0.2110,0.1310,1.1726,6751.7949,6514.3647,6796.6475,6720.6245,12.0561,0.0000,-3.0518,-0.4272,0.9766,5.8028,10.4692,-53.9175,-0.0012,-0.0042,-0.0115,0.0000,0.0000,0.0000,0.0000,0.0000,0.0000,0.0000,0.0000,0.0000,0.0000,0.0000,0.0000,0.0000,0.0000,1.0000,0.0000,0.0000,0.0000,0.0000,0.0000,0.0000,0.0000,0.0000,0.0000,0.0000,0.0000,-0.0000,0.0008,-0.0043,0.0318,0.0000,0.0000,-0.6000,0.7034,0.6756,0.7065,0.6975,0.6133,0.5859,0.6184,0.5824,5
69,23,1261077511136,-10.4451,-0.1807,-0.0841,-0.1490,0.2110,0.1310,1.1726,6751.7949,6514.3647,6796.6475,6720.6245,12.0561,0.0000,-2.9907,0.4883,0.6104,7.5458,5.6625,-57.7938,-0.0025,-0.0035,-0.0114,0.0000,0.0000,0.0000,0.0000,0.0000,0.0000,0.0000,0.0000,0.0000,0.0000,0.0000,0.0000,0.0000,0.0000,1.0000,0.0000,0.0000,0.0000,0.0000,0.0000,0.0000,0.0000,0.0000,0.0000,0.0000,0.0000,-0.0000,0.0083,-0.0064,0.0313,0.0000,0.0000,-0.6000,0.7034,0.6756,0.7065,0.6975,0.6083,0.5834,0.6230,0.5853,5
70,23,1261082443682,-10.4451,-0.1807,-0.0841,-0.1490,0.2110,0.1310,1.1726,6751.7949,6514.3647,6772.0957,6720.6245,12.0571,0.0000,-3.4180,-0.6714,0.2441,9.0473,0.9901,-53.9724,-0.0033,-0.0028,-0.0114,0.0000,0.0000,0.0000,0.0000,0.0000,0.0000,0.0000,0.0000,0.0000,0.0000,0.0000,0.0000,0.0000,0.0000,1.0000,0.0000,0.0000,0.0000,0.0000,0.0000,0.0000,0.0000,0.0000,0.0000,0.0000,0.0000,-0.0000,0.0109,-0.0083,0.0312,0.0000,0.0000,-0.6000,0.7034,0.6756,0.7065,0.6975,0.6060,0.5831,0.6252,0.5857,5
71,23,1261087427928,-10.4451,-0.1807,-0.0841,-0.1490,0.2110,0.1310,1.1726,6751.7949,6514.3647,6772.0957,6720.6245,12.0564,0.0000,-2.9297,-0.6714,-0.2441,9.3414,-5.1735,-42.3458,-0.0036,-0.0020,-0.0114,0.0000,0.0000,0.0000,0.0000,0.0000,0.0000,0.0000,0.0000,0.0000,0.0000,0.0000,0.0000,0.0000,0.0000,1.0000,0.0000,0.0000,0.0000,0.0000,0.0000,0.0000,0.0000,0.0000,0.0000,0.0000,0.0000,-0.0000,0.0097,-0.0105,0.0315,0.0000,0.0000,-0.6000,0.7034,0.6756,0.7065,0.6975,0.6056,0.5847,0.6259,0.5839,5
72,23,1261092565653,-10.4233,-0.1718,-0.1201,-0.1190,0.1710,0.0610,1.1726,6751.7949,6514.3647,6772.0957,6617.1309,12.0561,0.0000,-1.5869,-0.4272,-0.2441,8.8919,-9.3640,-27.5543,-0.0032,-0.0011,-0.0115,0.0000,0.0000,0.0000,0.0000,0.0000,0.0000,0.0000,0.0000,0.0000,0.0000,0.0000,0.0000,0.0000,0.0000,1.0000,0.0000,0.0000,0.0000,0.0000,0.0000,0.0000,0.0000,0.0000,0.0000,0.0000,0.0000,-0.0000,0.0046,-0.0124,0.0317,0.0000,0.0000,-0.6000,0.7007,0.6776,0.7033,0.6875,0.6074,0.5880,0.6244,0.5803,5
73,23,1261097539485,-10.4233,-0.1718,-0.1201,-0.1190,0.1710,0.0610,1.1726,6751.7949,6514.3647,6772.0957,6617.1309,12.0564,0.0000,-0.3662,-1.0376,-1.0376,6.7927,-12.9888,-14.5290,-0.0023,-0.0003,-0.0116,0.0000,0.0000,0.0000,0.0000,0.0000,0.0000,0.0000,0.0000,0.0000,0.0000,0.0000,0.0000,0.0000,0.0000,1.0000,0.0000,0.0000,0.0000,0.0000,0.0000,0.0000,0.0000,0.0000,0.0000,0.0000,0.0000,-0.0000,-0.0019,-0.0131,0.0326,0.0000,0.0000,-0.6000,0.7007,0.6776,0.7033,0.6875,0.6107,0.5912,0.6219,0.5762,5
74,23,1261102472781,-10.4233,-0.1718,-0.1201,-0.1190,0.1710,0.0610,1.1726,6751.7949,6514.3647,6772.0957,6617.1309,12.0569,0.0000,1.3428,0.0000,0.1221,3.4214,-15.5611,-4.7380,-0.0010,0.0003,-0.0116,0.0000,0.0000,0.0000,0.0000,0.0000,0.0000,0.0000,0.0000,0.0000,0.0000,0.0000,0.0000,0.0000,0.0000,1.0000,0.0000,0.0000,0.0000,0.0000,0.0000,0.0000,0.0000,0.0000,0.0000,0.0000,0.0000,-0.0000,-0.0095,-0.0129,0.0324,0.0000,0.0000,-0.6000,0.7007,0.6776,0.7033,0.6875,0.6145,0.5950,0.6179,0.5726,5
75,23,1262061700080,-10.5373,-0.0959,-0.1143,-0.1890,0.1710,0.0310,1.1726,6779.8071,6669.5103,6799.2163,6539.9189,12.0569,0.0000,1.8311,-0.1831,-0.5493,0.4710,-14.9977,2.2294,0.0007,0.0006,-0.0116,0.0000,0.0000,0.0000,0.0000,0.0000,0.0000,0.0000,0.0000,0.0000,0.0000,0.0000,0.0000,0.0000,0.0000,1.0000,0.0000,0.0000,0.0000,0.0000,0.0000,0.0000,0.0000,0.0000,0.0000,0.0000,0.0000,-0.0000,-0.0165,-0.0108,0.0328,0.0000,0.0000,-0.6000,0.7040,0.6924,0.7066,0.6800,0.6193,0.5973,0.6135,0.5699,5
76,23,1262122377517,-10.5584,-0.1022,-0.0887,-0.1890,0.2410,0.0310,1.1726,6813.9878,6689.6709,6781.7485,6517.4780,12.0581,0.0000,-0.4272,-0.3662,-0.0610,5.3246,17.9944,-36.6650,0.0017,-0.0017,-0.0118,0.0000,0.0000,0.0000,0.0000,0.0000,0.0000,0.0000,0.0000,0.0000,0.0000,0.0000,0.0000,0.0000,0.0000,1.0000,0.0000,0.0000,0.0000,0.0000,0.0000,0.0000,0.0000,0.0000,0.0000,0.0000,0.0000,-0.0000,-0.0174,0.0065,0.0342,0.0000,0.0000,-0.6000,0.7065,0.6929,0.7024,0.6778,0.6291,0.5883,0.6052,0.5775,5
77,23,1262127332603,-10.5360,-0.1184,-0.0924,-0.1890,0.2410,0.0310,1.1726,6813.9878,6689.6709,6781.7485,6532.3643,12.0588,0.0000,-1.4038,0.3662,0.3052,7.9116,14.3337,-40.4053,-0.0002,-0.0011,-0.0118,0.0000,0.0000,0.0000,0.0000,0.0000,0.0000,0.0000,0.0000,0.0000,0.0000,0.0000,0.0000,0.0000,0.0000,1.0000,0.0000,0.0000,0.0000,0.0000,0.0000,0.0000,0.0000,0.0000,0.0000,0.0000,0.0000,-0.0000,-0.0008,0.0012,0.0338,0.0000,0.0000,-0.6000,0.7083,0.6942,0.7041,0.6791,0.6179,0.5829,0.6159,0.5833,5
78,23,1262132254943,-10.5360,-0.1184,-0.0924,-0.1490,0.2210,0.0010,1.1726,6813.9878,6689.6709,6781.7485,6532.3643,12.0585,0.0000,-1.7090,1.7700,0.6714,7.6702,10.0712,-36.9276,-0.0017,-0.0002,-0.0117,0.0000,0.0000,0.0000,0.0000,0.0000,0.0000,0.0000,0.0000,0.0000,0.0000,0.0000,0.0000,0.0000,0.0000,1.0000,0.0000,0.0000,0.0000,0.0000,0.0000,0.0000,0.0000,0.0000,0.0000,0.0000,0.0000,-0.0000,0.0087,-0.0047,0.0331,0.0000,0.0000,-0.6000,0.7083,0.6942,0.7041,0.6791,0.6098,0.5815,0.6233,0.5854,5
79,23,1262137293225,-10.5360,-0.1184,-0.0924,-0.1490,0.2210,0.0010,1.1726,6813.9878,6689.6709,6781.7485,6532.3643,12.0583,0.0000,-1.6479,2.6855,1.0376,7.2135,5.3988,-26.2725,-0.0028,0.0008,-0.0116,0.0000,0.0000,0.0000,0.0000,0.0000,0.0000,0.0000,0.0000,0.0000,0.0000,0.0000,0.0000,0.0000,0.0000,1.0000,0.0000,0.0000,0.0000,0.0000,0.0000,0.0000,0.0000,0.0000,0.0000,0.0000,0.0000,-0.0000,0.0128,-0.0092,0.0323,0.0000,0.0000,-0.6000,0.7083,0.6942,0.7041,0.6791,0.6051,0.5821,0.6271,0.5857,5
80,23,1262142313134,-10.5360,-0.1184,-0.0924,-0.1490,0.2210,0.0010,1.1726,6797.9453,6689.6709,6781.7485,6532.3643,12.0585,0.0000,-1.8921,1.9531,1.2207,4.6982,-2.6419,-10.8198,-0.0035,0.0017,-0.0115,0.0000,0.0000,0.0000,0.0000,0.0000,0.0000,0.0000,0.0000,0.0000,0.0000,0.0000,0.0000,0.0000,0.0000,1.0000,0.0000,0.0000,0.0000,0.0000,0.0000,0.0000,0.0000,0.0000,0.0000,0.0000,0.0000,-0.0000,0.0131,-0.0117,0.0314,0.0000,0.0000,-0.6000,0.7083,0.6942,0.7041,0.6791,0.6033,0.5836,0.6281,0.5850,5
81,23,1262147245973,-10.5360,-0.1184,-0.0924,-0.1490,0.2210,0.0010,1.1726,6797.9453,6689.6709,6781.7485,6532.3643,12.0593,0.0000,-1.0986,0.8545,0.5493,0.9564,-9.0475,1.3916,-0.0033,0.0022,-0.0115,0.0000,0.0000,0.0000,0.0000,0.0000,0.0000,0.0000,0.0000,0.0000,0.0000,0.0000,0.0000,0.0000,0.0000,1.0000,0.0000,0.0000,0.0000,0.0000,0.0000,0.0000,0.0000,0.0000,0.0000,0.0000,0.0000,-0.0000,0.0083,-0.0114,0.0311,0.0000,0.0000,-0.6000,0.7083,0.6942,0.7041,0.6791,0.6057,0.5860,0.6254,0.5829,5
82,23,1262152406696,-10.5360,-0.1184,-0.0924,-0.1490,0.2210,0.0010,1.1726,6797.9453,6594.4927,6781.7485,6532.3643,12.0588,0.0000,-0.9155,0.7324,0.1831,-0.5427,-14.9570,9.8770,-0.0025,0.0024,-0.0115,0.0000,0.0000,0.0000,0.0000,0.0000,0.0000,0.0000,0.0000,0.0000,0.0000,0.0000,0.0000,0.0000,0.0000,1.0000,0.0000,0.0000,0.0000,0.0000,0.0000,0.0000,0.0000,0.0000,0.0000,0.0000,0.0000,-0.0000,0.0011,-0.0090,0.0311,0.0000,0.0000,-0.6000,0.7083,0.6942,0.7041,0.6791,0.6105,0.5884,0.6206,0.5805,5
83,23,1262157456602,-10.5360,-0.1184,-0.0924,-0.1490,0.2210,0.0010,1.1726,6797.9453,6594.4927,6781.7485,6532.3643,12.0585,0.0000,0.9155,-0.9766,0.4272,-3.1465,-20.6962,12.8582,-0.0010,0.0022,-0.0114,0.0000,0.0000,0.0000,0.0000,0.0000,0.0000,0.0000,0.0000,0.0000,0.0000,0.0000,0.0000,0.0000,0.0000,1.0000,0.0000,0.0000,0.0000,0.0000,0.0000,0.0000,0.0000,0.0000,0.0000,0.0000,0.0000,-0.0000,-0.0083,-0.0056,0.0309,0.0000,0.0000,-0.6000,0.7083,0.6942,0.7041,0.6791,0.6168,0.5915,0.6141,0.5776,5
84,23,1262726914955,-10.5714,-0.0932,-0.0845,-0.7290,0.8010,0.0010,1.1726,6880.3477,6754.0898,6884.9087,6672.7598,12.0581,0.0000,1.4648,-1.8921,-1.3428,-3.2039,-19.2051,9.0988,0.0012,0.0018,-0.0116,0.0000,0.0000,0.0000,0.0000,0.0000,0.0000,0.0000,0.0000,0.0000,0.0000,0.0000,0.0000,0.0000,0.0000,1.0000,0.0000,0.0000,0.0000,0.0000,0.0000,0.0000,0.0000,0.0000,0.0000,0.0000,0.0000,-0.0000,-0.0185,-0.0012,0.0320,0.0000,0.0000,-0.6000,0.7178,0.7010,0.7184,0.6929,0.6247,0.5939,0.6074,0.5741,5
85,23,1262787193324,-10.5679,-0.0997,-0.0811,-0.7290,0.7010,0.0210,1.1726,6917.9849,6760.8740,6828.1499,6635.0166,12.0573,0.0000,2.2583,-1.3428,0.3052,-11.2111,11.9507,35.3451,-0.0012,0.0041,-0.0119,0.0000,0.0000,0.0000,0.0000,0.0000,0.0000,0.0000,0.0000,0.0000,0.0000,0.0000,0.0000,0.0000,0.0000,1.0000,0.0000,0.0000,0.0000,0.0000,0.0000,0.0000,0.0000,0.0000,0.0000,0.0000,0.0000,-0.0000,0.0018,-0.0151,0.0349,0.0000,0.0000,-0.6000,0.7211,0.7004,0.7107,0.6892,0.6090,0.5892,0.6259,0.5759,5
86,23,1262792091293,-10.5679,-0.0997,-0.0811,-0.7290,0.7010,0.0210,1.1726,6917.9849,6760.8740,6838.9443,6635.0166,12.0559,0.0000,1.2817,-1.4038,-0.0000,-8.1316,15.5971,12.6386,-0.0023,0.0029,-0.0119,0.0000,0.0000,0.0000,0.0000,0.0000,0.0000,0.0000,0.0000,0.0000,0.0000,0.0000,0.0000,0.0000,0.0000,1.0000,0.0000,0.0000,0.0000,0.0000,0.0000,0.0000,0.0000,0.0000,0.0000,0.0000,0.0000,-0.0000,0.0076,-0.0035,0.0347,0.0000,0.0000,-0.6000,0.7211,0.7004,0.7107,0.6892,0.6118,0.5806,0.6229,0.5847,5
87,23,1262797046837,-10.5679,-0.0997,-0.0811,-0.7290,0.7010,0.0210,1.1726,6917.9849,6760.8740,6838.9443,6635.0166,12.0561,0.0000,-0.0610,-1.5259,0.7935,-3.1919,19.5958,-13.9919,-0.0038,0.0020,-0.0119,0.0000,0.0000,0.0000,0.0000,0.0000,0.0000,0.0000,0.0000,0.0000,0.0000,0.0000,0.0000,0.0000,0.0000,1.0000,0.0000,0.0000,0.0000,0.0000,0.0000,0.0000,0.0000,0.0000,0.0000,0.0000,0.0000,-0.0000,0.0145,0.0029,0.0339,0.0000,0.0000,-0.6000,0.7211,0.7004,0.7107,0.6892,0.6111,0.5744,0.6228,0.5917,5
88,23,1262802118322,-10.5647,-0.0909,-0.0942,-0.6990,0.8210,-0.0090,1.1726,6917.9849,6760.8740,6838.9443,6655.6499,12.0571,0.0000,-1.4038,-0.8545,0.4883,0.7938,15.0625,-34.8939,-0.0058,0.0016,-0.0118,0.0000,0.0000,0.0000,0.0000,0.0000,0.0000,0.0000,0.0000,0.0000,0.0000,0.0000,0.0000,0.0000,0.0000,1.0000,0.0000,0.0000,0.0000,0.0000,0.0000,0.0000,0.0000,0.0000,0.0000,0.0000,0.0000,-0.0000,0.0224,0.0041,0.0334,0.0000,0.0000,-0.6000,0.7225,0.7017,0.7121,0.6911,0.6076,0.5701,0.6258,0.5965,5
89,23,1262807086198,-10.5647,-0.0909,-0.0942,-0.6990,0.8210,-0.0090,1.1726,6917.9849,6760.8740,6838.9443,6655.6499,12.0576,0.0000,-2.5024,-0.2441,1.0376,4.9182,10.3996,-48.8716,-0.0074,0.0017,-0.0117,0.0000,0.0000,0.0000,0.0000,0.0000,0.0000,0.0000,0.0000,0.0000,0.0000,0.0000,0.0000,0.0000,0.0000,1.0000,0.0000,0.0000,0.0000,0.0000,0.0000,0.0000,0.0000,0.0000,0.0000,0.0000,0.0000,-0.0000,0.0258,0.0023,0.0326,0.0000,0.0000,-0.6000,0.7225,0.7017,0.7121,0.6911,0.6046,0.5697,0.6280,0.5978,5
90,23,1263061523695,-10.3970,-0.1060,-0.1940,-0.0390,-0.0190,-0.1090,1.1726,6679.6221,6483.6880,6808.5498,6642.4229,12.0573,0.0000,-3.3569,0.1221,0.1221,6.3671,7.5564,-56.6719,-0.0087,0.0022,-0.0117,0.0000,0.0000,0.0000,0.0000,0.0000,0.0000,0.0000,0.0000,0.0000,0.0000,0.0000,0.0000,0.0000,0.0000,1.0000,0.0000,0.0000,0.0000,0.0000,0.0000,0.0000,0.0000,0.0000,0.0000,0.0000,0.0000,-0.0000,0.0259,-0.0015,0.0325,0.0000,0.0000,-0.6000,0.6934,0.6746,0.7077,0.6898,0.6026,0.5716,0.6300,0.5960,5
91,23,1263122120199,-10.4261,-0.1689,-0.1218,-0.0690,-0.0590,-0.0490,1.1726,6674.8184,6501.9399,6826.8232,6639.3701,12.0583,0.0000,2.1973,0.8545,-0.6714,2.7424,-5.0344,-20.4676,-0.0046,0.0030,-0.0124,0.0000,0.0000,0.0000,0.0000,0.0000,0.0000,0.0000,0.0000,0.0000,0.0000,0.0000,0.0000,0.0000,0.0000,1.0000,0.0000,0.0000,0.0000,0.0000,0.0000,0.0000,0.0000,0.0000,0.0000,0.0000,0.0000,-0.0000,-0.0060,-0.0064,0.0379,0.0000,0.0000,-0.6000,0.6930,0.6763,0.7101,0.6895,0.6187,0.5873,0.6192,0.5748,5
92,23,1263558160334,-10.3955,0.0990,-0.1984,-0.0590,-0.0290,-0.0890,1.1726,6759.3965,6585.0571,6761.6694,6514.8643,12.0585,0.0000,1.4648,2.0142,0.2441,-1.1381,0.9733,-20.7683,-0.0040,0.0035,-0.0123,0.0000,0.0000,0.0000,0.0000,0.0000,0.0000,0.0000,0.0000,0.0000,0.0000,0.0000,0.0000,0.0000,0.0000,1.0000,0.0000,0.0000,0.0000,0.0000,0.0000,0.0000,0.0000,0.0000,0.0000,0.0000,0.0000,-0.0000,-0.0075,-0.0073,0.0372,0.0000,0.0000,-0.6000,0.7014,0.6843,0.7017,0.6775,0.6187,0.5889,0.6185,0.5740,5
93,23,1263616936264,-10.4536,-0.0507,-0.1884,-0.0390,0.0410,-0.0190,1.1726,6761.4663,6596.5239,6762.9751,6515.1431,12.0590,0.0000,-1.0986,-1.1597,-0.1831,3.6462,7.1752,-28.1390,-0.0075,0.0009,-0.0124,0.0000,0.0000,0.0000,0.0000,0.0000,0.0000,0.0000,0.0000,0.0000,0.0000,0.0000,0.0000,0.0000,0.0000,1.0000,0.0000,0.0000,0.0000,0.0000,0.0000,0.0000,0.0000,0.0000,0.0000,0.0000,0.0000,-0.0000,0.0164,0.0105,0.0368,0.0000,0.0000,-0.6000,0.7020,0.6856,0.7019,0.6775,0.6155,0.5681,0.6213,0.5951,5
94,23,1263621848273,-10.4536,-0.0507,-0.1884,-0.0390,0.0410,-0.0190,1.1726,6761.4663,6596.5239,6760.4453,6515.1431,12.0590,0.0000,-1.8921,-0.2441,0.4272,5.9798,1.6350,-26.3871,-0.0083,0.0012,-0.0123,0.0000,0.0000,0.0000,0.0000,0.0000,0.0000,0.0000,0.0000,0.0000,0.0000,0.0000,0.0000,0.0000,0.0000,1.0000,0.0000,0.0000,0.0000,0.0000,0.0000,0.0000,0.0000,0.0000,0.0000,0.0000,0.0000,-0.0000,0.0169,0.0051,0.0361,0.0000,0.0000,-0.6000,0.7020,0.6856,0.7019,0.6775,0.6122,0.5709,0.6240,0.5930,5
95,23,1263626815775,-10.4536,-0.0507,-0.1884,-0.0390,0.0410,-0.0190,1.1726,6761.4663,6596.5239,6760.4453,6515.1431,12.0595,0.0000,-0.5493,0.0610,0.3052,6.9385,-5.1063,-23.7663,-0.0085,0.0018,-0.0123,0.0000,0.0000,0.0000,0.0000,0.0000,0.0000,0.0000,0.0000,0.0000,0.0000,0.0000,0.0000,0.0000,0.0000,1.0000,0.0000,0.0000,0.0000,0.0000,0.0000,0.0000,0.0000,0.0000,0.0000,0.0000,0.0000,-0.0000,0.0134,-0.0002,0.0356,0.0000,0.0000,-0.6000,0.7020,0.6856,0.7019,0.6775,0.6111,0.5756,0.6246,0.5888,5
96,23,1263631811397,-10.4585,-0.1404,-0.1323,-0.0390,0.0410,-0.0190,1.1726,6761.4663,6596.5239,6760.4453,6631.2661,12.0593,0.0000,-0.4883,1.6479,1.3428,5.7120,-13.4323,-16.3072,-0.0080,0.0026,-0.0122,0.0000,0.0000,0.0000,0.0000,0.0000,0.0000,0.0000,0.0000,0.0000,0.0000,0.0000,0.0000,0.0000,0.0000,1.0000,0.0000,0.0000,0.0000,0.0000,0.0000,0.0000,0.0000,0.0000,0.0000,0.0000,0.0000,-0.0000,0.0070,-0.0052,0.0344,0.0000,0.0000,-0.6000,0.7017,0.6854,0.7015,0.6887,0.6111,0.5819,0.6234,0.5837,5
97,23,1264060936561,-10.4859,0.0136,-0.1782,-0.0490,-0.0190,-0.0690,1.1726,6716.6592,6554.2891,6794.8677,6575.1602,12.0590,0.0000,0.2441,2.0752,0.4883,3.7418,-18.3948,-4.9814,-0.0067,0.0033,-0.0122,0.0000,0.0000,0.0000,0.0000,0.0000,0.0000,0.0000,0.0000,0.0000,0.0000,0.0000,0.0000,0.0000,0.0000,1.0000,0.0000,0.0000,0.0000,0.0000,0.0000,0.0000,0.0000,0.0000,0.0000,0.0000,0.0000,-0.0000,-0.0026,-0.0083,0.0340,0.0000,0.0000,-0.6000,0.6980,0.6824,0.7060,0.6833,0.6141,0.5885,0.6199,0.5776,5
98,23,1264121861699,-10.3948,0.0506,-0.2159,-0.0590,0.0510,-0.0690,1.1726,6735.9702,6590.4849,6764.1401,6529.5439,12.0598,0.0000,1.0376,-0.9155,-0.0000,-9.7312,11.3706,29.6237,-0.0048,-0.0010,-0.0122,0.0000,0.0000,0.0000,0.0000,0.0000,0.0000,0.0000,0.0000,0.0000,0.0000,0.0000,0.0000,0.0000,0.0000,1.0000,0.0000,0.0000,0.0000,0.0000,0.0000,0.0000,0.0000,0.0000,0.0000,0.0000,0.0000,-0.0000,-0.0128,0.0205,0.0340,0.0000,0.0000,-0.6000,0.6985,0.6848,0.7020,0.6789,0.6337,0.5792,0.6004,0.5869,5
99,23,1264126725217,-10.3948,0.0506,-0.2159,-0.0590,0.0510,-0.0690,1.1726,6735.9702,6590.4849,6764.1401,6529.5439,12.0600,0.0000,1.2817,-1.3428,-0.8545,-4.5213,17.2009,5.4397,-0.0058,-0.0021,-0.0122,0.0000,0.0000,0.0000,0.0000,0.0000,0.0000,0.0000,0.0000,0.0000,0.0000,0.0000,0.0000,0.0000,0.0000,1.0000,0.0000,0.0000,0.0000,0.0000,0.0000,0.0000,0.0000,0.0000,0.0000,0.0000,0.0000,-0.0000,-0.0024,0.0206,0.0346,0.0000,0.0000,-0.6000,0.6985,0.6848,0.7020,0.6789,0.6288,0.5736,0.6058,0.5918,5
100,23,1264131636769,-10.3948,0.0506,-0.2159,-0.0590,0.0510,-0.0690,1.1726,6735.9702,6593.4971,6764.1401,6529.5439,12.0600,0.0000,0.0610,-0.6714,1.1597,-0.7747,15.9207,-25.5922,-0.0074,-0.0026,-0.0121,0.0000,0.0000,0.0000,0.0000,0.0000,0.0000,0.0000,0.0000,0.0000,0.0000,0.0000,0.0000,0.0000,0.0000,1.0000,0.0000,0.0000,0.0000,0.0000,0.0000,0.0000,0.0000,0.0000,0.0000,0.0000,0.0000,-0.0000,0.0088,0.0173,0.0336,0.0000,0.0000,-0.6000,0.6985,0.6848,0.7020,0.6789,0.6211,0.5701,0.6126,0.5963,5
101,23,1264579172581,-10.3949,0.1236,-0.1844,-0.0590,-0.0390,-0.0890,1.1726,6772.4717,6488.4727,6726.1699,6635.8018,12.0595,0.0000,-0.1831,-0.0610,-1.2207,4.4687,14.4607,-50.3896,-0.0089,-0.0027,-0.0123,0.0000,0.0000,0.0000,0.0000,0.0000,0.0000,0.0000,0.0000,0.0000,0.0000,0.0000,0.0000,0.0000,0.0000,1.0000,0.0000,0.0000,0.0000,0.0000,0.0000,0.0000,0.0000,0.0000,0.0000,0.0000,0.0000,-0.0000,0.0160,0.0125,0.0345,0.0000,0.0000,-0.6000,0.7031,0.6750,0.6979,0.6892,0.6156,0.5685,0.6190,0.5970,5
102,23,1264636686079,-10.5327,-0.0393,-0.1469,-0.0690,0.0310,0.0010,1.1726,6749.5708,6486.2231,6768.0444,6646.5693,12.0595,0.0000,0.0610,-2.2583,-1.3428,0.9133,16.5129,-39.5555,-0.0097,-0.0007,-0.0122,0.0000,0.0000,0.0000,0.0000,0.0000,0.0000,0.0000,0.0000,0.0000,0.0000,0.0000,0.0000,0.0000,0.0000,1.0000,0.0000,0.0000,0.0000,0.0000,0.0000,0.0000,0.0000,0.0000,0.0000,0.0000,0.0000,-0.0000,0.0167,-0.0030,0.0343,0.0000,0.0000,-0.6000,0.7001,0.6748,0.7025,0.6902,0.6073,0.5760,0.6270,0.5897,5
103,23,1264641547181,-10.5327,-0.0393,-0.1469,-0.0690,0.0310,0.0010,1.1726,6749.5708,6486.6680,6768.0444,6646.5693,12.0585,0.0000,-0.3052,-0.4272,-0.0610,5.7311,15.7361,-59.0206,-0.0113,-0.0006,-0.0123,0.0000,0.0000,0.0000,0.0000,0.0000,0.0000,0.0000,0.0000,0.0000,0.0000,0.0000,0.0000,0.0000,0.0000,1.0000,0.0000,0.0000,0.0000,0.0000,0.0000,0.0000,0.0000,0.0000,0.0000,0.0000,0.0000,-0.0000,0.0218,-0.0024,0.0343,0.0000,0.0000,-0.6000,0.7001,0.6748,0.7025,0.6902,0.6051,0.5732,0.6293,0.5926,5
104,23,1264646552262,-10.5327,-0.0393,-0.1469,-0.0690,0.0310,0.0010,1.1726,6749.5708,6486.6680,6768.0444,6646.5693,12.0573,0.0000,-1.2817,0.3052,-0.5493,11.7563,13.5713,-70.3178,-0.0129,-0.0001,-0.0123,0.0000,0.0000,0.0000,0.0000,0.0000,0.0000,0.0000,0.0000,0.0000,0.0000,0.0000,0.0000,0.0000,0.0000,1.0000,0.0000,0.0000,0.0000,0.0000,0.0000,0.0000,0.0000,0.0000,0.0000,0.0000,0.0000,-0.0000,0.0254,-0.0052,0.0347,0.0000,0.0000,-0.6000,0.7001,0.6748,0.7025,0.6902,0.6021,0.5726,0.6327,0.5928,5
105,23,1264651540720,-10.5327,-0.0393,-0.1469,-0.0690,0.0310,0.0010,1.1726,6749.5708,6486.6680,6768.0444,6646.5693,12.0571,0.0000,-1.9531,1.7090,1.1597,12.9733,12.1018,-72.1438,-0.0143,0.0012,-0.0122,0.0000,0.0000,0.0000,0.0000,0.0000,0.0000,0.0000,0.0000,0.0000,0.0000,0.0000,0.0000,0.0000,0.0000,1.0000,0.0000,0.0000,0.0000,0.0000,0.0000,0.0000,0.0000,0.0000,0.0000,0.0000,0.0000,-0.0000,0.0269,-0.0114,0.0338,0.0000,0.0000,-0.6001,0.7001,0.6748,0.7025,0.6902,0.5978,0.5754,0.6361,0.5909,5
106,23,1265060711609,-10.5061,-0.1274,-0.1093,-0.0590,0.0810,0.0310,1.1726,6671.5088,6543.3262,6866.3286,6632.4102,12.0566,0.0000,-3.9673,2.0752,-0.6714,13.9297,4.8978,-56.1659,-0.0157,0.0027,-0.0123,0.0000,0.0000,0.0000,0.0000,0.0000,0.0000,0.0000,0.0000,0.0000,0.0000,0.0000,0.0000,0.0000,0.0000,1.0000,0.0000,0.0000,0.0000,0.0000,0.0000,0.0000,0.0000,0.0000,0.0000,0.0000,0.0000,-0.0000,0.0282,-0.0166,0.0343,0.0000,0.0000,-0.6001,0.6926,0.6803,0.7152,0.6889,0.5948,0.5771,0.6397,0.5887,5
107,23,1265121596059,-10.5399,-0.1351,-0.0594,-0.0490,-0.0290,-0.0690,1.1726,6626.9253,6527.5562,6874.3145,6608.1030,12.0564,0.0000,-0.6104,1.8311,-0.0000,10.4580,-16.6279,-35.4763,-0.0033,0.0053,-0.0122,0.0000,0.0000,0.0000,0.0000,0.0000,0.0000,0.0000,0.0000,0.0000,0.0000,0.0000,0.0000,0.0000,0.0000,1.0000,0.0000,0.0000,0.0000,0.0000,0.0000,0.0000,0.0000,0.0000,0.0000,0.0000,0.0000,-0.0000,-0.0542,-0.0276,0.0332,0.0000,0.0000,-0.6000,0.6897,0.6801,0.7181,0.6864,0.6299,0.6243,0.6033,0.5425,5
108,23,1265126428082,-10.5399,-0.1351,-0.0594,-0.0490,-0.0290,-0.0690,1.1726,6626.9253,6527.5562,6874.3145,6608.1030,12.0566,0.0000,-0.2441,1.8311,0.3662,3.5912,-16.2971,-4.3107,-0.0017,0.0065,-0.0121,0.0000,0.0000,0.0000,0.0000,0.0000,0.0000,0.0000,0.0000,0.0000,0.0000,0.0000,0.0000,0.0000,0.0000,1.0000,0.0000,0.0000,0.0000,0.0000,0.0000,0.0000,0.0000,0.0000,0.0000,0.0000,0.0000,-0.0000,-0.0466,-0.0264,0.0330,0.0000,0.0000,-0.6000,0.6897,0.6801,0.7181,0.6864,0.6265,0.6200,0.6064,0.5470,5
109,23,1265131415750,-10.3948,0.1143,-0.1904,-0.0490,-0.0290,-0.0690,1.1726,6626.9253,6527.5562,6874.3145,6592.8872,12.0552,0.0000,1.3428,1.5259,-0.3662,-0.0837,-16.4289,22.6038,-0.0000,0.0070,-0.0121,0.0000,0.0000,0.0000,0.0000,0.0000,0.0000,0.0000,0.0000,0.0000,0.0000,0.0000,0.0000,0.0000,0.0000,1.0000,0.0000,0.0000,0.0000,0.0000,0.0000,0.0000,0.0000,0.0000,0.0000,0.0000,0.0000,-0.0000,-0.0420,-0.0216,0.0333,0.0000,0.0000,-0.6000,0.6883,0.6787,0.7162,0.6850,0.6269,0.6152,0.6064,0.5515,5
110,23,1265777798596,-10.4493,-0.1971,0.0038,0.0010,0.0510,-0.0190,1.1726,6805.2495,6741.7358,6693.4800,6383.4253,12.0552,0.0000,2.9297,-0.4883,-0.0000,-6.5321,-14.2857,38.2666,0.0018,0.0069,-0.0121,0.0000,0.0000,0.0000,0.0000,0.0000,0.0000,0.0000,0.0000,0.0000,0.0000,0.0000,0.0000,0.0000,0.0000,1.0000,0.0000,0.0000,0.0000,0.0000,0.0000,0.0000,0.0000,0.0000,0.0000,0.0000,0.0000,-0.0000,-0.0400,-0.0152,0.0332,0.0000,0.0000,-0.6000,0.7073,0.6994,0.6947,0.6648,0.6290,0.6110,0.6042,0.5558,5
111,23,1265836364541,-10.5390,-0.1306,-0.0695,-0.6290,0.7910,0.0510,1.1726,6945.3350,6862.6636,6823.3740,6495.3145,12.0547,0.0000,3.3569,0.0000,-1.6479,-11.1585,-8.3188,49.6736,0.0010,-0.0050,-0.0126,0.0000,0.0000,0.0000,0.0000,0.0000,0.0000,0.0000,0.0000,0.0000,0.0000,0.0000,0.0000,0.0000,0.0000,1.0000,0.0000,0.0000,0.0000,0.0000,0.0000,0.0000,0.0000,0.0000,0.0000,0.0000,0.0000,-0.0000,-0.0223,0.0611,0.0372,0.0000,0.0000,-0.6000,0.7200,0.7092,0.7041,0.6758,0.6604,0.5620,0.5769,0.6008,5
112,23,1265841287302,-10.5390,-0.1306,-0.0695,-0.6290,0.7910,0.0510,1.1726,6945.3350,6862.6636,6823.3740,6495.3145,12.0547,0.0000,3.3569,-1.4038,0.6714,-11.5100,-5.4539,29.5330,0.0021,-0.0062,-0.0125,0.0000,0.0000,0.0000,0.0000,0.0000,0.0000,0.0000,0.0000,0.0000,0.0000,0.0000,0.0000,0.0000,0.0000,1.0000,0.0000,0.0000,0.0000,0.0000,0.0000,0.0000,0.0000,0.0000,0.0000,0.0000,0.0000,-0.0000,-0.0221,0.0498,0.0364,0.0000,0.0000,-0.6000,0.7200,0.7092,0.7041,0.6758,0.6542,0.5680,0.5823,0.5956,5
113,23,1265846322504,-10.5542,-0.1085,-0.0859,-0.6290,0.7910,0.0510,1.1726,6945.3350,6862.6636,6823.3740,6538.8394,12.0544,0.0000,2.3804,-1.1597,0.2441,-9.5901,2.6083,7.7813,0.0028,-0.0074,-0.0125,0.0000,0.0000,0.0000,0.0000,0.0000,0.0000,0.0000,0.0000,0.0000,0.0000,0.0000,0.0000,0.0000,0.0000,1.0000,0.0000,0.0000,0.0000,0.0000,0.0000,0.0000,0.0000,0.0000,0.0000,0.0000,0.0000,-0.0000,-0.0199,0.0421,0.0360,0.0000,0.0000,-0.6000,0.7258,0.7149,0.7097,0.6798,0.6491,0.5709,0.5870,0.5931,5
114,23,1265851204729,-10.5542,-0.1085,-0.0859,-0.6790,0.7610,0.0010,1.1726,6945.3350,6862.6636,6823.3740,6538.8394,12.0540,0.0000,1.2817,-1.0986,-0.5493,-8.3611,6.5735,-14.7987,0.0027,-0.0085,-0.0126,0.0000,0.0000,0.0000,0.0000,0.0000,0.0000,0.0000,0.0000,0.0000,0.0000,0.0000,0.0000,0.0000,0.0000,1.0000,0.0000,0.0000,0.0000,0.0000,0.0000,0.0000,0.0000,0.0000,0.0000,0.0000,0.0000,-0.0000,-0.0131,0.0358,0.0363,0.0000,0.0000,-0.6000,0.7258,0.7149,0.7097,0.6798,0.6426,0.5706,0.5937,0.5932,5
115,23,1265856177232,-10.5542,-0.1085,-0.0859,-0.6790,0.7610,0.0010,1.1726,6945.3350,6862.6636,6823.3740,6538.8394,12.0532,0.0000,-0.6104,-0.6104,1.8311,-2.0371,9.1458,-29.3325,0.0020,-0.0093,-0.0124,0.0000,0.0000,0.0000,0.0000,0.0000,0.0000,0.0000,0.0000,0.0000,0.0000,0.0000,0.0000,0.0000,0.0000,1.0000,0.0000,0.0000,0.0000,0.0000,0.0000,0.0000,0.0000,0.0000,0.0000,0.0000,0.0000,-0.0000,-0.0051,0.0304,0.0347,0.0000,0.0000,-0.6000,0.7258,0.7149,0.7097,0.6798,0.6351,0.5700,0.5996,0.5954,5
116,23,1265861142361,-10.5542,-0.1085,-0.0859,-0.6790,0.7610,0.0010,1.1726,7055.0259,6862.6636,6823.3740,6538.8394,12.0520,0.0000,-1.6479,0.4272,-1.1597,-2.3479,10.9606,-32.6885,0.0010,-0.0094,-0.0125,0.0000,0.0000,0.0000,0.0000,0.0000,0.0000,0.0000,0.0000,0.0000,0.0000,0.0000,0.0000,0.0000,0.0000,1.0000,0.0000,0.0000,0.0000,0.0000,0.0000,0.0000,0.0000,0.0000,0.0000,0.0000,0.0000,-0.0000,0.0025,0.0224,0.0354,0.0000,0.0000,-0.6000,0.7258,0.7149,0.7097,0.6798,0.6277,0.5698,0.6078,0.5948,5
117,23,1266061087680,-10.5649,-0.1000,-0.0843,-0.7390,0.8010,0.0310,1.1726,6938.1968,6622.8604,6844.7173,6769.2354,12.0518,0.0000,-2.1973,0.3052,1.8311,1.4489,9.3352,-35.8964,-0.0003,-0.0096,-0.0124,0.0000,0.0000,0.0000,0.0000,0.0000,0.0000,0.0000,0.0000,0.0000,0.0000,0.0000,0.0000,0.0000,0.0000,1.0000,0.0000,0.0000,0.0000,0.0000,0.0000,0.0000,0.0000,0.0000,0.0000,0.0000,0.0000,-0.0000,0.0092,0.0171,0.0339,0.0000,0.0000,-0.6000,0.7253,0.6880,0.7129,0.7028,0.6209,0.5699,0.6130,0.5963,5
118,23,1266121298198,-10.4137,-0.2143,0.0091,-0.7390,0.8010,0.0310,1.1726,6874.6914,6601.9180,6849.9634,6754.5269,12.0503,0.0000,-0.7935,1.0986,0.6104,0.1793,16.3930,-11.2852,-0.0056,-0.0016,-0.0126,0.0000,0.0000,0.0000,0.0000,0.0000,0.0000,0.0000,0.0000,0.0000,0.0000,0.0000,0.0000,0.0000,0.0000,1.0000,0.0000,0.0000,0.0000,0.0000,0.0000,0.0000,0.0000,0.0000,0.0000,0.0000,0.0000,-0.0000,0.0386,-0.0356,0.0362,0.0000,0.0000,-0.6000,0.7173,0.6864,0.7140,0.7016,0.5810,0.5804,0.6552,0.5834,5
119,23,1266372372697,-10.5571,-0.1001,-0.0927,-0.8290,0.8910,0.0510,1.1726,6712.4160,6708.9282,7118.6670,6726.4536,12.0489,0.0000,-1.3428,1.4648,1.2817,-0.6049,17.6420,-10.9558,-0.0073,-0.0015,-0.0125,0.0000,0.0000,0.0000,0.0000,0.0000,0.0000,0.0000,0.0000,0.0000,0.0000,0.0000,0.0000,0.0000,0.0000,1.0000,0.0000,0.0000,0.0000,0.0000,0.0000,0.0000,0.0000,0.0000,0.0000,0.0000,0.0000,-0.0000,0.0372,-0.0253,0.0351,0.0000,0.0000,-0.6000,0.6965,0.6961,0.7492,0.6978,0.5863,0.5765,0.6488,0.5884,5
120,23,1266431134920,-10.5595,-0.1012,-0.0890,-0.7690,0.8710,0.0410,1.1726,6736.5850,6678.6704,7074.7534,6748.8701,12.0489,0.0000,0.2441,-0.4272,-0.0000,10.7999,-12.8665,-19.3672,0.0016,-0.0002,-0.0127,0.0000,0.0000,0.0000,0.0000,0.0000,0.0000,0.0000,0.0000,0.0000,0.0000,0.0000,0.0000,0.0000,0.0000,1.0000,0.0000,0.0000,0.0000,0.0000,0.0000,0.0000,0.0000,0.0000,0.0000,0.0000,0.0000,-0.0000,-0.0277,-0.0247,0.0368,0.0000,0.0000,-0.6000,0.6988,0.6933,0.7433,0.7000,0.6199,0.6078,0.6169,0.5554,5
121,23,1266436083386,-10.5595,-0.1012,-0.0890,-0.7990,0.9210,0.0810,1.1726,6736.5850,6678.6704,7074.7534,6748.8701,12.0489,0.0000,0.6714,1.3428,-0.0000,14.0062,-16.9659,-30.6023,0.0029,0.0009,-0.0127,0.0000,0.0000,0.0000,0.0000,0.0000,0.0000,0.0000,0.0000,0.0000,0.0000,0.0000,0.0000,0.0000,0.0000,1.0000,0.0000,0.0000,0.0000,0.0000,0.0000,0.0000,0.0000,0.0000,0.0000,0.0000,0.0000,-0.0000,-0.0270,-0.0240,0.0365,0.0000,0.0000,-0.6000,0.6988,0.6933,0.7433,0.7000,0.6198,0.6072,0.6167,0.5563,5
