loop_index, counter, last_step_ns, T_ref, theta_ref, phi_ref, uwind, vwind, wwind, rho, rpm1, rpm2, rpm3, rpm4,v_batt,alt,gyro_roll,gyro_pitch,gyro_yaw,accel_X,accel_Y,accel_Z,roll,pitch,yaw,X,Y,Z,Xdot,Ydot,Zdot,x0,y0,z0,e.xbee_time,xbee_time_received_ns,xbee_x,xbee_y,xbee_z,xbee_qw,xbee_qx,xbee_qy,xbee_qz,sp_roll,sp_pitch,sp_yaw,sp_X,sp_Y,sp_Z,sp_Xdot,sp_Ydot,sp_Zdot,u_roll,u_pitch,u_yaw,u_X,u_Y,u_Z,mot_1,mot_2,mot_3,mot_4,flight mode
1,94,1859061314516,-10.5692,-0.1139,0.0573,0.0510,0.1010,0.0010,1.1647,23.4375,23.4375,23.4375,23.4375,12.2462,0.0000,0.0000,0.0000,-0.0000,-0.1148,-0.2086,-10.5477,0.0217,-0.0190,-0.0075,0.0000,0.0000,0.0000,0.0000,0.0000,0.0000,0.0000,0.0000,0.0000,0.0000,0.0000,0.0000,0.0000,0.0000,1.0000,0.0000,0.0000,0.0000,-0.1139,0.0573,0.0000,0.0000,0.0000,0.0000,0.0000,0.0000,-0.0000,-0.0000,0.0000,0.0000,0.0000,0.0000,-0.5743,0.0025,0.0025,0.0025,0.0025,4
2,95,1859117153858,-10.5692,-0.1139,0.0573,0.0510,0.1010,0.0010,1.1647,23.4375,23.4375,23.4375,23.4375,12.2464,0.0000,-0.0610,-0.1221,-0.0000,-0.0885,-0.1894,-10.5835,0.0217,-0.0190,-0.0075,0.0000,0.0000,0.0000,0.0000,0.0000,0.0000,0.0000,0.0000,0.0000,0.0000,0.0000,0.0000,0.0000,0.0000,1.0000,0.0000,0.0000,0.0000,-0.1139,0.0573,0.0000,0.0000,0.0000,0.0000,0.0000,0.0000,-0.0000,-0.0020,0.0020,0.0020,0.0000,0.0000,-0.5743,0.0025,0.0025,0.0025,0.0025,4
3,96,1859120813721,-10.5692,-0.1139,0.0573,0.0510,0.1010,0.0010,1.1647,23.4375,23.4375,23.4375,23.4375,12.2459,0.0000,0.0610,0.0000,-0.0000,-0.1387,-0.1966,-10.5214,0.0217,-0.0190,-0.0075,0.0000,0.0000,0.0000,0.0000,0.0000,0.0000,0.0000,0.0000,0.0000,0.0000,0.0000,0.0000,0.0000,0.0000,1.0000,0.0000,0.0000,0.0000,-0.1139,0.0573,0.0000,0.0000,0.0000,0.0000,0.0000,0.0000,-0.0000,-0.0040,0.0040,0.0040,0.0000,0.0000,-0.5743,0.0025,0.0025,0.0025,0.0025,4
4,97,1859125685276,-10.5692,-0.1139,0.0573,0.0710,0.1510,0.0610,1.1647,23.4375,23.4375,23.4375,23.4375,12.2457,0.0000,0.0000,-0.1221,-0.0000,-0.1530,-0.2589,-10.5644,0.0217,-0.0190,-0.0075,0.0000,0.0000,0.0000,0.0000,0.0000,0.0000,0.0000,0.0000,0.0000,0.0000,0.0000,0.0000,0.0000,0.0000,1.0000,0.0000,0.0000,0.0000,-0.1139,0.0573,0.0000,0.0000,0.0000,0.0000,0.0000,0.0000,-0.0000,-0.0060,0.0060,0.0060,0.0000,0.0000,-0.5743,0.0025,0.0025,0.0025,0.0025,4
5,98,1859158905223,-10.4509,-0.1781,0.0831,0.0710,0.1510,0.0610,1.1647,23.4375,23.4375,23.4375,23.4375,12.2457,0.0000,0.0000,-0.1831,-0.0000,-0.1387,-0.2134,-10.6050,0.0217,-0.0190,-0.0075,0.0000,0.0000,0.0000,0.0000,0.0000,0.0000,0.0000,0.0000,0.0000,0.0000,0.0000,0.0000,0.0000,0.0000,1.0000,0.0000,0.0000,0.0000,-0.1781,0.0831,0.0000,0.0000,0.0000,0.0000,0.0000,0.0000,-0.0000,-0.0080,0.0080,0.0080,0.0000,0.0000,-0.5677,0.0025,0.0025,0.0025,0.0025,4
6,99,1859216807198,-10.4509,-0.1781,0.0831,0.0710,0.1510,0.0610,1.1647,23.4375,23.4375,23.4375,23.4375,12.2449,0.0000,-0.0610,-0.2441,-0.0000,-0.1482,-0.2325,-10.5620,0.0217,-0.0190,-0.0076,0.0000,0.0000,0.0000,0.0000,0.0000,0.0000,0.0000,0.0000,0.0000,0.0000,0.0000,0.0000,0.0000,0.0000,1.0000,0.0000,0.0000,0.0000,-0.1781,0.0831,0.0000,0.0000,0.0000,0.0000,0.0000,0.0000,-0.0000,-0.0100,0.0100,0.0100,0.0000,0.0000,-0.5677,0.0025,0.0025,0.0025,0.0025,4
7,100,1859220980668,-10.4509,-0.1781,0.0831,0.0710,0.1510,0.0610,1.1647,23.4375,23.4375,23.4375,23.4375,12.2433,0.0000,0.0000,-0.1221,-0.0000,-0.1148,-0.1822,-10.5930,0.0218,-0.0190,-0.0076,0.0000,0.0000,0.0000,0.0000,0.0000,0.0000,0.0000,0.0000,0.0000,0.0000,0.0000,0.0000,0.0000,0.0000,1.0000,0.0000,0.0000,0.0000,-0.1781,0.0831,0.0000,0.0000,0.0000,0.0000,0.0000,0.0000,-0.0000,-0.0120,0.0120,0.0117,0.0000,0.0000,-0.5677,0.0025,0.0025,0.0025,0.0025,4
8,101,1859225674411,-10.4509,-0.1781,0.0831,0.0710,0.1510,0.0610,1.1647,23.4375,23.4375,23.4375,23.4375,12.2423,0.0000,-0.1831,-0.1831,-0.0000,-0.1339,-0.2445,-10.5978,0.0217,-0.0190,-0.0076,0.0000,0.0000,0.0000,0.0000,0.0000,0.0000,0.0000,0.0000,0.0000,0.0000,0.0000,0.0000,0.0000,0.0000,1.0000,0.0000,0.0000,0.0000,-0.1781,0.0831,0.0000,0.0000,0.0000,0.0000,0.0000,0.0000,-0.0000,-0.0140,0.0140,0.0131,0.0000,0.0000,-0.5677,0.0025,0.0025,0.0025,0.0025,4
9,102,1859230699823,-10.4509,-0.1781,0.0831,0.0710,0.1510,0.0610,1.1647,23.4375,23.4375,23.4375,23.4375,12.2416,0.0000,0.0000,0.0000,-0.0610,-0.1267,-0.1798,-10.5930,0.0217,-0.0190,-0.0076,0.0000,0.0000,0.0000,0.0000,0.0000,0.0000,0.0000,0.0000,0.0000,0.0000,0.0000,0.0000,0.0000,0.0000,1.0000,0.0000,0.0000,0.0000,-0.1781,0.0831,0.0000,0.0000,0.0000,0.0000,0.0000,0.0000,-0.0000,-0.0160,0.0160,0.0143,0.0000,0.0000,-0.5677,0.0025,0.0025,0.0025,0.0025,4
10,103,1859235956416,-10.4509,-0.1781,0.0831,0.0710,0.1510,0.0610,1.1647,23.4375,23.4375,23.4375,23.4375,12.2408,0.0000,-0.0610,-0.1831,-0.0610,-0.1745,-0.1750,-10.5978,0.0217,-0.0190,-0.0076,0.0000,0.0000,0.0000,0.0000,0.0000,0.0000,0.0000,0.0000,0.0000,0.0000,0.0000,0.0000,0.0000,0.0000,1.0000,0.0000,0.0000,0.0000,-0.1781,0.0831,0.0000,0.0000,0.0000,0.0000,0.0000,0.0000,-0.0000,-0.0180,0.0180,0.0154,0.0000,0.0000,-0.5677,0.0025,0.0025,0.0025,0.0025,4
11,104,1859240574876,-10.4509,-0.1781,0.0831,0.0710,0.1510,0.0610,1.1647,23.4375,23.4375,23.4375,23.4375,12.2394,0.0000,-0.0610,-0.1831,-0.0000,-0.1650,-0.1870,-10.6718,0.0217,-0.0190,-0.0076,0.0000,0.0000,0.0000,0.0000,0.0000,0.0000,0.0000,0.0000,0.0000,0.0000,0.0000,0.0000,0.0000,0.0000,1.0000,0.0000,0.0000,0.0000,-0.1781,0.0831,0.0000,0.0000,0.0000,0.0000,0.0000,0.0000,-0.0000,-0.0200,0.0200,0.0163,0.0000,0.0000,-0.5677,0.0025,0.0025,0.0025,0.0025,4
12,105,1859245793682,-10.4509,-0.1781,0.0831,0.0710,0.1510,0.0610,1.1647,23.4375,23.4375,23.4375,23.4375,12.2384,0.0000,-0.0610,-0.1831,-0.0000,-0.1100,-0.2158,-10.6193,0.0217,-0.0190,-0.0076,0.0000,0.0000,0.0000,0.0000,0.0000,0.0000,0.0000,0.0000,0.0000,0.0000,0.0000,0.0000,0.0000,0.0000,1.0000,0.0000,0.0000,0.0000,-0.1781,0.0831,0.0000,0.0000,0.0000,0.0000,0.0000,0.0000,-0.0000,-0.0220,0.0220,0.0170,0.0000,0.0000,-0.5677,0.0025,0.0025,0.0025,0.0025,4
13,106,1859251056399,-10.4509,-0.1781,0.0831,0.0710,0.1510,0.0610,1.1647,23.4375,23.4375,23.4375,23.4375,12.2375,0.0000,-0.0610,-0.1221,0.1221,-0.1817,-0.1678,-10.6264,0.0217,-0.0190,-0.0076,0.0000,0.0000,0.0000,0.0000,0.0000,0.0000,0.0000,0.0000,0.0000,0.0000,0.0000,0.0000,0.0000,0.0000,1.0000,0.0000,0.0000,0.0000,-0.1781,0.0831,0.0000,0.0000,0.0000,0.0000,0.0000,0.0000,-0.0000,-0.0240,0.0238,0.0175,0.0000,0.0000,-0.5677,0.0025,0.0025,0.0025,0.0025,4
14,107,1859255684191,-10.4509,-0.1781,0.0831,0.0710,0.1510,0.0610,1.1647,23.4375,23.4375,23.4375,23.4375,12.2360,0.0000,-0.0610,-0.1221,-0.0000,-0.1172,-0.2062,-10.4832,0.0217,-0.0190,-0.0076,0.0000,0.0000,0.0000,0.0000,0.0000,0.0000,0.0000,0.0000,0.0000,0.0000,0.0000,0.0000,0.0000,0.0000,1.0000,0.0000,0.0000,0.0000,-0.1781,0.0831,0.0000,0.0000,0.0000,0.0000,0.0000,0.0000,-0.0000,-0.0260,0.0251,0.0181,0.0000,0.0000,-0.5677,0.0025,0.0025,0.0025,0.0025,4
15,108,1859260655610,-10.4509,-0.1781,0.0831,0.0710,0.1510,0.0610,1.1647,23.4375,23.4375,23.4375,23.4375,12.2350,0.0000,0.0000,-0.1221,-0.0000,-0.1363,-0.1966,-10.6431,0.0217,-0.0190,-0.0076,0.0000,0.0000,0.0000,0.0000,0.0000,0.0000,0.0000,0.0000,0.0000,0.0000,0.0000,0.0000,0.0000,0.0000,1.0000,0.0000,0.0000,0.0000,-0.1781,0.0831,0.0000,0.0000,0.0000,0.0000,0.0000,0.0000,-0.0000,-0.0280,0.0259,0.0185,0.0000,0.0000,-0.5677,0.0025,0.0025,0.0025,0.0025,4
16,109,1859265603697,-10.4509,-0.1781,0.0831,0.0710,0.1510,0.0610,1.1647,23.4375,23.4375,23.4375,23.4375,12.2333,0.0000,-0.2441,-0.1221,-0.0000,-0.1291,-0.2182,-10.5906,0.0217,-0.0190,-0.0076,0.0000,0.0000,0.0000,0.0000,0.0000,0.0000,0.0000,0.0000,0.0000,0.0000,0.0000,0.0000,0.0000,0.0000,1.0000,0.0000,0.0000,0.0000,-0.1781,0.0831,0.0000,0.0000,0.0000,0.0000,0.0000,0.0000,-0.0000,-0.0300,0.0265,0.0189,0.0000,0.0000,-0.5677,0.0025,0.0025,0.0025,0.0025,4
17,110,1859270934823,-10.4509,-0.1781,0.0831,0.0710,0.1510,0.0610,1.1647,23.4375,23.4375,23.4375,23.4375,12.2329,0.0000,-0.0610,-0.1831,-0.0000,-0.1172,-0.1390,-10.5668,0.0217,-0.0190,-0.0076,0.0000,0.0000,0.0000,0.0000,0.0000,0.0000,0.0000,0.0000,0.0000,0.0000,0.0000,0.0000,0.0000,0.0000,1.0000,0.0000,0.0000,0.0000,-0.1781,0.0831,0.0000,0.0000,0.0000,0.0000,0.0000,0.0000,-0.0000,-0.0320,0.0269,0.0192,0.0000,0.0000,-0.5677,0.0025,0.0025,0.0025,0.0025,4
18,111,1859275579113,-10.4509,-0.1781,0.0831,0.0710,0.1510,0.0610,1.1647,23.4375,23.4375,23.4375,23.4375,12.2319,0.0000,-0.0610,-0.1831,0.1831,-0.1100,-0.1774,-10.6097,0.0217,-0.0190,-0.0076,0.0000,0.0000,0.0000,0.0000,0.0000,0.0000,0.0000,0.0000,0.0000,0.0000,0.0000,0.0000,0.0000,0.0000,1.0000,0.0000,0.0000,0.0000,-0.1781,0.0831,0.0000,0.0000,0.0000,0.0000,0.0000,0.0000,-0.0000,-0.0340,0.0272,0.0194,0.0000,0.0000,-0.5677,0.0025,0.0025,0.0025,0.0025,4
19,112,1859280630481,-10.4509,-0.1781,0.0831,0.0710,0.1510,0.0610,1.1647,23.4375,23.4375,23.4375,23.4375,12.2307,0.0000,-0.0610,-0.1221,0.2441,-0.1411,-0.2086,-10.6193,0.0217,-0.0190,-0.0076,0.0000,0.0000,0.0000,0.0000,0.0000,0.0000,0.0000,0.0000,0.0000,0.0000,0.0000,0.0000,0.0000,0.0000,1.0000,0.0000,0.0000,0.0000,-0.1781,0.0831,0.0000,0.0000,0.0000,0.0000,0.0000,0.0000,-0.0000,-0.0360,0.0274,0.0195,0.0000,0.0000,-0.5677,0.0025,0.0025,0.0025,0.0025,4
20,113,1859286041806,-10.4509,-0.1781,0.0831,0.0710,0.1510,0.0610,1.1647,23.4375,23.4375,23.4375,23.4375,12.2295,0.0000,-0.0610,-0.1221,-0.0610,-0.1339,-0.1702,-10.5668,0.0217,-0.0190,-0.0076,0.0000,0.0000,0.0000,0.0000,0.0000,0.0000,0.0000,0.0000,0.0000,0.0000,0.0000,0.0000,0.0000,0.0000,1.0000,0.0000,0.0000,0.0000,-0.1781,0.0831,0.0000,0.0000,0.0000,0.0000,0.0000,0.0000,-0.0000,-0.0380,0.0275,0.0197,0.0000,0.0000,-0.5677,0.0025,0.0025,0.0025,0.0025,4
21,114,1859290678638,-10.4509,-0.1781,0.0831,0.0710,0.1510,0.0610,1.1647,23.4375,23.4375,23.4375,23.4375,12.2297,0.0000,-0.0610,-0.1221,0.1221,-0.1674,-0.2038,-10.6312,0.0217,-0.0190,-0.0076,0.0000,0.0000,0.0000,0.0000,0.0000,0.0000,0.0000,0.0000,0.0000,0.0000,0.0000,0.0000,0.0000,0.0000,1.0000,0.0000,0.0000,0.0000,-0.1781,0.0831,0.0000,0.0000,0.0000,0.0000,0.0000,0.0000,-0.0000,-0.0400,0.0276,0.0199,0.0000,0.0000,-0.5677,0.0025,0.0025,0.0025,0.0025,4
22,115,1859295924525,-10.4509,-0.1781,0.0831,0.0710,0.1510,0.0610,1.1647,23.4375,23.4375,23.4375,23.4375,12.2287,0.0000,0.0000,0.0000,0.1221,-0.1554,-0.1942,-10.5882,0.0217,-0.0190,-0.0076,0.0000,0.0000,0.0000,0.0000,0.0000,0.0000,0.0000,0.0000,0.0000,0.0000,0.0000,0.0000,0.0000,0.0000,1.0000,0.0000,0.0000,0.0000,-0.1781,0.0831,0.0000,0.0000,0.0000,0.0000,0.0000,0.0000,-0.0000,-0.0420,0.0276,0.0199,0.0000,0.0000,-0.5677,0.0025,0.0025,0.0025,0.0025,4
23,116,1859300716339,-10.4509,-0.1781,0.0831,0.0710,0.1510,0.0610,1.1647,23.4375,23.4375,23.4375,23.4375,12.2275,0.0000,0.0000,-0.1221,-0.0000,-0.1769,-0.1726,-10.5763,0.0217,-0.0190,-0.0076,0.0000,0.0000,0.0000,0.0000,0.0000,0.0000,0.0000,0.0000,0.0000,0.0000,0.0000,0.0000,0.0000,0.0000,1.0000,0.0000,0.0000,0.0000,-0.1781,0.0831,0.0000,0.0000,0.0000,0.0000,0.0000,0.0000,-0.0000,-0.0440,0.0277,0.0201,0.0000,0.0000,-0.5677,0.0025,0.0025,0.0025,0.0025,4
24,117,1859305928896,-10.4509,-0.1781,0.0831,0.0710,0.1510,0.0610,1.1647,23.4375,23.4375,23.4375,23.4375,12.2263,0.0000,-0.2441,-0.1831,-0.0000,-0.1028,-0.2325,-10.5357,0.0217,-0.0190,-0.0076,0.0000,0.0000,0.0000,0.0000,0.0000,0.0000,0.0000,0.0000,0.0000,0.0000,0.0000,0.0000,0.0000,0.0000,1.0000,0.0000,0.0000,0.0000,-0.1781,0.0831,0.0000,0.0000,0.0000,0.0000,0.0000,0.0000,-0.0000,-0.0460,0.0278,0.0202,0.0000,0.0000,-0.5677,0.0025,0.0025,0.0025,0.0025,4
25,118,1859310654135,-10.4509,-0.1781,0.0831,0.0710,0.1510,0.0610,1.1647,23.4375,23.4375,23.4375,23.4375,12.2254,0.0000,0.0000,0.0000,-0.0610,-0.1435,-0.1678,-10.6742,0.0217,-0.0190,-0.0076,0.0000,0.0000,0.0000,0.0000,0.0000,0.0000,0.0000,0.0000,0.0000,0.0000,0.0000,0.0000,0.0000,0.0000,1.0000,0.0000,0.0000,0.0000,-0.1781,0.0831,0.0000,0.0000,0.0000,0.0000,0.0000,0.0000,-0.0000,-0.0480,0.0277,0.0203,0.0000,0.0000,-0.5677,0.0025,0.0025,0.0025,0.0025,4
26,119,1859315609013,-10.4509,-0.1781,0.0831,0.0710,0.1510,0.0610,1.1647,23.4375,23.4375,23.4375,23.4375,12.2251,0.0000,-0.0610,-0.3052,-0.0000,-0.1124,-0.2517,-10.5238,0.0217,-0.0190,-0.0076,0.0000,0.0000,0.0000,0.0000,0.0000,0.0000,0.0000,0.0000,0.0000,0.0000,0.0000,0.0000,0.0000,0.0000,1.0000,0.0000,0.0000,0.0000,-0.1781,0.0831,0.0000,0.0000,0.0000,0.0000,0.0000,0.0000,-0.0000,-0.0500,0.0278,0.0204,0.0000,0.0000,-0.5677,0.0025,0.0025,0.0025,0.0025,4
27,120,1859355765481,-10.4212,-0.2102,0.0169,0.0510,0.6310,0.3310,1.1647,23.4375,23.4375,23.4375,23.4375,12.2251,0.0000,-0.0610,-0.1221,0.1221,-0.1458,-0.2038,-10.5954,0.0217,-0.0190,-0.0076,0.0000,0.0000,0.0000,0.0000,0.0000,0.0000,0.0000,0.0000,0.0000,0.0000,0.0000,0.0000,0.0000,0.0000,1.0000,0.0000,0.0000,0.0000,-0.2102,0.0169,0.0000,0.0000,0.0000,0.0000,0.0000,0.0000,-0.0000,-0.0520,-0.0520,0.0204,0.0000,0.0000,-0.5611,0.0025,0.0025,0.0025,0.0025,4
28,121,1859411656984,-10.4212,-0.2102,0.0169,0.0510,0.6310,0.3310,1.1647,23.4375,23.4375,23.4375,23.4375,12.2254,0.0000,-0.0610,-0.1221,-0.0000,-0.1076,-0.1798,-10.6360,0.0217,-0.0190,-0.0076,0.0000,0.0000,0.0000,0.0000,0.0000,0.0000,0.0000,0.0000,0.0000,0.0000,0.0000,0.0000,0.0000,0.0000,1.0000,0.0000,0.0000,0.0000,-0.2102,0.0169,0.0000,0.0000,0.0000,0.0000,0.0000,0.0000,-0.0000,-0.0540,-0.0326,0.0205,0.0000,0.0000,-0.5611,0.0025,0.0025,0.0025,0.0025,4
29,122,1859415577025,-10.4212,-0.2102,0.0169,0.0510,0.6310,0.3310,1.1647,23.4375,23.4375,23.4375,23.4375,12.2249,0.0000,-0.0610,-0.2441,-0.0000,-0.1219,-0.1846,-10.6479,0.0217,-0.0190,-0.0076,0.0000,0.0000,0.0000,0.0000,0.0000,0.0000,0.0000,0.0000,0.0000,0.0000,0.0000,0.0000,0.0000,0.0000,1.0000,0.0000,0.0000,0.0000,-0.2102,0.0169,0.0000,0.0000,0.0000,0.0000,0.0000,0.0000,-0.0000,-0.0560,-0.0193,0.0206,0.0000,0.0000,-0.5611,0.0025,0.0025,0.0025,0.0025,4
30,123,1859420536111,-10.4212,-0.2102,0.0169,0.0510,0.6310,0.3310,1.1647,23.4375,23.4375,23.4375,23.4375,12.2251,0.0000,-0.0610,-0.1221,-0.1221,-0.1411,-0.1966,-10.5524,0.0217,-0.0190,-0.0076,0.0000,0.0000,0.0000,0.0000,0.0000,0.0000,0.0000,0.0000,0.0000,0.0000,0.0000,0.0000,0.0000,0.0000,1.0000,0.0000,0.0000,0.0000,-0.2102,0.0169,0.0000,0.0000,0.0000,0.0000,0.0000,0.0000,-0.0000,-0.0580,-0.0102,0.0207,0.0000,0.0000,-0.5611,0.0025,0.0025,0.0025,0.0025,4
31,124,1859425853198,-10.4212,-0.2102,0.0169,0.0510,0.6310,0.3310,1.1647,23.4375,23.4375,23.4375,23.4375,12.2254,0.0000,-0.0610,-0.2441,-0.0000,-0.1291,-0.2086,-10.6121,0.0217,-0.0190,-0.0076,0.0000,0.0000,0.0000,0.0000,0.0000,0.0000,0.0000,0.0000,0.0000,0.0000,0.0000,0.0000,0.0000,0.0000,1.0000,0.0000,0.0000,0.0000,-0.2102,0.0169,0.0000,0.0000,0.0000,0.0000,0.0000,0.0000,-0.0000,-0.0596,-0.0038,0.0208,0.0000,0.0000,-0.5611,0.0025,0.0025,0.0025,0.0025,4
32,125,1859430608641,-10.4212,-0.2102,0.0169,0.0510,0.6310,0.3310,1.1647,23.4375,23.4375,23.4375,23.4375,12.2246,0.0000,-0.0610,-0.1831,-0.0610,-0.1052,-0.1846,-10.6002,0.0217,-0.0190,-0.0076,0.0000,0.0000,0.0000,0.0000,0.0000,0.0000,0.0000,0.0000,0.0000,0.0000,0.0000,0.0000,0.0000,0.0000,1.0000,0.0000,0.0000,0.0000,-0.2102,0.0169,0.0000,0.0000,0.0000,0.0000,0.0000,0.0000,-0.0000,-0.0608,0.0005,0.0209,0.0000,0.0000,-0.5611,0.0025,0.0025,0.0025,0.0025,4
33,126,1859435590142,-10.4212,-0.2102,0.0169,0.0510,0.6310,0.3310,1.1647,23.4375,23.4375,23.4375,23.4375,12.2246,0.0000,-0.0610,-0.1831,-0.0000,-0.1554,-0.1966,-10.6169,0.0217,-0.0190,-0.0076,0.0000,0.0000,0.0000,0.0000,0.0000,0.0000,0.0000,0.0000,0.0000,0.0000,0.0000,0.0000,0.0000,0.0000,1.0000,0.0000,0.0000,0.0000,-0.2102,0.0169,0.0000,0.0000,0.0000,0.0000,0.0000,0.0000,-0.0000,-0.0615,0.0034,0.0209,0.0000,0.0000,-0.5611,0.0025,0.0025,0.0025,0.0025,4
34,127,1859440890105,-10.4212,-0.2102,0.0169,0.0510,0.6310,0.3310,1.1647,23.4375,23.4375,23.4375,23.4375,12.2246,0.0000,-0.0610,-0.1831,-0.0610,-0.1506,-0.1846,-10.5978,0.0217,-0.0191,-0.0077,0.0000,0.0000,0.0000,0.0000,0.0000,0.0000,0.0000,0.0000,0.0000,0.0000,0.0000,0.0000,0.0000,0.0000,1.0000,0.0000,0.0000,0.0000,-0.2102,0.0169,0.0000,0.0000,0.0000,0.0000,0.0000,0.0000,-0.0000,-0.0620,0.0054,0.0210,0.0000,0.0000,-0.5611,0.0025,0.0025,0.0025,0.0025,4
35,128,1859445741954,-10.4212,-0.2102,0.0169,0.0510,0.6310,0.3310,1.1647,23.4375,23.4375,23.4375,23.4375,12.2246,0.0000,0.0000,-0.0610,0.1221,-0.1195,-0.2230,-10.5691,0.0217,-0.0191,-0.0076,0.0000,0.0000,0.0000,0.0000,0.0000,0.0000,0.0000,0.0000,0.0000,0.0000,0.0000,0.0000,0.0000,0.0000,1.0000,0.0000,0.0000,0.0000,-0.2102,0.0169,0.0000,0.0000,0.0000,0.0000,0.0000,0.0000,-0.0000,-0.0624,0.0068,0.0209,0.0000,0.0000,-0.5611,0.0025,0.0025,0.0025,0.0025,4
36,129,1859450734620,-10.4212,-0.2102,0.0169,0.0510,0.6310,0.3310,1.1647,23.4375,23.4375,23.4375,23.4375,12.2249,0.0000,0.0610,-0.0610,-0.0610,-0.1530,-0.2253,-10.5668,0.0217,-0.0191,-0.0077,0.0000,0.0000,0.0000,0.0000,0.0000,0.0000,0.0000,0.0000,0.0000,0.0000,0.0000,0.0000,0.0000,0.0000,1.0000,0.0000,0.0000,0.0000,-0.2102,0.0169,0.0000,0.0000,0.0000,0.0000,0.0000,0.0000,-0.0000,-0.0627,0.0077,0.0210,0.0000,0.0000,-0.5611,0.0025,0.0025,0.0025,0.0025,4
37,130,1859455550973,-10.4212,-0.2102,0.0169,0.0510,0.6310,0.3310,1.1647,23.4375,23.4375,23.4375,23.4375,12.2244,0.0000,-0.2441,-0.2441,0.1221,-0.1243,-0.1918,-10.5954,0.0217,-0.0191,-0.0077,0.0000,0.0000,0.0000,0.0000,0.0000,0.0000,0.0000,0.0000,0.0000,0.0000,0.0000,0.0000,0.0000,0.0000,1.0000,0.0000,0.0000,0.0000,-0.2102,0.0169,0.0000,0.0000,0.0000,0.0000,0.0000,0.0000,-0.0000,-0.0628,0.0084,0.0209,0.0000,0.0000,-0.5611,0.0025,0.0025,0.0025,0.0025,4
38,131,1859460953049,-10.4212,-0.2102,0.0169,0.0510,0.6310,0.3310,1.1647,23.4375,23.4375,23.4375,23.4375,12.2242,0.0000,0.0000,-0.0610,-0.0000,-0.1363,-0.1510,-10.5978,0.0217,-0.0191,-0.0077,0.0000,0.0000,0.0000,0.0000,0.0000,0.0000,0.0000,0.0000,0.0000,0.0000,0.0000,0.0000,0.0000,0.0000,1.0000,0.0000,0.0000,0.0000,-0.2102,0.0169,0.0000,0.0000,0.0000,0.0000,0.0000,0.0000,-0.0000,-0.0630,0.0088,0.0209,0.0000,0.0000,-0.5611,0.0025,0.0025,0.0025,0.0025,4
39,132,1859465543429,-10.4212,-0.2102,0.0169,0.0510,0.6310,0.3310,1.1647,23.4375,23.4375,23.4375,23.4375,12.2244,0.0000,0.0000,-0.2441,0.1221,-0.1267,-0.2086,-10.5310,0.0217,-0.0191,-0.0077,0.0000,0.0000,0.0000,0.0000,0.0000,0.0000,0.0000,0.0000,0.0000,0.0000,0.0000,0.0000,0.0000,0.0000,1.0000,0.0000,0.0000,0.0000,-0.2102,0.0169,0.0000,0.0000,0.0000,0.0000,0.0000,0.0000,-0.0000,-0.0630,0.0092,0.0209,0.0000,0.0000,-0.5611,0.0025,0.0025,0.0025,0.0025,4
40,133,1859470763443,-10.4212,-0.2102,0.0169,0.0510,0.6310,0.3310,1.1647,23.4375,23.4375,23.4375,23.4375,12.2244,0.0000,-0.0610,-0.1831,-0.0000,-0.0956,-0.1942,-10.5357,0.0217,-0.0191,-0.0077,0.0000,0.0000,0.0000,0.0000,0.0000,0.0000,0.0000,0.0000,0.0000,0.0000,0.0000,0.0000,0.0000,0.0000,1.0000,0.0000,0.0000,0.0000,-0.2102,0.0169,0.0000,0.0000,0.0000,0.0000,0.0000,0.0000,-0.0000,-0.0631,0.0094,0.0209,0.0000,0.0000,-0.5611,0.0025,0.0025,0.0025,0.0025,4
41,134,1859476218221,-10.4212,-0.2102,0.0169,0.0510,0.6310,0.3310,1.1647,23.4375,23.4375,23.4375,23.4375,12.2234,0.0000,0.0000,0.0000,-0.0000,-0.1291,-0.2349,-10.5596,0.0217,-0.0191,-0.0077,0.0000,0.0000,0.0000,0.0000,0.0000,0.0000,0.0000,0.0000,0.0000,0.0000,0.0000,0.0000,0.0000,0.0000,1.0000,0.0000,0.0000,0.0000,-0.2102,0.0169,0.0000,0.0000,0.0000,0.0000,0.0000,0.0000,-0.0000,-0.0631,0.0095,0.0209,0.0000,0.0000,-0.5611,0.0025,0.0025,0.0025,0.0025,4
42,135,1859480743484,-10.4212,-0.2102,0.0169,0.0510,0.6310,0.3310,1.1647,23.4375,23.4375,23.4375,23.4375,12.2232,0.0000,0.0000,-0.0610,-0.0000,-0.1052,-0.1582,-10.6360,0.0217,-0.0191,-0.0077,0.0000,0.0000,0.0000,0.0000,0.0000,0.0000,0.0000,0.0000,0.0000,0.0000,0.0000,0.0000,0.0000,0.0000,1.0000,0.0000,0.0000,0.0000,-0.2102,0.0169,0.0000,0.0000,0.0000,0.0000,0.0000,0.0000,-0.0000,-0.0632,0.0096,0.0209,0.0000,0.0000,-0.5611,0.0025,0.0025,0.0025,0.0025,4
43,136,1859485551338,-10.4212,-0.2102,0.0169,0.0510,0.6310,0.3310,1.1647,23.4375,23.4375,23.4375,23.4375,12.2232,0.0000,-0.1831,-0.1221,-0.0000,-0.1482,-0.1822,-10.6360,0.0217,-0.0191,-0.0077,0.0000,0.0000,0.0000,0.0000,0.0000,0.0000,0.0000,0.0000,0.0000,0.0000,0.0000,0.0000,0.0000,0.0000,1.0000,0.0000,0.0000,0.0000,-0.2102,0.0169,0.0000,0.0000,0.0000,0.0000,0.0000,0.0000,-0.0000,-0.0631,0.0096,0.0209,0.0000,0.0000,-0.5611,0.0025,0.0025,0.0025,0.0025,4
44,137,1859490492926,-10.4212,-0.2102,0.0169,0.0510,0.6310,0.3310,1.1647,23.4375,23.4375,23.4375,23.4375,12.2232,0.0000,0.0000,0.0000,-0.1221,-0.1578,-0.2014,-10.6050,0.0217,-0.0191,-0.0077,0.0000,0.0000,0.0000,0.0000,0.0000,0.0000,0.0000,0.0000,0.0000,0.0000,0.0000,0.0000,0.0000,0.0000,1.0000,0.0000,0.0000,0.0000,-0.2102,0.0169,0.0000,0.0000,0.0000,0.0000,0.0000,0.0000,-0.0000,-0.0631,0.0096,0.0210,0.0000,0.0000,-0.5611,0.0025,0.0025,0.0025,0.0025,4
45,138,1859496211341,-10.4212,-0.2102,0.0169,0.0510,0.6310,0.3310,1.1647,23.4375,23.4375,23.4375,23.4375,12.2234,0.0000,0.0610,0.0000,-0.0610,-0.0574,-0.1774,-10.5453,0.0217,-0.0191,-0.0077,0.0000,0.0000,0.0000,0.0000,0.0000,0.0000,0.0000,0.0000,0.0000,0.0000,0.0000,0.0000,0.0000,0.0000,1.0000,0.0000,0.0000,0.0000,-0.2102,0.0169,0.0000,0.0000,0.0000,0.0000,0.0000,0.0000,-0.0000,-0.0632,0.0097,0.0211,0.0000,0.0000,-0.5611,0.0025,0.0025,0.0025,0.0025,4
46,139,1859500621116,-10.4212,-0.2102,0.0169,0.0510,0.6310,0.3310,1.1647,23.4375,23.4375,23.4375,23.4375,12.2234,0.0000,0.0000,0.0000,-0.0610,-0.1578,-0.1798,-10.6384,0.0217,-0.0190,-0.0077,0.0000,0.0000,0.0000,0.0000,0.0000,0.0000,0.0000,0.0000,0.0000,0.0000,0.0000,0.0000,0.0000,0.0000,1.0000,0.0000,0.0000,0.0000,-0.2102,0.0169,0.0000,0.0000,0.0000,0.0000,0.0000,0.0000,-0.0000,-0.0631,0.0096,0.0211,0.0000,0.0000,-0.5611,0.0025,0.0025,0.0025,0.0025,4
47,140,1859505510461,-10.4212,-0.2102,0.0169,0.0510,0.6310,0.3310,1.1647,23.4375,23.4375,23.4375,23.4375,12.2237,0.0000,-0.0610,-0.1221,-0.0000,-0.1482,-0.1798,-10.6026,0.0217,-0.0190,-0.0077,0.0000,0.0000,0.0000,0.0000,0.0000,0.0000,0.0000,0.0000,0.0000,0.0000,0.0000,0.0000,0.0000,0.0000,1.0000,0.0000,0.0000,0.0000,-0.2102,0.0169,0.0000,0.0000,0.0000,0.0000,0.0000,0.0000,-0.0000,-0.0631,0.0096,0.0211,0.0000,0.0000,-0.5611,0.0025,0.0025,0.0025,0.0025,4
48,141,1859510897914,-10.4212,-0.2102,0.0169,0.0510,0.6310,0.3310,1.1647,23.4375,23.4375,23.4375,23.4375,12.2242,0.0000,-0.0610,-0.1221,0.1221,-0.1315,-0.1798,-10.5524,0.0217,-0.0190,-0.0077,0.0000,0.0000,0.0000,0.0000,0.0000,0.0000,0.0000,0.0000,0.0000,0.0000,0.0000,0.0000,0.0000,0.0000,1.0000,0.0000,0.0000,0.0000,-0.2102,0.0169,0.0000,0.0000,0.0000,0.0000,0.0000,0.0000,-0.0000,-0.0631,0.0097,0.0210,0.0000,0.0000,-0.5611,0.0025,0.0025,0.0025,0.0025,4
49,142,1859515509041,-10.4212,-0.2102,0.0169,0.0510,0.6310,0.3310,1.1647,23.4375,23.4375,23.4375,23.4375,12.2242,0.0000,0.0000,0.0000,-0.0000,-0.1745,-0.2038,-10.6336,0.0217,-0.0190,-0.0077,0.0000,0.0000,0.0000,0.0000,0.0000,0.0000,0.0000,0.0000,0.0000,0.0000,0.0000,0.0000,0.0000,0.0000,1.0000,0.0000,0.0000,0.0000,-0.2102,0.0169,0.0000,0.0000,0.0000,0.0000,0.0000,0.0000,-0.0000,-0.0631,0.0097,0.0211,0.0000,0.0000,-0.5611,0.0025,0.0025,0.0025,0.0025,4
50,143,1859520589947,-10.4212,-0.2102,0.0169,0.0510,0.6310,0.3310,1.1647,23.4375,23.4375,23.4375,23.4375,12.2232,0.0000,-0.1831,-0.0610,0.1221,-0.1506,-0.2158,-10.5405,0.0217,-0.0190,-0.0077,0.0000,0.0000,0.0000,0.0000,0.0000,0.0000,0.0000,0.0000,0.0000,0.0000,0.0000,0.0000,0.0000,0.0000,1.0000,0.0000,0.0000,0.0000,-0.2102,0.0169,0.0000,0.0000,0.0000,0.0000,0.0000,0.0000,-0.0000,-0.0631,0.0097,0.0210,0.0000,0.0000,-0.5611,0.0025,0.0025,0.0025,0.0025,4
51,144,1859558219377,-10.4489,-0.1940,-0.0403,-0.1590,0.7610,0.2910,1.1647,23.4375,23.4375,23.4375,23.4375,12.2229,0.0000,0.0610,0.0000,0.1221,-0.1052,-0.1870,-10.6121,0.0217,-0.0190,-0.0077,0.0000,0.0000,0.0000,0.0000,0.0000,0.0000,0.0000,0.0000,0.0000,0.0000,0.0000,0.0000,0.0000,0.0000,1.0000,0.0000,0.0000,0.0000,-0.1940,-0.0403,0.0000,0.0000,0.0000,0.0000,0.0000,0.0000,-0.0000,0.0337,-0.1000,0.0210,0.0000,0.0000,-0.5569,0.0025,0.0025,0.0025,0.0025,4
52,145,1859639086457,-10.4489,-0.1940,-0.0403,-0.1590,0.7610,0.2910,1.1647,23.4375,23.4375,23.4375,23.4375,12.2237,0.0000,0.0000,-0.1221,-0.0000,-0.1219,-0.2038,-10.5453,0.0217,-0.0190,-0.0077,0.0000,0.0000,0.0000,0.0000,0.0000,0.0000,0.0000,0.0000,0.0000,0.0000,0.0000,0.0000,0.0000,0.0000,1.0000,0.0000,0.0000,0.0000,-0.1940,-0.0403,0.0000,0.0000,0.0000,0.0000,0.0000,0.0000,-0.0000,0.0046,-0.0704,0.0212,0.0000,0.0000,-0.5569,0.0025,0.0025,0.0025,0.0025,4
53,146,1859643559725,-10.4489,-0.1940,-0.0403,-0.1590,0.7610,0.2910,1.1647,23.4375,23.4375,23.4375,23.4375,12.2242,0.0000,-0.0610,-0.1831,-0.0000,-0.1435,-0.2253,-10.5930,0.0217,-0.0190,-0.0077,0.0000,0.0000,0.0000,0.0000,0.0000,0.0000,0.0000,0.0000,0.0000,0.0000,0.0000,0.0000,0.0000,0.0000,1.0000,0.0000,0.0000,0.0000,-0.1940,-0.0403,0.0000,0.0000,0.0000,0.0000,0.0000,0.0000,-0.0000,-0.0152,-0.0500,0.0214,0.0000,0.0000,-0.5569,0.0025,0.0025,0.0025,0.0025,4
54,147,1859645785340,-10.4489,-0.1940,-0.0403,-0.1590,0.7610,0.2910,1.1647,23.4375,23.4375,23.4375,23.4375,12.2244,0.0000,0.0000,0.0000,-0.0610,-0.1195,-0.1870,-10.5620,0.0217,-0.0190,-0.0077,0.0000,0.0000,0.0000,0.0000,0.0000,0.0000,0.0000,0.0000,0.0000,0.0000,0.0000,0.0000,0.0000,0.0000,1.0000,0.0000,0.0000,0.0000,-0.1940,-0.0403,0.0000,0.0000,0.0000,0.0000,0.0000,0.0000,-0.0000,-0.0289,-0.0361,0.0213,0.0000,0.0000,-0.5569,0.0025,0.0025,0.0025,0.0025,4
55,148,1859650933863,-10.4489,-0.1940,-0.0403,-0.1590,0.7610,0.2910,1.1647,23.4375,23.4375,23.4375,23.4375,12.2239,0.0000,-0.0610,-0.1221,-0.0000,-0.2008,-0.2349,-10.6073,0.0217,-0.0190,-0.0077,0.0000,0.0000,0.0000,0.0000,0.0000,0.0000,0.0000,0.0000,0.0000,0.0000,0.0000,0.0000,0.0000,0.0000,1.0000,0.0000,0.0000,0.0000,-0.1940,-0.0403,0.0000,0.0000,0.0000,0.0000,0.0000,0.0000,-0.0000,-0.0383,-0.0266,0.0213,0.0000,0.0000,-0.5569,0.0025,0.0025,0.0025,0.0025,4
56,149,1859655678557,-10.4489,-0.1940,-0.0403,-0.1590,0.7610,0.2910,1.1647,23.4375,23.4375,23.4375,23.4375,12.2239,0.0000,-0.0610,-0.1221,-0.0000,-0.1841,-0.1966,-10.6288,0.0217,-0.0190,-0.0077,0.0000,0.0000,0.0000,0.0000,0.0000,0.0000,0.0000,0.0000,0.0000,0.0000,0.0000,0.0000,0.0000,0.0000,1.0000,0.0000,0.0000,0.0000,-0.1940,-0.0403,0.0000,0.0000,0.0000,0.0000,0.0000,0.0000,-0.0000,-0.0447,-0.0200,0.0213,0.0000,0.0000,-0.5569,0.0025,0.0025,0.0025,0.0025,4
57,150,1859660807624,-10.4489,-0.1940,-0.0403,-0.1590,0.7610,0.2910,1.1647,23.4375,23.4375,23.4375,23.4375,12.2239,0.0000,0.0000,-0.1221,0.1221,-0.1578,-0.1870,-10.5978,0.0217,-0.0190,-0.0077,0.0000,0.0000,0.0000,0.0000,0.0000,0.0000,0.0000,0.0000,0.0000,0.0000,0.0000,0.0000,0.0000,0.0000,1.0000,0.0000,0.0000,0.0000,-0.1940,-0.0403,0.0000,0.0000,0.0000,0.0000,0.0000,0.0000,-0.0000,-0.0492,-0.0155,0.0212,0.0000,0.0000,-0.5569,0.0025,0.0025,0.0025,0.0025,4
58,151,1859666053760,-10.4489,-0.1940,-0.0403,-0.1590,0.7610,0.2910,1.1647,23.4375,23.4375,23.4375,23.4375,12.2237,0.0000,-0.0610,-0.1221,-0.0000,-0.1721,-0.2014,-10.6360,0.0217,-0.0190,-0.0077,0.0000,0.0000,0.0000,0.0000,0.0000,0.0000,0.0000,0.0000,0.0000,0.0000,0.0000,0.0000,0.0000,0.0000,1.0000,0.0000,0.0000,0.0000,-0.1940,-0.0403,0.0000,0.0000,0.0000,0.0000,0.0000,0.0000,-0.0000,-0.0522,-0.0124,0.0212,0.0000,0.0000,-0.5569,0.0025,0.0025,0.0025,0.0025,4
59,152,1859670802371,-10.4489,-0.1940,-0.0403,-0.1590,0.7610,0.2910,1.1647,23.4375,23.4375,23.4375,23.4375,12.2234,0.0000,-0.0610,-0.3052,-0.0000,-0.1578,-0.1798,-10.6408,0.0217,-0.0191,-0.0077,0.0000,0.0000,0.0000,0.0000,0.0000,0.0000,0.0000,0.0000,0.0000,0.0000,0.0000,0.0000,0.0000,0.0000,1.0000,0.0000,0.0000,0.0000,-0.1940,-0.0403,0.0000,0.0000,0.0000,0.0000,0.0000,0.0000,-0.0000,-0.0543,-0.0102,0.0212,0.0000,0.0000,-0.5569,0.0025,0.0025,0.0025,0.0025,4
60,153,1859675527027,-10.4489,-0.1940,-0.0403,-0.1590,0.7610,0.2910,1.1647,23.4375,23.4375,23.4375,23.4375,12.2232,0.0000,-0.0610,-0.1831,0.1831,-0.1076,-0.1774,-10.5739,0.0217,-0.0191,-0.0077,0.0000,0.0000,0.0000,0.0000,0.0000,0.0000,0.0000,0.0000,0.0000,0.0000,0.0000,0.0000,0.0000,0.0000,1.0000,0.0000,0.0000,0.0000,-0.1940,-0.0403,0.0000,0.0000,0.0000,0.0000,0.0000,0.0000,-0.0000,-0.0556,-0.0088,0.0211,0.0000,0.0000,-0.5569,0.0025,0.0025,0.0025,0.0025,4
61,154,1859680508194,-10.4489,-0.1940,-0.0403,-0.1590,0.7610,0.2910,1.1647,23.4375,23.4375,23.4375,23.4375,12.2227,0.0000,-0.0610,-0.3662,-0.0000,-0.1458,-0.2014,-10.5763,0.0217,-0.0191,-0.0077,0.0000,0.0000,0.0000,0.0000,0.0000,0.0000,0.0000,0.0000,0.0000,0.0000,0.0000,0.0000,0.0000,0.0000,1.0000,0.0000,0.0000,0.0000,-0.1940,-0.0403,0.0000,0.0000,0.0000,0.0000,0.0000,0.0000,-0.0000,-0.0566,-0.0077,0.0211,0.0000,0.0000,-0.5569,0.0025,0.0025,0.0025,0.0025,4
62,155,1859686034214,-10.4489,-0.1940,-0.0403,-0.1590,0.7610,0.2910,1.1647,23.4375,23.4375,23.4375,23.4375,12.2217,0.0000,-0.1221,-0.0610,0.1221,-0.1315,-0.1822,-10.5286,0.0217,-0.0191,-0.0077,0.0000,0.0000,0.0000,0.0000,0.0000,0.0000,0.0000,0.0000,0.0000,0.0000,0.0000,0.0000,0.0000,0.0000,1.0000,0.0000,0.0000,0.0000,-0.1940,-0.0403,0.0000,0.0000,0.0000,0.0000,0.0000,0.0000,-0.0000,-0.0572,-0.0072,0.0210,0.0000,0.0000,-0.5569,0.0025,0.0025,0.0025,0.0025,4
63,156,1859690576516,-10.4489,-0.1940,-0.0403,-0.1590,0.7610,0.2910,1.1647,23.4375,23.4375,23.4375,23.4375,12.2220,0.0000,0.0000,-0.0610,-0.0610,-0.1387,-0.1870,-10.6073,0.0217,-0.0191,-0.0077,0.0000,0.0000,0.0000,0.0000,0.0000,0.0000,0.0000,0.0000,0.0000,0.0000,0.0000,0.0000,0.0000,0.0000,1.0000,0.0000,0.0000,0.0000,-0.1940,-0.0403,0.0000,0.0000,0.0000,0.0000,0.0000,0.0000,-0.0000,-0.0577,-0.0067,0.0211,0.0000,0.0000,-0.5569,0.0025,0.0025,0.0025,0.0025,4
64,157,1859695678961,-10.4489,-0.1940,-0.0403,-0.1590,0.7610,0.2910,1.1647,23.4375,23.4375,23.4375,23.4375,12.2225,0.0000,0.0000,-0.1221,-0.0000,-0.1721,-0.2206,-10.5835,0.0217,-0.0191,-0.0077,0.0000,0.0000,0.0000,0.0000,0.0000,0.0000,0.0000,0.0000,0.0000,0.0000,0.0000,0.0000,0.0000,0.0000,1.0000,0.0000,0.0000,0.0000,-0.1940,-0.0403,0.0000,0.0000,0.0000,0.0000,0.0000,0.0000,-0.0000,-0.0581,-0.0064,0.0211,0.0000,0.0000,-0.5569,0.0025,0.0025,0.0025,0.0025,4
65,158,1859701047458,-10.4489,-0.1940,-0.0403,-0.1590,0.7610,0.2910,1.1647,23.4375,23.4375,23.4375,23.4375,12.2222,0.0000,-0.0610,-0.3052,-0.0000,-0.1315,-0.2277,-10.5620,0.0217,-0.0191,-0.0077,0.0000,0.0000,0.0000,0.0000,0.0000,0.0000,0.0000,0.0000,0.0000,0.0000,0.0000,0.0000,0.0000,0.0000,1.0000,0.0000,0.0000,0.0000,-0.1940,-0.0403,0.0000,0.0000,0.0000,0.0000,0.0000,0.0000,-0.0000,-0.0583,-0.0061,0.0212,0.0000,0.0000,-0.5569,0.0025,0.0025,0.0025,0.0025,4
66,159,1859705592967,-10.4489,-0.1940,-0.0403,-0.1590,0.7610,0.2910,1.1647,23.4375,23.4375,23.4375,23.4375,12.2220,0.0000,-0.0610,-0.3052,0.1831,-0.1243,-0.1606,-10.6169,0.0217,-0.0191,-0.0077,0.0000,0.0000,0.0000,0.0000,0.0000,0.0000,0.0000,0.0000,0.0000,0.0000,0.0000,0.0000,0.0000,0.0000,1.0000,0.0000,0.0000,0.0000,-0.1940,-0.0403,0.0000,0.0000,0.0000,0.0000,0.0000,0.0000,-0.0000,-0.0585,-0.0059,0.0211,0.0000,0.0000,-0.5569,0.0025,0.0025,0.0025,0.0025,4
67,160,1859710430651,-10.4489,-0.1940,-0.0403,-0.1590,0.7610,0.2910,1.1647,23.4375,23.4375,23.4375,23.4375,12.2225,0.0000,-0.0610,-0.2441,-0.0000,-0.1124,-0.1774,-10.6240,0.0217,-0.0191,-0.0077,0.0000,0.0000,0.0000,0.0000,0.0000,0.0000,0.0000,0.0000,0.0000,0.0000,0.0000,0.0000,0.0000,0.0000,1.0000,0.0000,0.0000,0.0000,-0.1940,-0.0403,0.0000,0.0000,0.0000,0.0000,0.0000,0.0000,-0.0000,-0.0585,-0.0058,0.0211,0.0000,0.0000,-0.5569,0.0025,0.0025,0.0025,0.0025,4
68,161,1859715892262,-10.4489,-0.1940,-0.0403,-0.1590,0.7610,0.2910,1.1647,23.4375,23.4375,23.4375,23.4375,12.2217,0.0000,-0.0610,-0.1831,-0.0000,-0.1458,-0.2206,-10.5596,0.0217,-0.0191,-0.0077,0.0000,0.0000,0.0000,0.0000,0.0000,0.0000,0.0000,0.0000,0.0000,0.0000,0.0000,0.0000,0.0000,0.0000,1.0000,0.0000,0.0000,0.0000,-0.1940,-0.0403,0.0000,0.0000,0.0000,0.0000,0.0000,0.0000,-0.0000,-0.0586,-0.0058,0.0211,0.0000,0.0000,-0.5569,0.0025,0.0025,0.0025,0.0025,4
69,162,1859720659871,-10.4489,-0.1940,-0.0403,-0.1590,0.7610,0.2910,1.1647,23.4375,23.4375,23.4375,23.4375,12.2225,0.0000,-0.0610,-0.2441,-0.0000,-0.1219,-0.1750,-10.5023,0.0217,-0.0191,-0.0077,0.0000,0.0000,0.0000,0.0000,0.0000,0.0000,0.0000,0.0000,0.0000,0.0000,0.0000,0.0000,0.0000,0.0000,1.0000,0.0000,0.0000,0.0000,-0.1940,-0.0403,0.0000,0.0000,0.0000,0.0000,0.0000,0.0000,-0.0000,-0.0587,-0.0057,0.0211,0.0000,0.0000,-0.5569,0.0025,0.0025,0.0025,0.0025,4
70,163,1859725558298,-10.4489,-0.1940,-0.0403,0.0710,0.7210,0.4010,1.1647,23.4375,23.4375,23.4375,23.4375,12.2227,0.0000,-0.0610,-0.1221,-0.0000,-0.1530,-0.2253,-10.6551,0.0217,-0.0191,-0.0077,0.0000,0.0000,0.0000,0.0000,0.0000,0.0000,0.0000,0.0000,0.0000,0.0000,0.0000,0.0000,0.0000,0.0000,1.0000,0.0000,0.0000,0.0000,-0.1940,-0.0403,0.0000,0.0000,0.0000,0.0000,0.0000,0.0000,-0.0000,-0.0587,-0.0057,0.0211,0.0000,0.0000,-0.5569,0.0025,0.0025,0.0025,0.0025,4
71,164,1859730435269,-10.4489,-0.1940,-0.0403,0.0710,0.7210,0.4010,1.1647,23.4375,23.4375,23.4375,23.4375,12.2229,0.0000,0.0610,-0.0610,-0.0000,-0.1602,-0.1918,-10.5882,0.0217,-0.0191,-0.0077,0.0000,0.0000,0.0000,0.0000,0.0000,0.0000,0.0000,0.0000,0.0000,0.0000,0.0000,0.0000,0.0000,0.0000,1.0000,0.0000,0.0000,0.0000,-0.1940,-0.0403,0.0000,0.0000,0.0000,0.0000,0.0000,0.0000,-0.0000,-0.0588,-0.0057,0.0212,0.0000,0.0000,-0.5569,0.0025,0.0025,0.0025,0.0025,4
72,165,1859759608647,-10.4172,-0.2119,0.0207,0.0710,0.7210,0.4010,1.1647,23.4375,23.4375,23.4375,23.4375,12.2225,0.0000,-0.2441,-0.1221,0.1221,-0.1769,-0.1966,-10.6050,0.0217,-0.0191,-0.0077,0.0000,0.0000,0.0000,0.0000,0.0000,0.0000,0.0000,0.0000,0.0000,0.0000,0.0000,0.0000,0.0000,0.0000,1.0000,0.0000,0.0000,0.0000,-0.2119,0.0207,0.0000,0.0000,0.0000,0.0000,0.0000,0.0000,-0.0000,-0.1420,0.1420,0.0211,0.0000,0.0000,-0.5604,0.0025,0.0025,0.0025,0.0025,4
73,166,1859764185903,-10.4172,-0.2119,0.0207,0.0710,0.7210,0.4010,1.1647,23.4375,23.4375,23.4375,23.4375,12.2217,0.0000,-0.0610,-0.1221,-0.1221,-0.2032,-0.2373,-10.5811,0.0217,-0.0192,-0.0078,0.0000,0.0000,0.0000,0.0000,0.0000,0.0000,0.0000,0.0000,0.0000,0.0000,0.0000,0.0000,0.0000,0.0000,1.0000,0.0000,0.0000,0.0000,-0.2119,0.0207,0.0000,0.0000,0.0000,0.0000,0.0000,0.0000,-0.0000,-0.1174,0.1009,0.0213,0.0000,0.0000,-0.5604,0.0025,0.0025,0.0025,0.0025,4
74,167,1859765791007,-10.4172,-0.2119,0.0207,0.0710,0.7210,0.4010,1.1647,23.4375,23.4375,23.4375,23.4375,12.2215,0.0000,0.1221,0.0000,-0.0000,-0.1698,-0.2277,-10.6217,0.0217,-0.0192,-0.0078,0.0000,0.0000,0.0000,0.0000,0.0000,0.0000,0.0000,0.0000,0.0000,0.0000,0.0000,0.0000,0.0000,0.0000,1.0000,0.0000,0.0000,0.0000,-0.2119,0.0207,0.0000,0.0000,0.0000,0.0000,0.0000,0.0000,-0.0000,-0.1006,0.0727,0.0213,0.0000,0.0000,-0.5604,0.0025,0.0025,0.0025,0.0025,4
75,168,1859799097694,-10.4172,-0.2119,0.0207,0.0710,0.7210,0.4010,1.1647,23.4375,23.4375,23.4375,23.4375,12.2215,0.0000,-0.0610,-0.1221,0.1221,-0.1482,-0.1942,-10.6097,0.0217,-0.0192,-0.0078,0.0000,0.0000,0.0000,0.0000,0.0000,0.0000,0.0000,0.0000,0.0000,0.0000,0.0000,0.0000,0.0000,0.0000,1.0000,0.0000,0.0000,0.0000,-0.2119,0.0207,0.0000,0.0000,0.0000,0.0000,0.0000,0.0000,-0.0000,-0.0890,0.0533,0.0212,0.0000,0.0000,-0.5604,0.0025,0.0025,0.0025,0.0025,4
76,169,1859856942759,-10.4172,-0.2119,0.0207,0.0710,0.7210,0.4010,1.1647,23.4375,23.4375,23.4375,23.4375,12.2217,0.0000,0.0000,-0.1221,-0.0000,-0.1578,-0.1702,-10.5763,0.0217,-0.0192,-0.0078,0.0000,0.0000,0.0000,0.0000,0.0000,0.0000,0.0000,0.0000,0.0000,0.0000,0.0000,0.0000,0.0000,0.0000,1.0000,0.0000,0.0000,0.0000,-0.2119,0.0207,0.0000,0.0000,0.0000,0.0000,0.0000,0.0000,-0.0000,-0.0810,0.0401,0.0215,0.0000,0.0000,-0.5604,0.0025,0.0025,0.0025,0.0025,4
77,170,1859860510842,-10.4172,-0.2119,0.0207,0.0710,0.7210,0.4010,1.1647,23.4375,23.4375,23.4375,23.4375,12.2213,0.0000,-0.1221,-0.0610,0.2441,-0.1411,-0.1822,-10.6097,0.0217,-0.0192,-0.0078,0.0000,0.0000,0.0000,0.0000,0.0000,0.0000,0.0000,0.0000,0.0000,0.0000,0.0000,0.0000,0.0000,0.0000,1.0000,0.0000,0.0000,0.0000,-0.2119,0.0207,0.0000,0.0000,0.0000,0.0000,0.0000,0.0000,-0.0000,-0.0755,0.0309,0.0213,0.0000,0.0000,-0.5604,0.0025,0.0025,0.0025,0.0025,4
78,171,1859865524755,-10.4172,-0.2119,0.0207,0.0710,0.7210,0.4010,1.1647,23.4375,23.4375,23.4375,23.4375,12.2210,0.0000,-0.0610,-0.3052,-0.0000,-0.1172,-0.2038,-10.6169,0.0217,-0.0192,-0.0078,0.0000,0.0000,0.0000,0.0000,0.0000,0.0000,0.0000,0.0000,0.0000,0.0000,0.0000,0.0000,0.0000,0.0000,1.0000,0.0000,0.0000,0.0000,-0.2119,0.0207,0.0000,0.0000,0.0000,0.0000,0.0000,0.0000,-0.0000,-0.0718,0.0247,0.0213,0.0000,0.0000,-0.5604,0.0025,0.0025,0.0025,0.0025,4
79,172,1859870817886,-10.4172,-0.2119,0.0207,0.0710,0.7210,0.4010,1.1647,23.4375,23.4375,23.4375,23.4375,12.2210,0.0000,-0.0610,-0.1831,-0.0000,-0.1458,-0.2062,-10.6646,0.0217,-0.0192,-0.0078,0.0000,0.0000,0.0000,0.0000,0.0000,0.0000,0.0000,0.0000,0.0000,0.0000,0.0000,0.0000,0.0000,0.0000,1.0000,0.0000,0.0000,0.0000,-0.2119,0.0207,0.0000,0.0000,0.0000,0.0000,0.0000,0.0000,-0.0000,-0.0692,0.0203,0.0214,0.0000,0.0000,-0.5604,0.0025,0.0025,0.0025,0.0025,4
80,173,1859875457551,-10.4172,-0.2119,0.0207,0.0710,0.7210,0.4010,1.1647,23.4375,23.4375,23.4375,23.4375,12.2210,0.0000,-0.0610,-0.1831,-0.0000,-0.1148,-0.2062,-10.5477,0.0217,-0.0192,-0.0078,0.0000,0.0000,0.0000,0.0000,0.0000,0.0000,0.0000,0.0000,0.0000,0.0000,0.0000,0.0000,0.0000,0.0000,1.0000,0.0000,0.0000,0.0000,-0.2119,0.0207,0.0000,0.0000,0.0000,0.0000,0.0000,0.0000,-0.0000,-0.0675,0.0174,0.0214,0.0000,0.0000,-0.5604,0.0025,0.0025,0.0025,0.0025,4
81,174,1859880503961,-10.4172,-0.2119,0.0207,0.0710,0.7210,0.4010,1.1647,23.4375,23.4375,23.4375,23.4375,12.2210,0.0000,-0.0610,-0.1831,-0.0610,-0.1387,-0.2014,-10.6169,0.0217,-0.0192,-0.0078,0.0000,0.0000,0.0000,0.0000,0.0000,0.0000,0.0000,0.0000,0.0000,0.0000,0.0000,0.0000,0.0000,0.0000,1.0000,0.0000,0.0000,0.0000,-0.2119,0.0207,0.0000,0.0000,0.0000,0.0000,0.0000,0.0000,-0.0000,-0.0663,0.0154,0.0214,0.0000,0.0000,-0.5604,0.0025,0.0025,0.0025,0.0025,4
82,175,1859885524790,-10.4172,-0.2119,0.0207,0.0710,0.7210,0.4010,1.1647,23.4375,23.4375,23.4375,23.4375,12.2220,0.0000,-0.0610,-0.2441,-0.0000,-0.1267,-0.1894,-10.5644,0.0217,-0.0192,-0.0078,0.0000,0.0000,0.0000,0.0000,0.0000,0.0000,0.0000,0.0000,0.0000,0.0000,0.0000,0.0000,0.0000,0.0000,1.0000,0.0000,0.0000,0.0000,-0.2119,0.0207,0.0000,0.0000,0.0000,0.0000,0.0000,0.0000,-0.0000,-0.0654,0.0140,0.0215,0.0000,0.0000,-0.5604,0.0025,0.0025,0.0025,0.0025,4
83,176,1859890782216,-10.4172,-0.2119,0.0207,0.0710,0.7210,0.4010,1.1647,23.4375,23.4375,23.4375,23.4375,12.2217,0.0000,-0.1221,-0.0610,-0.1221,-0.0693,-0.2110,-10.5691,0.0217,-0.0192,-0.0078,0.0000,0.0000,0.0000,0.0000,0.0000,0.0000,0.0000,0.0000,0.0000,0.0000,0.0000,0.0000,0.0000,0.0000,1.0000,0.0000,0.0000,0.0000,-0.2119,0.0207,0.0000,0.0000,0.0000,0.0000,0.0000,0.0000,-0.0000,-0.0648,0.0130,0.0216,0.0000,0.0000,-0.5604,0.0025,0.0025,0.0025,0.0025,4
84,177,1859895551908,-10.4172,-0.2119,0.0207,0.0710,0.7210,0.4010,1.1647,23.4375,23.4375,23.4375,23.4375,12.2213,0.0000,0.0000,-0.1831,-0.1831,-0.1435,-0.1510,-10.5453,0.0217,-0.0192,-0.0078,0.0000,0.0000,0.0000,0.0000,0.0000,0.0000,0.0000,0.0000,0.0000,0.0000,0.0000,0.0000,0.0000,0.0000,1.0000,0.0000,0.0000,0.0000,-0.2119,0.0207,0.0000,0.0000,0.0000,0.0000,0.0000,0.0000,-0.0000,-0.0645,0.0123,0.0217,0.0000,0.0000,-0.5604,0.0025,0.0025,0.0025,0.0025,4
85,178,1859900784963,-10.4172,-0.2119,0.0207,0.0710,0.7210,0.4010,1.1647,23.4375,23.4375,23.4375,23.4375,12.2208,0.0000,-0.1831,-0.1221,-0.0610,-0.1219,-0.1942,-10.5644,0.0217,-0.0192,-0.0079,0.0000,0.0000,0.0000,0.0000,0.0000,0.0000,0.0000,0.0000,0.0000,0.0000,0.0000,0.0000,0.0000,0.0000,1.0000,0.0000,0.0000,0.0000,-0.2119,0.0207,0.0000,0.0000,0.0000,0.0000,0.0000,0.0000,-0.0000,-0.0642,0.0119,0.0217,0.0000,0.0000,-0.5604,0.0025,0.0025,0.0025,0.0025,4
86,179,1859906037723,-10.4172,-0.2119,0.0207,0.0710,0.7210,0.4010,1.1647,23.4375,23.4375,23.4375,23.4375,12.2208,0.0000,0.0000,0.0610,-0.1221,-0.1315,-0.2110,-10.5859,0.0217,-0.0192,-0.0079,0.0000,0.0000,0.0000,0.0000,0.0000,0.0000,0.0000,0.0000,0.0000,0.0000,0.0000,0.0000,0.0000,0.0000,1.0000,0.0000,0.0000,0.0000,-0.2119,0.0207,0.0000,0.0000,0.0000,0.0000,0.0000,0.0000,-0.0000,-0.0640,0.0114,0.0218,0.0000,0.0000,-0.5604,0.0025,0.0025,0.0025,0.0025,4
87,180,1859910521157,-10.4172,-0.2119,0.0207,0.0710,0.7210,0.4010,1.1647,23.4375,23.4375,23.4375,23.4375,12.2200,0.0000,0.0000,0.0000,-0.0000,-0.1458,-0.1702,-10.6885,0.0217,-0.0192,-0.0079,0.0000,0.0000,0.0000,0.0000,0.0000,0.0000,0.0000,0.0000,0.0000,0.0000,0.0000,0.0000,0.0000,0.0000,1.0000,0.0000,0.0000,0.0000,-0.2119,0.0207,0.0000,0.0000,0.0000,0.0000,0.0000,0.0000,-0.0000,-0.0639,0.0112,0.0218,0.0000,0.0000,-0.5604,0.0025,0.0025,0.0025,0.0025,4
88,181,1859915449955,-10.4172,-0.2119,0.0207,0.0710,0.7210,0.4010,1.1647,23.4375,23.4375,23.4375,23.4375,12.2198,0.0000,0.0000,0.0000,-0.0000,-0.1124,-0.2110,-10.6193,0.0217,-0.0192,-0.0079,0.0000,0.0000,0.0000,0.0000,0.0000,0.0000,0.0000,0.0000,0.0000,0.0000,0.0000,0.0000,0.0000,0.0000,1.0000,0.0000,0.0000,0.0000,-0.2119,0.0207,0.0000,0.0000,0.0000,0.0000,0.0000,0.0000,-0.0000,-0.0638,0.0111,0.0218,0.0000,0.0000,-0.5604,0.0025,0.0025,0.0025,0.0025,4
89,182,1859920413041,-10.4172,-0.2119,0.0207,0.0710,0.7210,0.4010,1.1647,23.4375,23.4375,23.4375,23.4375,12.2193,0.0000,-0.1831,-0.0610,-0.0000,-0.1482,-0.1966,-10.6240,0.0217,-0.0192,-0.0079,0.0000,0.0000,0.0000,0.0000,0.0000,0.0000,0.0000,0.0000,0.0000,0.0000,0.0000,0.0000,0.0000,0.0000,1.0000,0.0000,0.0000,0.0000,-0.2119,0.0207,0.0000,0.0000,0.0000,0.0000,0.0000,0.0000,-0.0000,-0.0637,0.0110,0.0217,0.0000,0.0000,-0.5604,0.0025,0.0025,0.0025,0.0025,4
90,183,1859957021592,-10.4166,-0.2125,0.0158,0.0510,0.6810,0.3810,1.1647,23.4375,23.4375,23.4375,23.4375,12.2191,0.0000,0.0000,-0.1221,-0.0610,-0.1506,-0.2110,-10.5787,0.0217,-0.0192,-0.0079,0.0000,0.0000,0.0000,0.0000,0.0000,0.0000,0.0000,0.0000,0.0000,0.0000,0.0000,0.0000,0.0000,0.0000,1.0000,0.0000,0.0000,0.0000,-0.2125,0.0158,0.0000,0.0000,0.0000,0.0000,0.0000,0.0000,-0.0000,-0.0671,-0.0184,0.0218,0.0000,0.0000,-0.5610,0.0025,0.0025,0.0025,0.0025,4
91,184,1860016627576,-10.4166,-0.2125,0.0158,0.0510,0.6810,0.3810,1.1647,23.4375,23.4375,23.4375,23.4375,12.2188,0.0000,0.0000,0.0000,0.1221,-0.0885,-0.1894,-10.6145,0.0217,-0.0191,-0.0079,0.0000,0.0000,0.0000,0.0000,0.0000,0.0000,0.0000,0.0000,0.0000,0.0000,0.0000,0.0000,0.0000,0.0000,1.0000,0.0000,0.0000,0.0000,-0.2125,0.0158,0.0000,0.0000,0.0000,0.0000,0.0000,0.0000,-0.0000,-0.0659,-0.0098,0.0218,0.0000,0.0000,-0.5610,0.0025,0.0025,0.0025,0.0025,4
92,185,1860020793714,-10.4166,-0.2125,0.0158,0.0510,0.6810,0.3810,1.1647,23.4375,23.4375,23.4375,23.4375,12.2186,0.0000,-0.0610,-0.1831,-0.0000,-0.1530,-0.1654,-10.5954,0.0217,-0.0191,-0.0079,0.0000,0.0000,0.0000,0.0000,0.0000,0.0000,0.0000,0.0000,0.0000,0.0000,0.0000,0.0000,0.0000,0.0000,1.0000,0.0000,0.0000,0.0000,-0.2125,0.0158,0.0000,0.0000,0.0000,0.0000,0.0000,0.0000,-0.0000,-0.0652,-0.0037,0.0218,0.0000,0.0000,-0.5610,0.0025,0.0025,0.0025,0.0025,4
93,186,1860026086594,-10.4166,-0.2125,0.0158,0.0510,0.6810,0.3810,1.1647,23.4375,23.4375,23.4375,23.4375,12.2188,0.0000,-0.0610,-0.1221,-0.0610,-0.1458,-0.1798,-10.6384,0.0217,-0.0191,-0.0079,0.0000,0.0000,0.0000,0.0000,0.0000,0.0000,0.0000,0.0000,0.0000,0.0000,0.0000,0.0000,0.0000,0.0000,1.0000,0.0000,0.0000,0.0000,-0.2125,0.0158,0.0000,0.0000,0.0000,0.0000,0.0000,0.0000,-0.0000,-0.0647,0.0004,0.0218,0.0000,0.0000,-0.5610,0.0025,0.0025,0.0025,0.0025,4
94,187,1860030401339,-10.4166,-0.2125,0.0158,0.0510,0.6810,0.3810,1.1647,23.4375,23.4375,23.4375,23.4375,12.2193,0.0000,-0.1831,-0.2441,-0.0000,-0.1172,-0.2062,-10.5668,0.0216,-0.0192,-0.0079,0.0000,0.0000,0.0000,0.0000,0.0000,0.0000,0.0000,0.0000,0.0000,0.0000,0.0000,0.0000,0.0000,0.0000,1.0000,0.0000,0.0000,0.0000,-0.2125,0.0158,0.0000,0.0000,0.0000,0.0000,0.0000,0.0000,-0.0000,-0.0644,0.0034,0.0218,0.0000,0.0000,-0.5610,0.0025,0.0025,0.0025,0.0025,4
95,188,1860035426293,-10.4166,-0.2125,0.0158,0.0510,0.6810,0.3810,1.1647,23.4375,23.4375,23.4375,23.4375,12.2191,0.0000,-0.0610,-0.1831,-0.0000,-0.1506,-0.2110,-10.5906,0.0216,-0.0192,-0.0079,0.0000,0.0000,0.0000,0.0000,0.0000,0.0000,0.0000,0.0000,0.0000,0.0000,0.0000,0.0000,0.0000,0.0000,1.0000,0.0000,0.0000,0.0000,-0.2125,0.0158,0.0000,0.0000,0.0000,0.0000,0.0000,0.0000,-0.0000,-0.0642,0.0053,0.0218,0.0000,0.0000,-0.5610,0.0025,0.0025,0.0025,0.0025,4
96,189,1860040385671,-10.4166,-0.2125,0.0158,0.0510,0.6810,0.3810,1.1647,23.4375,23.4375,23.4375,23.4375,12.2196,0.0000,0.0000,-0.1221,-0.0610,-0.1650,-0.2110,-10.5691,0.0217,-0.0192,-0.0079,0.0000,0.0000,0.0000,0.0000,0.0000,0.0000,0.0000,0.0000,0.0000,0.0000,0.0000,0.0000,0.0000,0.0000,1.0000,0.0000,0.0000,0.0000,-0.2125,0.0158,0.0000,0.0000,0.0000,0.0000,0.0000,0.0000,-0.0000,-0.0641,0.0067,0.0218,0.0000,0.0000,-0.5610,0.0025,0.0025,0.0025,0.0025,4
97,190,1860046134040,-10.4166,-0.2125,0.0158,0.0510,0.6810,0.3810,1.1647,23.4375,23.4375,23.4375,23.4375,12.2200,0.0000,-0.0610,-0.1831,0.1221,-0.1554,-0.2014,-10.5644,0.0217,-0.0192,-0.0079,0.0000,0.0000,0.0000,0.0000,0.0000,0.0000,0.0000,0.0000,0.0000,0.0000,0.0000,0.0000,0.0000,0.0000,1.0000,0.0000,0.0000,0.0000,-0.2125,0.0158,0.0000,0.0000,0.0000,0.0000,0.0000,0.0000,-0.0000,-0.0640,0.0076,0.0218,0.0000,0.0000,-0.5610,0.0025,0.0025,0.0025,0.0025,4
98,191,1860050636597,-10.4166,-0.2125,0.0158,0.0510,0.6810,0.3810,1.1647,23.4375,23.4375,23.4375,23.4375,12.2198,0.0000,0.0000,0.0000,-0.1221,-0.1243,-0.1702,-10.6097,0.0217,-0.0192,-0.0079,0.0000,0.0000,0.0000,0.0000,0.0000,0.0000,0.0000,0.0000,0.0000,0.0000,0.0000,0.0000,0.0000,0.0000,1.0000,0.0000,0.0000,0.0000,-0.2125,0.0158,0.0000,0.0000,0.0000,0.0000,0.0000,0.0000,-0.0000,-0.0639,0.0082,0.0219,0.0000,0.0000,-0.5610,0.0025,0.0025,0.0025,0.0025,4
99,192,1860055529816,-10.4166,-0.2125,0.0158,0.0510,0.6810,0.3810,1.1647,23.4375,23.4375,23.4375,23.4375,12.2196,0.0000,-0.0610,-0.1831,-0.0000,-0.1219,-0.2134,-10.6026,0.0216,-0.0192,-0.0079,0.0000,0.0000,0.0000,0.0000,0.0000,0.0000,0.0000,0.0000,0.0000,0.0000,0.0000,0.0000,0.0000,0.0000,1.0000,0.0000,0.0000,0.0000,-0.2125,0.0158,0.0000,0.0000,0.0000,0.0000,0.0000,0.0000,-0.0000,-0.0639,0.0086,0.0219,0.0000,0.0000,-0.5610,0.0025,0.0025,0.0025,0.0025,4
100,193,1860060840278,-10.4166,-0.2125,0.0158,0.0510,0.6810,0.3810,1.1647,23.4375,23.4375,23.4375,23.4375,12.2198,0.0000,-0.1831,-0.2441,-0.0000,-0.1626,-0.2062,-10.6097,0.0216,-0.0192,-0.0079,0.0000,0.0000,0.0000,0.0000,0.0000,0.0000,0.0000,0.0000,0.0000,0.0000,0.0000,0.0000,0.0000,0.0000,1.0000,0.0000,0.0000,0.0000,-0.2125,0.0158,0.0000,0.0000,0.0000,0.0000,0.0000,0.0000,-0.0000,-0.0638,0.0090,0.0219,0.0000,0.0000,-0.5610,0.0025,0.0025,0.0025,0.0025,4
101,194,1860065458571,-10.4166,-0.2125,0.0158,0.0510,0.6810,0.3810,1.1647,23.4375,23.4375,23.4375,23.4375,12.2198,0.0000,0.0000,0.0000,0.1221,-0.1411,-0.2062,-10.5930,0.0216,-0.0192,-0.0079,0.0000,0.0000,0.0000,0.0000,0.0000,0.0000,0.0000,0.0000,0.0000,0.0000,0.0000,0.0000,0.0000,0.0000,1.0000,0.0000,0.0000,0.0000,-0.2125,0.0158,0.0000,0.0000,0.0000,0.0000,0.0000,0.0000,-0.0000,-0.0638,0.0091,0.0218,0.0000,0.0000,-0.5610,0.0025,0.0025,0.0025,0.0025,4
102,195,1860076705922,-10.4166,-0.2125,0.0158,0.0510,0.6810,0.3810,1.1647,23.4375,23.4375,23.4375,23.4375,12.2198,0.0000,-0.0610,-0.1831,-0.0610,-0.1578,-0.1558,-10.6050,0.0216,-0.0192,-0.0080,0.0000,0.0000,0.0000,0.0000,0.0000,0.0000,0.0000,0.0000,0.0000,0.0000,0.0000,0.0000,0.0000,0.0000,1.0000,0.0000,0.0000,0.0000,-0.2125,0.0158,0.0000,0.0000,0.0000,0.0000,0.0000,0.0000,-0.0000,-0.0638,0.0092,0.0220,0.0000,0.0000,-0.5610,0.0025,0.0025,0.0025,0.0025,4
103,196,1860080402323,-10.4166,-0.2125,0.0158,0.0510,0.6810,0.3810,1.1647,23.4375,23.4375,23.4375,23.4375,12.2200,0.0000,0.0000,0.0000,-0.0000,-0.1363,-0.2086,-10.6097,0.0216,-0.0192,-0.0080,0.0000,0.0000,0.0000,0.0000,0.0000,0.0000,0.0000,0.0000,0.0000,0.0000,0.0000,0.0000,0.0000,0.0000,1.0000,0.0000,0.0000,0.0000,-0.2125,0.0158,0.0000,0.0000,0.0000,0.0000,0.0000,0.0000,-0.0000,-0.0638,0.0093,0.0220,0.0000,0.0000,-0.5610,0.0025,0.0025,0.0025,0.0025,4
104,197,1860085392489,-10.4166,-0.2125,0.0158,0.0510,0.6810,0.3810,1.1647,23.4375,23.4375,23.4375,23.4375,12.2203,0.0000,-0.0610,-0.1221,0.2441,-0.1769,-0.1918,-10.5644,0.0216,-0.0192,-0.0080,0.0000,0.0000,0.0000,0.0000,0.0000,0.0000,0.0000,0.0000,0.0000,0.0000,0.0000,0.0000,0.0000,0.0000,1.0000,0.0000,0.0000,0.0000,-0.2125,0.0158,0.0000,0.0000,0.0000,0.0000,0.0000,0.0000,-0.0000,-0.0638,0.0093,0.0218,0.0000,0.0000,-0.5610,0.0025,0.0025,0.0025,0.0025,4
105,198,1860090429191,-10.4166,-0.2125,0.0158,0.0510,0.6810,0.3810,1.1647,23.4375,23.4375,23.4375,23.4375,12.2205,0.0000,0.0000,-0.0610,-0.0000,-0.1554,-0.1990,-10.6384,0.0216,-0.0192,-0.0080,0.0000,0.0000,0.0000,0.0000,0.0000,0.0000,0.0000,0.0000,0.0000,0.0000,0.0000,0.0000,0.0000,0.0000,1.0000,0.0000,0.0000,0.0000,-0.2125,0.0158,0.0000,0.0000,0.0000,0.0000,0.0000,0.0000,-0.0000,-0.0638,0.0094,0.0218,0.0000,0.0000,-0.5610,0.0025,0.0025,0.0025,0.0025,4
106,199,1860095860389,-10.4166,-0.2125,0.0158,0.0510,0.6810,0.3810,1.1647,23.4375,23.4375,23.4375,23.4375,12.2208,0.0000,-0.0610,-0.2441,-0.0000,-0.1411,-0.1822,-10.5906,0.0216,-0.0192,-0.0080,0.0000,0.0000,0.0000,0.0000,0.0000,0.0000,0.0000,0.0000,0.0000,0.0000,0.0000,0.0000,0.0000,0.0000,1.0000,0.0000,0.0000,0.0000,-0.2125,0.0158,0.0000,0.0000,0.0000,0.0000,0.0000,0.0000,-0.0000,-0.0638,0.0095,0.0219,0.0000,0.0000,-0.5610,0.0025,0.0025,0.0025,0.0025,4
107,200,1860100645704,-10.4166,-0.2125,0.0158,0.0510,0.6810,0.3810,1.1647,23.4375,23.4375,23.4375,23.4375,12.2208,0.0000,-0.0610,-0.1221,-0.0000,-0.1482,-0.2038,-10.5095,0.0216,-0.0192,-0.0080,0.0000,0.0000,0.0000,0.0000,0.0000,0.0000,0.0000,0.0000,0.0000,0.0000,0.0000,0.0000,0.0000,0.0000,1.0000,0.0000,0.0000,0.0000,-0.2125,0.0158,0.0000,0.0000,0.0000,0.0000,0.0000,0.0000,-0.0000,-0.0638,0.0095,0.0219,0.0000,0.0000,-0.5610,0.0025,0.0025,0.0025,0.0025,4
108,201,1860105480180,-10.4166,-0.2125,0.0158,0.0510,0.6810,0.3810,1.1647,23.4375,23.4375,23.4375,23.4375,12.2213,0.0000,0.0610,-0.1831,-0.0000,-0.1937,-0.2062,-10.5787,0.0216,-0.0192,-0.0080,0.0000,0.0000,0.0000,0.0000,0.0000,0.0000,0.0000,0.0000,0.0000,0.0000,0.0000,0.0000,0.0000,0.0000,1.0000,0.0000,0.0000,0.0000,-0.2125,0.0158,0.0000,0.0000,0.0000,0.0000,0.0000,0.0000,-0.0000,-0.0638,0.0096,0.0219,0.0000,0.0000,-0.5610,0.0025,0.0025,0.0025,0.0025,4
109,202,1860110378399,-10.4166,-0.2125,0.0158,0.0510,0.6810,0.3810,1.1647,23.4375,23.4375,23.4375,23.4375,12.2215,0.0000,0.0000,-0.1221,-0.0610,-0.0956,-0.2014,-10.5906,0.0217,-0.0192,-0.0080,0.0000,0.0000,0.0000,0.0000,0.0000,0.0000,0.0000,0.0000,0.0000,0.0000,0.0000,0.0000,0.0000,0.0000,1.0000,0.0000,0.0000,0.0000,-0.2125,0.0158,0.0000,0.0000,0.0000,0.0000,0.0000,0.0000,-0.0000,-0.0639,0.0096,0.0220,0.0000,0.0000,-0.5610,0.0025,0.0025,0.0025,0.0025,4
110,203,1860115709817,-10.4166,-0.2125,0.0158,0.0510,0.6810,0.3810,1.1647,23.4375,23.4375,23.4375,23.4375,12.2220,0.0000,0.0000,-0.1831,0.1221,-0.1650,-0.1846,-10.6408,0.0217,-0.0192,-0.0080,0.0000,0.0000,0.0000,0.0000,0.0000,0.0000,0.0000,0.0000,0.0000,0.0000,0.0000,0.0000,0.0000,0.0000,1.0000,0.0000,0.0000,0.0000,-0.2125,0.0158,0.0000,0.0000,0.0000,0.0000,0.0000,0.0000,-0.0000,-0.0639,0.0096,0.0219,0.0000,0.0000,-0.5610,0.0025,0.0025,0.0025,0.0025,4
111,204,1860120381853,-10.4166,-0.2125,0.0158,0.0510,0.6810,0.3810,1.1647,23.4375,23.4375,23.4375,23.4375,12.2222,0.0000,-0.1831,-0.1831,0.1221,-0.1626,-0.2182,-10.6217,0.0216,-0.0192,-0.0080,0.0000,0.0000,0.0000,0.0000,0.0000,0.0000,0.0000,0.0000,0.0000,0.0000,0.0000,0.0000,0.0000,0.0000,1.0000,0.0000,0.0000,0.0000,-0.2125,0.0158,0.0000,0.0000,0.0000,0.0000,0.0000,0.0000,-0.0000,-0.0638,0.0096,0.0218,0.0000,0.0000,-0.5610,0.0025,0.0025,0.0025,0.0025,4
112,205,1860125555498,-10.4166,-0.2125,0.0158,0.0410,0.5710,0.2610,1.1647,23.4375,23.4375,23.4375,23.4375,12.2225,0.0000,-0.0610,-0.2441,-0.0000,-0.1458,-0.2277,-10.5787,0.0217,-0.0192,-0.0080,0.0000,0.0000,0.0000,0.0000,0.0000,0.0000,0.0000,0.0000,0.0000,0.0000,0.0000,0.0000,0.0000,0.0000,1.0000,0.0000,0.0000,0.0000,-0.2125,0.0158,0.0000,0.0000,0.0000,0.0000,0.0000,0.0000,-0.0000,-0.0638,0.0097,0.0218,0.0000,0.0000,-0.5610,0.0025,0.0025,0.0025,0.0025,4
113,206,1860159168815,-10.4319,-0.2053,0.0146,0.0410,0.5710,0.2610,1.1647,23.4375,23.4375,23.4375,23.4375,12.2225,0.0000,-0.0610,-0.1221,-0.0000,-0.1124,-0.1630,-10.5954,0.0217,-0.0192,-0.0080,0.0000,0.0000,0.0000,0.0000,0.0000,0.0000,0.0000,0.0000,0.0000,0.0000,0.0000,0.0000,0.0000,0.0000,1.0000,0.0000,0.0000,0.0000,-0.2053,0.0146,0.0000,0.0000,0.0000,0.0000,0.0000,0.0000,-0.0000,-0.0209,0.0027,0.0219,0.0000,0.0000,-0.5611,0.0025,0.0025,0.0025,0.0025,4
114,207,1860216919059,-10.4319,-0.2053,0.0146,0.0410,0.5710,0.2610,1.1647,23.4375,23.4375,23.4375,23.4375,12.2222,0.0000,-0.0610,-0.1221,-0.0000,-0.1482,-0.2158,-10.5859,0.0216,-0.0192,-0.0080,0.0000,0.0000,0.0000,0.0000,0.0000,0.0000,0.0000,0.0000,0.0000,0.0000,0.0000,0.0000,0.0000,0.0000,1.0000,0.0000,0.0000,0.0000,-0.2053,0.0146,0.0000,0.0000,0.0000,0.0000,0.0000,0.0000,-0.0000,-0.0336,0.0049,0.0221,0.0000,0.0000,-0.5611,0.0025,0.0025,0.0025,0.0025,4
115,208,1860220402568,-10.4319,-0.2053,0.0146,0.0410,0.5710,0.2610,1.1647,23.4375,23.4375,23.4375,23.4375,12.2225,0.0000,0.1221,0.0000,-0.0000,-0.1315,-0.1798,-10.5787,0.0216,-0.0192,-0.0080,0.0000,0.0000,0.0000,0.0000,0.0000,0.0000,0.0000,0.0000,0.0000,0.0000,0.0000,0.0000,0.0000,0.0000,1.0000,0.0000,0.0000,0.0000,-0.2053,0.0146,0.0000,0.0000,0.0000,0.0000,0.0000,0.0000,-0.0000,-0.0426,0.0062,0.0220,0.0000,0.0000,-0.5611,0.0025,0.0025,0.0025,0.0025,4
116,209,1860225380902,-10.4319,-0.2053,0.0146,0.0410,0.5710,0.2610,1.1647,23.4375,23.4375,23.4375,23.4375,12.2220,0.0000,-0.0610,-0.1221,-0.0000,-0.1578,-0.1894,-10.5524,0.0216,-0.0192,-0.0080,0.0000,0.0000,0.0000,0.0000,0.0000,0.0000,0.0000,0.0000,0.0000,0.0000,0.0000,0.0000,0.0000,0.0000,1.0000,0.0000,0.0000,0.0000,-0.2053,0.0146,0.0000,0.0000,0.0000,0.0000,0.0000,0.0000,-0.0000,-0.0486,0.0071,0.0220,0.0000,0.0000,-0.5611,0.0025,0.0025,0.0025,0.0025,4
117,210,1860230274788,-10.4319,-0.2053,0.0146,0.0410,0.5710,0.2610,1.1647,23.4375,23.4375,23.4375,23.4375,12.2220,0.0000,-0.0610,-0.1221,-0.0000,-0.1195,-0.1798,-10.5739,0.0216,-0.0192,-0.0080,0.0000,0.0000,0.0000,0.0000,0.0000,0.0000,0.0000,0.0000,0.0000,0.0000,0.0000,0.0000,0.0000,0.0000,1.0000,0.0000,0.0000,0.0000,-0.2053,0.0146,0.0000,0.0000,0.0000,0.0000,0.0000,0.0000,-0.0000,-0.0527,0.0078,0.0220,0.0000,0.0000,-0.5611,0.0025,0.0025,0.0025,0.0025,4
118,211,1860235689321,-10.4319,-0.2053,0.0146,0.0410,0.5710,0.2610,1.1647,23.4375,23.4375,23.4375,23.4375,12.2229,0.0000,-0.1831,-0.1221,-0.0000,-0.1219,-0.2589,-10.5882,0.0216,-0.0192,-0.0080,0.0000,0.0000,0.0000,0.0000,0.0000,0.0000,0.0000,0.0000,0.0000,0.0000,0.0000,0.0000,0.0000,0.0000,1.0000,0.0000,0.0000,0.0000,-0.2053,0.0146,0.0000,0.0000,0.0000,0.0000,0.0000,0.0000,-0.0000,-0.0555,0.0082,0.0219,0.0000,0.0000,-0.5611,0.0025,0.0025,0.0025,0.0025,4
119,212,1860240289658,-10.4319,-0.2053,0.0146,0.0410,0.5710,0.2610,1.1647,23.4375,23.4375,23.4375,23.4375,12.2234,0.0000,-0.1221,-0.0610,-0.0000,-0.1554,-0.2325,-10.4999,0.0216,-0.0192,-0.0080,0.0000,0.0000,0.0000,0.0000,0.0000,0.0000,0.0000,0.0000,0.0000,0.0000,0.0000,0.0000,0.0000,0.0000,1.0000,0.0000,0.0000,0.0000,-0.2053,0.0146,0.0000,0.0000,0.0000,0.0000,0.0000,0.0000,-0.0000,-0.0575,0.0085,0.0220,0.0000,0.0000,-0.5611,0.0025,0.0025,0.0025,0.0025,4
120,213,1860245559499,-10.4319,-0.2053,0.0146,0.0410,0.5710,0.2610,1.1647,23.4375,23.4375,23.4375,23.4375,12.2234,0.0000,-0.0610,-0.2441,-0.0000,-0.1243,-0.2134,-10.5739,0.0216,-0.0192,-0.0080,0.0000,0.0000,0.0000,0.0000,0.0000,0.0000,0.0000,0.0000,0.0000,0.0000,0.0000,0.0000,0.0000,0.0000,1.0000,0.0000,0.0000,0.0000,-0.2053,0.0146,0.0000,0.0000,0.0000,0.0000,0.0000,0.0000,-0.0000,-0.0588,0.0088,0.0220,0.0000,0.0000,-0.5611,0.0025,0.0025,0.0025,0.0025,4
121,214,1860250838590,-10.4319,-0.2053,0.0146,0.0410,0.5710,0.2610,1.1647,23.4375,23.4375,23.4375,23.4375,12.2232,0.0000,-0.0610,-0.2441,-0.0000,-0.1554,-0.1966,-10.5954,0.0216,-0.0192,-0.0080,0.0000,0.0000,0.0000,0.0000,0.0000,0.0000,0.0000,0.0000,0.0000,0.0000,0.0000,0.0000,0.0000,0.0000,1.0000,0.0000,0.0000,0.0000,-0.2053,0.0146,0.0000,0.0000,0.0000,0.0000,0.0000,0.0000,-0.0000,-0.0598,0.0090,0.0220,0.0000,0.0000,-0.5611,0.0025,0.0025,0.0025,0.0025,4
122,215,1860255384808,-10.4319,-0.2053,0.0146,0.0410,0.5710,0.2610,1.1647,23.4375,23.4375,23.4375,23.4375,12.2237,0.0000,0.0610,-0.1831,0.2441,-0.1530,-0.1870,-10.6026,0.0216,-0.0192,-0.0080,0.0000,0.0000,0.0000,0.0000,0.0000,0.0000,0.0000,0.0000,0.0000,0.0000,0.0000,0.0000,0.0000,0.0000,1.0000,0.0000,0.0000,0.0000,-0.2053,0.0146,0.0000,0.0000,0.0000,0.0000,0.0000,0.0000,-0.0000,-0.0605,0.0091,0.0219,0.0000,0.0000,-0.5611,0.0025,0.0025,0.0025,0.0025,4
123,216,1860260299941,-10.4319,-0.2053,0.0146,0.0410,0.5710,0.2610,1.1647,23.4375,23.4375,23.4375,23.4375,12.2237,0.0000,-0.2441,-0.1221,-0.0000,-0.1148,-0.1822,-10.5739,0.0216,-0.0192,-0.0080,0.0000,0.0000,0.0000,0.0000,0.0000,0.0000,0.0000,0.0000,0.0000,0.0000,0.0000,0.0000,0.0000,0.0000,1.0000,0.0000,0.0000,0.0000,-0.2053,0.0146,0.0000,0.0000,0.0000,0.0000,0.0000,0.0000,-0.0000,-0.0608,0.0092,0.0219,0.0000,0.0000,-0.5611,0.0025,0.0025,0.0025,0.0025,4
124,217,1860265401261,-10.4319,-0.2053,0.0146,0.0410,0.5710,0.2610,1.1647,23.4375,23.4375,23.4375,23.4375,12.2239,0.0000,-0.0610,-0.1831,-0.0000,-0.1721,-0.2206,-10.5501,0.0216,-0.0193,-0.0080,0.0000,0.0000,0.0000,0.0000,0.0000,0.0000,0.0000,0.0000,0.0000,0.0000,0.0000,0.0000,0.0000,0.0000,1.0000,0.0000,0.0000,0.0000,-0.2053,0.0146,0.0000,0.0000,0.0000,0.0000,0.0000,0.0000,-0.0000,-0.0611,0.0092,0.0219,0.0000,0.0000,-0.5611,0.0025,0.0025,0.0025,0.0025,4
125,218,1860270732138,-10.4319,-0.2053,0.0146,0.0410,0.5710,0.2610,1.1647,23.4375,23.4375,23.4375,23.4375,12.2244,0.0000,0.0000,-0.0610,-0.0000,-0.1650,-0.1822,-10.5811,0.0216,-0.0193,-0.0080,0.0000,0.0000,0.0000,0.0000,0.0000,0.0000,0.0000,0.0000,0.0000,0.0000,0.0000,0.0000,0.0000,0.0000,1.0000,0.0000,0.0000,0.0000,-0.2053,0.0146,0.0000,0.0000,0.0000,0.0000,0.0000,0.0000,-0.0000,-0.0614,0.0092,0.0219,0.0000,0.0000,-0.5611,0.0025,0.0025,0.0025,0.0025,4
126,219,1860275380385,-10.4319,-0.2053,0.0146,0.0410,0.5710,0.2610,1.1647,23.4375,23.4375,23.4375,23.4375,12.2246,0.0000,0.0000,-0.1221,-0.0000,-0.1052,-0.1990,-10.6121,0.0216,-0.0193,-0.0080,0.0000,0.0000,0.0000,0.0000,0.0000,0.0000,0.0000,0.0000,0.0000,0.0000,0.0000,0.0000,0.0000,0.0000,1.0000,0.0000,0.0000,0.0000,-0.2053,0.0146,0.0000,0.0000,0.0000,0.0000,0.0000,0.0000,-0.0000,-0.0616,0.0093,0.0219,0.0000,0.0000,-0.5611,0.0025,0.0025,0.0025,0.0025,4
127,220,1860280257523,-10.4319,-0.2053,0.0146,0.0410,0.5710,0.2610,1.1647,23.4375,23.4375,23.4375,23.4375,12.2249,0.0000,-0.0610,-0.2441,-0.0610,-0.1674,-0.1894,-10.5954,0.0216,-0.0193,-0.0080,0.0000,0.0000,0.0000,0.0000,0.0000,0.0000,0.0000,0.0000,0.0000,0.0000,0.0000,0.0000,0.0000,0.0000,1.0000,0.0000,0.0000,0.0000,-0.2053,0.0146,0.0000,0.0000,0.0000,0.0000,0.0000,0.0000,-0.0000,-0.0616,0.0093,0.0220,0.0000,0.0000,-0.5611,0.0025,0.0025,0.0025,0.0025,4
128,221,1860285682138,-10.4319,-0.2053,0.0146,0.0410,0.5710,0.2610,1.1647,23.4375,23.4375,23.4375,23.4375,12.2249,0.0000,0.0000,-0.1221,-0.0000,-0.1482,-0.1942,-10.5524,0.0216,-0.0193,-0.0080,0.0000,0.0000,0.0000,0.0000,0.0000,0.0000,0.0000,0.0000,0.0000,0.0000,0.0000,0.0000,0.0000,0.0000,1.0000,0.0000,0.0000,0.0000,-0.2053,0.0146,0.0000,0.0000,0.0000,0.0000,0.0000,0.0000,-0.0000,-0.0617,0.0093,0.0220,0.0000,0.0000,-0.5611,0.0025,0.0025,0.0025,0.0025,4
129,222,1860290298890,-10.4319,-0.2053,0.0146,0.0410,0.5710,0.2610,1.1647,23.4375,23.4375,23.4375,23.4375,12.2244,0.0000,-0.0610,-0.3052,-0.0000,-0.0956,-0.2134,-10.5978,0.0216,-0.0193,-0.0080,0.0000,0.0000,0.0000,0.0000,0.0000,0.0000,0.0000,0.0000,0.0000,0.0000,0.0000,0.0000,0.0000,0.0000,1.0000,0.0000,0.0000,0.0000,-0.2053,0.0146,0.0000,0.0000,0.0000,0.0000,0.0000,0.0000,-0.0000,-0.0617,0.0094,0.0219,0.0000,0.0000,-0.5611,0.0025,0.0025,0.0025,0.0025,4
130,223,1860295559691,-10.4319,-0.2053,0.0146,0.0410,0.5710,0.2610,1.1647,23.4375,23.4375,23.4375,23.4375,12.2246,0.0000,-0.0610,-0.1221,-0.0000,-0.1339,-0.1750,-10.5882,0.0216,-0.0193,-0.0080,0.0000,0.0000,0.0000,0.0000,0.0000,0.0000,0.0000,0.0000,0.0000,0.0000,0.0000,0.0000,0.0000,0.0000,1.0000,0.0000,0.0000,0.0000,-0.2053,0.0146,0.0000,0.0000,0.0000,0.0000,0.0000,0.0000,-0.0000,-0.0618,0.0093,0.0219,0.0000,0.0000,-0.5611,0.0025,0.0025,0.0025,0.0025,4
