loop_index, counter, last_step_ns, T_ref, theta_ref, phi_ref, uwind, vwind, wwind, rho, rpm1, rpm2, rpm3, rpm4,v_batt,alt,gyro_roll,gyro_pitch,gyro_yaw,accel_X,accel_Y,accel_Z,roll,pitch,yaw,X,Y,Z,Xdot,Ydot,Zdot,x0,y0,z0,e.xbee_time,xbee_time_received_ns,xbee_x,xbee_y,xbee_z,xbee_qw,xbee_qx,xbee_qy,xbee_qz,sp_roll,sp_pitch,sp_yaw,sp_X,sp_Y,sp_Z,sp_Xdot,sp_Ydot,sp_Zdot,u_roll,u_pitch,u_yaw,u_X,u_Y,u_Z,mot_1,mot_2,mot_3,mot_4,thrust_mot1,thrust_mot2,thrust_mot3,thrust_mot4,flight_mode
0,-1,0,-10.5686,-0.1000,-0.0797,-0.7290,0.7810,-0.0590,1.1721,123.2422,123.2422,123.2422,8025.5859,12.2466,0.0000,0.0000,-0.1221,-0.0000,-0.1530,-0.1055,-10.6288,0.0085,-0.0086,-0.0027,0.0000,0.0000,0.0000,0.0000,0.0000,0.0000,0.0000,0.0000,0.0000,0.0000,0.0000,0.0300,0.0000,0.0000,1.0000,0.0000,0.0000,0.0000,0.0000,0.0000,0.0000,0.0000,0.0000,0.0000,0.0000,0.0000,0.0000,0.0000,0.0000,0.0000,0.0000,0.0000,0.0000,-0.1000,-0.1000,-0.1000,-0.1000,0.0000,0.0000,0.0000,0.0000,4
0,-1,0,-10.5686,-0.1000,-0.0797,-0.7290,0.7810,-0.0590,1.1721,123.2422,123.2422,123.2422,8025.5859,12.2459,0.0000,0.0610,0.0000,-0.0000,-0.2104,-0.1271,-10.6121,0.0085,-0.0086,-0.0027,0.0000,0.0000,0.0000,0.0000,0.0000,0.0000,0.0000,0.0000,0.0000,0.0000,0.0000,0.0300,0.0000,0.0000,1.0000,0.0000,0.0000,0.0000,0.0000,0.0000,0.0000,0.0000,0.0000,0.0000,0.0000,0.0000,0.0000,0.0000,0.0000,0.0000,0.0000,0.0000,0.0000,-0.1000,-0.1000,-0.1000,-0.1000,0.0000,0.0000,0.0000,0.0000,4
0,-1,0,-10.5516,-0.1023,-0.0950,-0.7290,0.7810,-0.0590,1.1721,123.2422,123.2422,123.2422,123.2422,12.2454,0.0000,-0.1221,-0.0610,0.1831,-0.1650,-0.1582,-10.5859,0.0085,-0.0086,-0.0027,0.0000,0.0000,0.0000,0.0000,0.0000,0.0000,0.0000,0.0000,0.0000,0.0000,0.0000,0.0300,0.0000,0.0000,1.0000,0.0000,0.0000,0.0000,0.0000,0.0000,0.0000,0.0000,0.0000,0.0000,0.0000,0.0000,0.0000,0.0000,0.0000,0.0000,0.0000,0.0000,0.0000,-0.1000,-0.1000,-0.1000,-0.1000,0.0000,0.0000,0.0000,0.0000,4
0,-1,0,-10.5516,-0.1023,-0.0950,-0.0090,0.7310,0.3710,1.1721,123.2422,123.2422,123.2422,123.2422,12.2447,0.0000,-0.0610,-0.1831,-0.0000,-0.1817,-0.0863,-10.5739,0.0085,-0.0086,-0.0027,0.0000,0.0000,0.0000,0.0000,0.0000,0.0000,0.0000,0.0000,0.0000,0.0000,0.0000,0.0300,0.0000,0.0000,1.0000,0.0000,0.0000,0.0000,0.0000,0.0000,0.0000,0.0000,0.0000,0.0000,0.0000,0.0000,0.0000,0.0000,0.0000,0.0000,0.0000,0.0000,0.0000,-0.1000,-0.1000,-0.1000,-0.1000,0.0000,0.0000,0.0000,0.0000,4
0,-1,0,-10.5516,-0.1023,-0.0950,-0.0090,0.7310,0.3710,1.1721,123.2422,123.2422,123.2422,123.2422,12.2440,0.0000,-0.0610,-0.2441,-0.0000,-0.1554,-0.1678,-10.5524,0.0085,-0.0087,-0.0027,0.0000,0.0000,0.0000,0.0000,0.0000,0.0000,0.0000,0.0000,0.0000,0.0000,0.0000,0.0300,0.0000,0.0000,1.0000,0.0000,0.0000,0.0000,0.0000,0.0000,0.0000,0.0000,0.0000,0.0000,0.0000,0.0000,0.0000,0.0000,0.0000,0.0000,0.0000,0.0000,0.0000,-0.1000,-0.1000,-0.1000,-0.1000,0.0000,0.0000,0.0000,0.0000,4
0,-1,0,-10.5516,-0.1023,-0.0950,-0.0090,0.7310,0.3710,1.1721,123.2422,123.2422,123.2422,123.2422,12.2437,0.0000,0.0610,0.0000,0.1221,-0.1363,-0.1199,-10.5906,0.0085,-0.0087,-0.0027,0.0000,0.0000,0.0000,0.0000,0.0000,0.0000,0.0000,0.0000,0.0000,0.0000,0.0000,0.0300,0.0000,0.0000,1.0000,0.0000,0.0000,0.0000,0.0000,0.0000,0.0000,0.0000,0.0000,0.0000,0.0000,0.0000,0.0000,0.0000,0.0000,0.0000,0.0000,0.0000,0.0000,-0.1000,-0.1000,-0.1000,-0.1000,0.0000,0.0000,0.0000,0.0000,4
0,-1,0,-10.5516,-0.1023,-0.0950,-0.0090,0.7310,0.3710,1.1721,123.2422,123.2422,123.2422,123.2422,12.2435,0.0000,0.0000,0.0000,-0.0000,-0.1698,-0.1630,-10.5859,0.0085,-0.0087,-0.0027,0.0000,0.0000,0.0000,0.0000,0.0000,0.0000,0.0000,0.0000,0.0000,0.0000,0.0000,0.0300,0.0000,0.0000,1.0000,0.0000,0.0000,0.0000,0.0000,0.0000,0.0000,0.0000,0.0000,0.0000,0.0000,0.0000,0.0000,0.0000,0.0000,0.0000,0.0000,0.0000,0.0000,-0.1000,-0.1000,-0.1000,-0.1000,0.0000,0.0000,0.0000,0.0000,4
0,-1,0,-10.5516,-0.1023,-0.0950,-0.0090,0.7310,0.3710,1.1721,123.2422,123.2422,123.2422,123.2422,12.2433,0.0000,-0.0610,-0.1221,0.1221,-0.1793,-0.1223,-10.5811,0.0085,-0.0087,-0.0027,0.0000,0.0000,0.0000,0.0000,0.0000,0.0000,0.0000,0.0000,0.0000,0.0000,0.0000,0.0300,0.0000,0.0000,1.0000,0.0000,0.0000,0.0000,0.0000,0.0000,0.0000,0.0000,0.0000,0.0000,0.0000,0.0000,0.0000,0.0000,0.0000,0.0000,0.0000,0.0000,0.0000,-0.1000,-0.1000,-0.1000,-0.1000,0.0000,0.0000,0.0000,0.0000,4
0,-1,0,-10.5516,-0.1023,-0.0950,-0.0090,0.7310,0.3710,1.1721,123.2422,123.2422,123.2422,123.2422,12.2428,0.0000,-0.1831,-0.1221,-0.0000,-0.1937,-0.1319,-10.6431,0.0085,-0.0087,-0.0027,0.0000,0.0000,0.0000,0.0000,0.0000,0.0000,0.0000,0.0000,0.0000,0.0000,0.0000,0.0300,0.0000,0.0000,1.0000,0.0000,0.0000,0.0000,0.0000,0.0000,0.0000,0.0000,0.0000,0.0000,0.0000,0.0000,0.0000,0.0000,0.0000,0.0000,0.0000,0.0000,0.0000,-0.1000,-0.1000,-0.1000,-0.1000,0.0000,0.0000,0.0000,0.0000,4
0,-1,0,-10.5516,-0.1023,-0.0950,-0.0090,0.7310,0.3710,1.1721,123.2422,123.2422,123.2422,123.2422,12.2420,0.0000,-0.0610,-0.1221,-0.0000,-0.1865,-0.1343,-10.5501,0.0085,-0.0087,-0.0027,0.0000,0.0000,0.0000,0.0000,0.0000,0.0000,0.0000,0.0000,0.0000,0.0000,0.0000,0.0300,0.0000,0.0000,1.0000,0.0000,0.0000,0.0000,0.0000,0.0000,0.0000,0.0000,0.0000,0.0000,0.0000,0.0000,0.0000,0.0000,0.0000,0.0000,0.0000,0.0000,0.0000,-0.1000,-0.1000,-0.1000,-0.1000,0.0000,0.0000,0.0000,0.0000,4
0,-1,0,-10.5516,-0.1023,-0.0950,-0.0090,0.7310,0.3710,1.1721,123.2422,123.2422,123.2422,123.2422,12.2418,0.0000,-0.1831,-0.1221,-0.0000,-0.1841,-0.1486,-10.6360,0.0085,-0.0087,-0.0027,0.0000,0.0000,0.0000,0.0000,0.0000,0.0000,0.0000,0.0000,0.0000,0.0000,0.0000,0.0300,0.0000,0.0000,1.0000,0.0000,0.0000,0.0000,0.0000,0.0000,0.0000,0.0000,0.0000,0.0000,0.0000,0.0000,0.0000,0.0000,0.0000,0.0000,0.0000,0.0000,0.0000,-0.1000,-0.1000,-0.1000,-0.1000,0.0000,0.0000,0.0000,0.0000,4
0,-1,0,-10.5516,-0.1023,-0.0950,-0.0090,0.7310,0.3710,1.1721,123.2422,123.2422,123.2422,123.2422,12.2413,0.0000,-0.2441,0.0000,-0.0000,-0.1793,-0.0695,-10.5453,0.0085,-0.0087,-0.0027,0.0000,0.0000,0.0000,0.0000,0.0000,0.0000,0.0000,0.0000,0.0000,0.0000,0.0000,0.0300,0.0000,0.0000,1.0000,0.0000,0.0000,0.0000,0.0000,0.0000,0.0000,0.0000,0.0000,0.0000,0.0000,0.0000,0.0000,0.0000,0.0000,0.0000,0.0000,0.0000,0.0000,-0.1000,-0.1000,-0.1000,-0.1000,0.0000,0.0000,0.0000,0.0000,4
0,-1,0,-10.5516,-0.1023,-0.0950,-0.0090,0.7310,0.3710,1.1721,123.2422,123.2422,123.2422,123.2422,12.2404,0.0000,-0.0610,-0.1221,0.1221,-0.1650,-0.1966,-10.5739,0.0085,-0.0087,-0.0027,0.0000,0.0000,0.0000,0.0000,0.0000,0.0000,0.0000,0.0000,0.0000,0.0000,0.0000,0.0300,0.0000,0.0000,1.0000,0.0000,0.0000,0.0000,0.0000,0.0000,0.0000,0.0000,0.0000,0.0000,0.0000,0.0000,0.0000,0.0000,0.0000,0.0000,0.0000,0.0000,0.0000,-0.1000,-0.1000,-0.1000,-0.1000,0.0000,0.0000,0.0000,0.0000,4
0,-1,0,-10.5516,-0.1023,-0.0950,-0.0090,0.7310,0.3710,1.1721,123.2422,123.2422,123.2422,123.2422,12.2401,0.0000,-0.0610,-0.1831,-0.0000,-0.1769,-0.1103,-10.5596,0.0085,-0.0088,-0.0027,0.0000,0.0000,0.0000,0.0000,0.0000,0.0000,0.0000,0.0000,0.0000,0.0000,0.0000,0.0300,0.0000,0.0000,1.0000,0.0000,0.0000,0.0000,0.0000,0.0000,0.0000,0.0000,0.0000,0.0000,0.0000,0.0000,0.0000,0.0000,0.0000,0.0000,0.0000,0.0000,0.0000,-0.1000,-0.1000,-0.1000,-0.1000,0.0000,0.0000,0.0000,0.0000,4
0,-1,0,-10.5516,-0.1023,-0.0950,-0.0090,0.7310,0.3710,1.1721,123.2422,123.2422,123.2422,123.2422,12.2396,0.0000,0.0610,0.0000,0.1221,-0.1961,-0.1319,-10.6097,0.0085,-0.0088,-0.0027,0.0000,0.0000,0.0000,0.0000,0.0000,0.0000,0.0000,0.0000,0.0000,0.0000,0.0000,0.0300,0.0000,0.0000,1.0000,0.0000,0.0000,0.0000,0.0000,0.0000,0.0000,0.0000,0.0000,0.0000,0.0000,0.0000,0.0000,0.0000,0.0000,0.0000,0.0000,0.0000,0.0000,-0.1000,-0.1000,-0.1000,-0.1000,0.0000,0.0000,0.0000,0.0000,4
0,-1,0,-10.5652,-0.0975,-0.0866,-0.0590,0.6710,0.3710,1.1721,123.2422,123.2422,123.2422,123.2422,12.2389,0.0000,0.0000,0.0000,-0.0000,-0.1530,-0.1414,-10.5477,0.0086,-0.0088,-0.0027,0.0000,0.0000,0.0000,0.0000,0.0000,0.0000,0.0000,0.0000,0.0000,0.0000,0.0000,0.0300,0.0000,0.0000,1.0000,0.0000,0.0000,0.0000,0.0000,0.0000,0.0000,0.0000,0.0000,0.0000,0.0000,0.0000,0.0000,0.0000,0.0000,0.0000,0.0000,0.0000,0.0000,-0.1000,-0.1000,-0.1000,-0.1000,0.0000,0.0000,0.0000,0.0000,4
0,-1,0,-10.4129,-0.2145,-0.0031,-0.0690,0.7610,0.4110,1.1721,123.2422,123.2422,123.2422,123.2422,12.2391,0.0000,-0.0610,-0.1221,-0.0000,-0.1961,-0.0935,-10.5310,0.0092,-0.0111,-0.0031,0.0000,0.0000,0.0000,0.0000,0.0000,0.0000,0.0000,0.0000,0.0000,0.0000,0.0000,0.0300,0.0000,0.0000,1.0000,0.0000,0.0000,0.0000,0.0000,0.0000,0.0000,0.0000,0.0000,0.0000,0.0000,0.0000,0.0000,0.0000,0.0000,0.0000,0.0000,0.0000,0.0000,-0.1000,-0.1000,-0.1000,-0.1000,0.0000,0.0000,0.0000,0.0000,4
0,-1,0,-10.4129,-0.2145,-0.0031,-0.0690,0.7610,0.4110,1.1721,123.2422,123.2422,123.2422,123.2422,12.2396,0.0000,-0.0610,-0.1831,-0.0610,-0.1674,-0.1103,-10.5882,0.0092,-0.0111,-0.0031,0.0000,0.0000,0.0000,0.0000,0.0000,0.0000,0.0000,0.0000,0.0000,0.0000,0.0000,0.0300,0.0000,0.0000,1.0000,0.0000,0.0000,0.0000,0.0000,0.0000,0.0000,0.0000,0.0000,0.0000,0.0000,0.0000,0.0000,0.0000,0.0000,0.0000,0.0000,0.0000,0.0000,-0.1000,-0.1000,-0.1000,-0.1000,0.0000,0.0000,0.0000,0.0000,4
0,-1,0,-10.4129,-0.2145,-0.0031,-0.0690,0.7610,0.4110,1.1721,123.2422,123.2422,123.2422,123.2422,12.2404,0.0000,0.0000,-0.0610,0.1221,-0.1984,-0.0935,-10.6288,0.0092,-0.0111,-0.0031,0.0000,0.0000,0.0000,0.0000,0.0000,0.0000,0.0000,0.0000,0.0000,0.0000,0.0000,0.0300,0.0000,0.0000,1.0000,0.0000,0.0000,0.0000,0.0000,0.0000,0.0000,0.0000,0.0000,0.0000,0.0000,0.0000,0.0000,0.0000,0.0000,0.0000,0.0000,0.0000,0.0000,-0.1000,-0.1000,-0.1000,-0.1000,0.0000,0.0000,0.0000,0.0000,4
0,-1,0,-10.4129,-0.2145,-0.0031,-0.0690,0.7610,0.4110,1.1721,123.2422,123.2422,123.2422,123.2422,12.2411,0.0000,-0.1221,0.0000,0.1221,-0.1482,-0.1366,-10.5596,0.0092,-0.0111,-0.0031,0.0000,0.0000,0.0000,0.0000,0.0000,0.0000,0.0000,0.0000,0.0000,0.0000,0.0000,0.0300,0.0000,0.0000,1.0000,0.0000,0.0000,0.0000,0.0000,0.0000,0.0000,0.0000,0.0000,0.0000,0.0000,0.0000,0.0000,0.0000,0.0000,0.0000,0.0000,0.0000,0.0000,-0.1000,-0.1000,-0.1000,-0.1000,0.0000,0.0000,0.0000,0.0000,4
0,-1,0,-10.4129,-0.2145,-0.0031,-0.0690,0.7610,0.4110,1.1721,123.2422,123.2422,123.2422,123.2422,12.2430,0.0000,0.0000,0.0610,-0.0610,-0.1554,-0.1007,-10.5071,0.0092,-0.0111,-0.0031,0.0000,0.0000,0.0000,0.0000,0.0000,0.0000,0.0000,0.0000,0.0000,0.0000,0.0000,0.0300,0.0000,0.0000,1.0000,0.0000,0.0000,0.0000,0.0000,0.0000,0.0000,0.0000,0.0000,0.0000,0.0000,0.0000,0.0000,0.0000,0.0000,0.0000,0.0000,0.0000,0.0000,-0.1000,-0.1000,-0.1000,-0.1000,0.0000,0.0000,0.0000,0.0000,4
0,-1,0,-10.4129,-0.2145,-0.0031,-0.0690,0.7610,0.4110,1.1721,123.2422,123.2422,123.2422,123.2422,12.2442,0.0000,-0.0610,-0.1221,-0.1221,-0.1769,-0.1438,-10.5859,0.0092,-0.0111,-0.0031,0.0000,0.0000,0.0000,0.0000,0.0000,0.0000,0.0000,0.0000,0.0000,0.0000,0.0000,0.0300,0.0000,0.0000,1.0000,0.0000,0.0000,0.0000,0.0000,0.0000,0.0000,0.0000,0.0000,0.0000,0.0000,0.0000,0.0000,0.0000,0.0000,0.0000,0.0000,0.0000,0.0000,-0.1000,-0.1000,-0.1000,-0.1000,0.0000,0.0000,0.0000,0.0000,4
0,-1,0,-10.4129,-0.2145,-0.0031,-0.0690,0.7610,0.4110,1.1721,123.2422,123.2422,123.2422,123.2422,12.2454,0.0000,-0.0610,-0.2441,-0.0000,-0.1626,-0.1343,-10.5978,0.0092,-0.0111,-0.0031,0.0000,0.0000,0.0000,0.0000,0.0000,0.0000,0.0000,0.0000,0.0000,0.0000,0.0000,0.0300,0.0000,0.0000,1.0000,0.0000,0.0000,0.0000,0.0000,0.0000,0.0000,0.0000,0.0000,0.0000,0.0000,0.0000,0.0000,0.0000,0.0000,0.0000,0.0000,0.0000,0.0000,-0.1000,-0.1000,-0.1000,-0.1000,0.0000,0.0000,0.0000,0.0000,4
0,-1,0,-10.4129,-0.2145,-0.0031,-0.0690,0.7610,0.4110,1.1721,123.2422,123.2422,123.2422,123.2422,12.2469,0.0000,-0.0610,-0.1221,-0.0000,-0.1889,-0.1390,-10.5548,0.0092,-0.0111,-0.0031,0.0000,0.0000,0.0000,0.0000,0.0000,0.0000,0.0000,0.0000,0.0000,0.0000,0.0000,0.0300,0.0000,0.0000,1.0000,0.0000,0.0000,0.0000,0.0000,0.0000,0.0000,0.0000,0.0000,0.0000,0.0000,0.0000,0.0000,0.0000,0.0000,0.0000,0.0000,0.0000,0.0000,-0.1000,-0.1000,-0.1000,-0.1000,0.0000,0.0000,0.0000,0.0000,4
0,-1,0,-10.4129,-0.2145,-0.0031,-0.0690,0.7610,0.4110,1.1721,123.2422,123.2422,123.2422,123.2422,12.2481,0.0000,-0.0610,-0.1221,-0.0000,-0.1458,-0.1438,-10.5286,0.0092,-0.0111,-0.0031,0.0000,0.0000,0.0000,0.0000,0.0000,0.0000,0.0000,0.0000,0.0000,0.0000,0.0000,0.0300,0.0000,0.0000,1.0000,0.0000,0.0000,0.0000,0.0000,0.0000,0.0000,0.0000,0.0000,0.0000,0.0000,0.0000,0.0000,0.0000,0.0000,0.0000,0.0000,0.0000,0.0000,-0.1000,-0.1000,-0.1000,-0.1000,0.0000,0.0000,0.0000,0.0000,4
0,-1,0,-10.4129,-0.2145,-0.0031,-0.0690,0.7610,0.4110,1.1721,123.2422,123.2422,123.2422,123.2422,12.2493,0.0000,-0.0610,-0.1221,-0.0610,-0.1674,-0.1127,-10.5548,0.0092,-0.0111,-0.0031,0.0000,0.0000,0.0000,0.0000,0.0000,0.0000,0.0000,0.0000,0.0000,0.0000,0.0000,0.0300,0.0000,0.0000,1.0000,0.0000,0.0000,0.0000,0.0000,0.0000,0.0000,0.0000,0.0000,0.0000,0.0000,0.0000,0.0000,0.0000,0.0000,0.0000,0.0000,0.0000,0.0000,-0.1000,-0.1000,-0.1000,-0.1000,0.0000,0.0000,0.0000,0.0000,4
0,-1,0,-10.4129,-0.2145,-0.0031,-0.0690,0.7610,0.4110,1.1721,123.2422,123.2422,123.2422,123.2422,12.2498,0.0000,-0.1831,-0.1221,-0.0000,-0.1793,-0.1462,-10.5405,0.0092,-0.0111,-0.0031,0.0000,0.0000,0.0000,0.0000,0.0000,0.0000,0.0000,0.0000,0.0000,0.0000,0.0000,0.0300,0.0000,0.0000,1.0000,0.0000,0.0000,0.0000,0.0000,0.0000,0.0000,0.0000,0.0000,0.0000,0.0000,0.0000,0.0000,0.0000,0.0000,0.0000,0.0000,0.0000,0.0000,-0.1000,-0.1000,-0.1000,-0.1000,0.0000,0.0000,0.0000,0.0000,4
0,-1,0,-10.4129,-0.2145,-0.0031,-0.0690,0.7610,0.4110,1.1721,123.2422,123.2422,123.2422,123.2422,12.2507,0.0000,-0.0610,-0.1831,0.1221,-0.1530,-0.1199,-10.6097,0.0092,-0.0112,-0.0031,0.0000,0.0000,0.0000,0.0000,0.0000,0.0000,0.0000,0.0000,0.0000,0.0000,0.0000,0.0300,0.0000,0.0000,1.0000,0.0000,0.0000,0.0000,0.0000,0.0000,0.0000,0.0000,0.0000,0.0000,0.0000,0.0000,0.0000,0.0000,0.0000,0.0000,0.0000,0.0000,0.0000,-0.1000,-0.1000,-0.1000,-0.1000,0.0000,0.0000,0.0000,0.0000,4
0,-1,0,-10.4192,-0.2112,-0.0190,-0.0690,0.7610,0.4110,1.1721,123.2422,123.2422,123.2422,123.2422,12.2517,0.0000,-0.0610,-0.1221,-0.0000,-0.1626,-0.1055,-10.5668,0.0092,-0.0112,-0.0031,0.0000,0.0000,0.0000,0.0000,0.0000,0.0000,0.0000,0.0000,0.0000,0.0000,0.0000,0.0300,0.0000,0.0000,1.0000,0.0000,0.0000,0.0000,0.0000,0.0000,0.0000,0.0000,0.0000,0.0000,0.0000,0.0000,0.0000,0.0000,0.0000,0.0000,0.0000,0.0000,0.0000,-0.1000,-0.1000,-0.1000,-0.1000,0.0000,0.0000,0.0000,0.0000,4
0,-1,0,-10.4192,-0.2112,-0.0190,-0.0290,0.6710,0.3310,1.1721,123.2422,123.2422,123.2422,123.2422,12.2527,0.0000,-0.2441,-0.2441,-0.0000,-0.2056,-0.1558,-10.5811,0.0092,-0.0112,-0.0031,0.0000,0.0000,0.0000,0.0000,0.0000,0.0000,0.0000,0.0000,0.0000,0.0000,0.0000,0.0300,0.0000,0.0000,1.0000,0.0000,0.0000,0.0000,0.0000,0.0000,0.0000,0.0000,0.0000,0.0000,0.0000,0.0000,0.0000,0.0000,0.0000,0.0000,0.0000,0.0000,0.0000,-0.1000,-0.1000,-0.1000,-0.1000,0.0000,0.0000,0.0000,0.0000,4
0,-1,0,-10.4192,-0.2112,-0.0190,-0.0290,0.6710,0.3310,1.1721,123.2422,123.2422,123.2422,123.2422,12.2539,0.0000,-0.1831,-0.1831,-0.0000,-0.1506,-0.1438,-10.5882,0.0092,-0.0112,-0.0031,0.0000,0.0000,0.0000,0.0000,0.0000,0.0000,0.0000,0.0000,0.0000,0.0000,0.0000,0.0300,0.0000,0.0000,1.0000,0.0000,0.0000,0.0000,0.0000,0.0000,0.0000,0.0000,0.0000,0.0000,0.0000,0.0000,0.0000,0.0000,0.0000,0.0000,0.0000,0.0000,0.0000,-0.1000,-0.1000,-0.1000,-0.1000,0.0000,0.0000,0.0000,0.0000,4
0,-1,0,-10.4168,-0.2121,-0.0169,-0.0490,0.6110,0.3410,1.1721,123.2422,123.2422,123.2422,123.2422,12.2549,0.0000,-0.0610,-0.1221,0.1221,-0.1721,-0.1295,-10.5357,0.0092,-0.0112,-0.0031,0.0000,0.0000,0.0000,0.0000,0.0000,0.0000,0.0000,0.0000,0.0000,0.0000,0.0000,0.0300,0.0000,0.0000,1.0000,0.0000,0.0000,0.0000,0.0000,0.0000,0.0000,0.0000,0.0000,0.0000,0.0000,0.0000,0.0000,0.0000,0.0000,0.0000,0.0000,0.0000,0.0000,-0.1000,-0.1000,-0.1000,-0.1000,0.0000,0.0000,0.0000,0.0000,4
0,-1,0,-10.4139,-0.2141,-0.0031,-0.6390,0.6710,-0.0090,1.1721,8025.5859,8025.5859,8025.5859,123.2422,12.2563,0.0000,-0.2441,-0.1221,0.1221,-0.1458,-0.1079,-10.6217,0.0093,-0.0115,-0.0031,0.0000,0.0000,0.0000,0.0000,0.0000,0.0000,0.0000,0.0000,0.0000,0.0000,0.0000,0.0300,0.0000,0.0000,1.0000,0.0000,0.0000,0.0000,0.0000,0.0000,0.0000,0.0000,0.0000,0.0000,0.0000,0.0000,0.0000,0.0000,0.0000,0.0000,0.0000,0.0000,0.0000,-0.1000,-0.1000,-0.1000,-0.1000,0.0000,0.0000,0.0000,0.0000,4
0,-1,0,-10.4139,-0.2141,-0.0031,-0.6390,0.6710,-0.0090,1.1721,8025.5859,8025.5859,8025.5859,123.2422,12.2570,0.0000,-0.0610,-0.1221,0.1221,-0.1626,-0.1343,-10.5835,0.0093,-0.0115,-0.0031,0.0000,0.0000,0.0000,0.0000,0.0000,0.0000,0.0000,0.0000,0.0000,0.0000,0.0000,0.0300,0.0000,0.0000,1.0000,0.0000,0.0000,0.0000,0.0000,0.0000,0.0000,0.0000,0.0000,0.0000,0.0000,0.0000,0.0000,0.0000,0.0000,0.0000,0.0000,0.0000,0.0000,-0.1000,-0.1000,-0.1000,-0.1000,0.0000,0.0000,0.0000,0.0000,4
0,-1,0,-10.4139,-0.2141,-0.0031,-0.6390,0.6710,-0.0090,1.1721,8025.5859,8025.5859,8025.5859,123.2422,12.2582,0.0000,-0.1831,-0.1831,-0.0000,-0.1602,-0.1486,-10.5381,0.0093,-0.0115,-0.0031,0.0000,0.0000,0.0000,0.0000,0.0000,0.0000,0.0000,0.0000,0.0000,0.0000,0.0000,0.0300,0.0000,0.0000,1.0000,0.0000,0.0000,0.0000,0.0000,0.0000,0.0000,0.0000,0.0000,0.0000,0.0000,0.0000,0.0000,0.0000,0.0000,0.0000,0.0000,0.0000,0.0000,-0.1000,-0.1000,-0.1000,-0.1000,0.0000,0.0000,0.0000,0.0000,4
0,-1,0,-10.5685,-0.0929,-0.0881,-0.6390,0.6710,-0.0090,1.1721,8025.5859,8025.5859,8025.5859,8025.5859,12.2597,0.0000,-0.0610,-0.1221,-0.0000,-0.1458,-0.1366,-10.5787,0.0093,-0.0116,-0.0031,0.0000,0.0000,0.0000,0.0000,0.0000,0.0000,0.0000,0.0000,0.0000,0.0000,0.0000,0.0300,0.0000,0.0000,1.0000,0.0000,0.0000,0.0000,0.0000,0.0000,0.0000,0.0000,0.0000,0.0000,0.0000,0.0000,0.0000,0.0000,0.0000,0.0000,0.0000,0.0000,0.0000,-0.1000,-0.1000,-0.1000,-0.1000,0.0000,0.0000,0.0000,0.0000,4
0,-1,0,-10.5685,-0.0929,-0.0881,0.0110,0.6510,0.3510,1.1721,8025.5859,8025.5859,8025.5859,8025.5859,12.2602,0.0000,0.0000,0.0000,0.1221,-0.1650,-0.1175,-10.5882,0.0093,-0.0116,-0.0031,0.0000,0.0000,0.0000,0.0000,0.0000,0.0000,0.0000,0.0000,0.0000,0.0000,0.0000,0.0300,0.0000,0.0000,1.0000,0.0000,0.0000,0.0000,0.0000,0.0000,0.0000,0.0000,0.0000,0.0000,0.0000,0.0000,0.0000,0.0000,0.0000,0.0000,0.0000,0.0000,0.0000,-0.1000,-0.1000,-0.1000,-0.1000,0.0000,0.0000,0.0000,0.0000,4
0,-1,0,-10.5685,-0.0929,-0.0881,0.0110,0.6510,0.3510,1.1721,8025.5859,8025.5859,8025.5859,8025.5859,12.2604,0.0000,0.0000,0.0000,-0.0000,-0.1913,-0.1151,-10.5596,0.0093,-0.0116,-0.0031,0.0000,0.0000,0.0000,0.0000,0.0000,0.0000,0.0000,0.0000,0.0000,0.0000,0.0000,0.0300,0.0000,0.0000,1.0000,0.0000,0.0000,0.0000,0.0000,0.0000,0.0000,0.0000,0.0000,0.0000,0.0000,0.0000,0.0000,0.0000,0.0000,0.0000,0.0000,0.0000,0.0000,-0.1000,-0.1000,-0.1000,-0.1000,0.0000,0.0000,0.0000,0.0000,4
0,-1,0,-10.5685,-0.0929,-0.0881,0.0110,0.6510,0.3510,1.1721,8025.5859,8025.5859,8025.5859,8025.5859,12.2609,0.0000,-0.0610,-0.1831,-0.0610,-0.1602,-0.1462,-10.6050,0.0093,-0.0116,-0.0031,0.0000,0.0000,0.0000,0.0000,0.0000,0.0000,0.0000,0.0000,0.0000,0.0000,0.0000,0.0300,0.0000,0.0000,1.0000,0.0000,0.0000,0.0000,0.0000,0.0000,0.0000,0.0000,0.0000,0.0000,0.0000,0.0000,0.0000,0.0000,0.0000,0.0000,0.0000,0.0000,0.0000,-0.1000,-0.1000,-0.1000,-0.1000,0.0000,0.0000,0.0000,0.0000,4
0,-1,0,-10.5685,-0.0929,-0.0881,0.0110,0.6510,0.3510,1.1721,123.2422,8025.5859,8025.5859,8025.5859,12.2609,0.0000,0.0000,0.1221,-0.1221,-0.1291,-0.1055,-10.5429,0.0093,-0.0116,-0.0031,0.0000,0.0000,0.0000,0.0000,0.0000,0.0000,0.0000,0.0000,0.0000,0.0000,0.0000,0.0300,0.0000,0.0000,1.0000,0.0000,0.0000,0.0000,0.0000,0.0000,0.0000,0.0000,0.0000,0.0000,0.0000,0.0000,0.0000,0.0000,0.0000,0.0000,0.0000,0.0000,0.0000,-0.1000,-0.1000,-0.1000,-0.1000,0.0000,0.0000,0.0000,0.0000,4
0,-1,0,-10.5685,-0.0929,-0.0881,0.0110,0.6510,0.3510,1.1721,123.2422,8025.5859,8025.5859,8025.5859,12.2604,0.0000,0.0000,0.0000,-0.0000,-0.1698,-0.1462,-10.5524,0.0093,-0.0116,-0.0031,0.0000,0.0000,0.0000,0.0000,0.0000,0.0000,0.0000,0.0000,0.0000,0.0000,0.0000,0.0300,0.0000,0.0000,1.0000,0.0000,0.0000,0.0000,0.0000,0.0000,0.0000,0.0000,0.0000,0.0000,0.0000,0.0000,0.0000,0.0000,0.0000,0.0000,0.0000,0.0000,0.0000,-0.1000,-0.1000,-0.1000,-0.1000,0.0000,0.0000,0.0000,0.0000,4
0,-1,0,-10.5685,-0.0929,-0.0881,0.0110,0.6510,0.3510,1.1721,123.2422,8025.5859,8025.5859,8025.5859,12.2607,0.0000,0.0000,0.0000,-0.0000,-0.1482,-0.1199,-10.6050,0.0093,-0.0116,-0.0031,0.0000,0.0000,0.0000,0.0000,0.0000,0.0000,0.0000,0.0000,0.0000,0.0000,0.0000,0.0300,0.0000,0.0000,1.0000,0.0000,0.0000,0.0000,0.0000,0.0000,0.0000,0.0000,0.0000,0.0000,0.0000,0.0000,0.0000,0.0000,0.0000,0.0000,0.0000,0.0000,0.0000,-0.1000,-0.1000,-0.1000,-0.1000,0.0000,0.0000,0.0000,0.0000,4
0,-1,0,-10.5685,-0.0929,-0.0881,0.0110,0.6510,0.3510,1.1721,123.2422,8025.5859,8025.5859,8025.5859,12.2607,0.0000,-0.0610,-0.3052,-0.0000,-0.1291,-0.1127,-10.6312,0.0093,-0.0116,-0.0031,0.0000,0.0000,0.0000,0.0000,0.0000,0.0000,0.0000,0.0000,0.0000,0.0000,0.0000,0.0300,0.0000,0.0000,1.0000,0.0000,0.0000,0.0000,0.0000,0.0000,0.0000,0.0000,0.0000,0.0000,0.0000,0.0000,0.0000,0.0000,0.0000,0.0000,0.0000,0.0000,0.0000,-0.1000,-0.1000,-0.1000,-0.1000,0.0000,0.0000,0.0000,0.0000,4
0,-1,0,-10.5685,-0.0929,-0.0881,0.0110,0.6510,0.3510,1.1721,123.2422,123.2422,8025.5859,8025.5859,12.2609,0.0000,0.0000,0.0000,0.1221,-0.1889,-0.1390,-10.6288,0.0093,-0.0116,-0.0031,0.0000,0.0000,0.0000,0.0000,0.0000,0.0000,0.0000,0.0000,0.0000,0.0000,0.0000,0.0300,0.0000,0.0000,1.0000,0.0000,0.0000,0.0000,0.0000,0.0000,0.0000,0.0000,0.0000,0.0000,0.0000,0.0000,0.0000,0.0000,0.0000,0.0000,0.0000,0.0000,0.0000,-0.1000,-0.1000,-0.1000,-0.1000,0.0000,0.0000,0.0000,0.0000,4
0,-1,0,-10.5685,-0.0929,-0.0881,0.0110,0.6510,0.3510,1.1721,123.2422,123.2422,8025.5859,8025.5859,12.2609,0.0000,0.0000,0.0000,-0.0000,-0.1698,-0.1366,-10.6050,0.0093,-0.0116,-0.0031,0.0000,0.0000,0.0000,0.0000,0.0000,0.0000,0.0000,0.0000,0.0000,0.0000,0.0000,0.0300,0.0000,0.0000,1.0000,0.0000,0.0000,0.0000,0.0000,0.0000,0.0000,0.0000,0.0000,0.0000,0.0000,0.0000,0.0000,0.0000,0.0000,0.0000,0.0000,0.0000,0.0000,-0.1000,-0.1000,-0.1000,-0.1000,0.0000,0.0000,0.0000,0.0000,4
0,-1,0,-10.5685,-0.0929,-0.0881,0.0110,0.6510,0.3510,1.1721,123.2422,123.2422,8025.5859,8025.5859,12.2604,0.0000,0.0000,0.0000,0.1221,-0.1291,-0.1127,-10.5333,0.0093,-0.0116,-0.0031,0.0000,0.0000,0.0000,0.0000,0.0000,0.0000,0.0000,0.0000,0.0000,0.0000,0.0000,0.0300,0.0000,0.0000,1.0000,0.0000,0.0000,0.0000,0.0000,0.0000,0.0000,0.0000,0.0000,0.0000,0.0000,0.0000,0.0000,0.0000,0.0000,0.0000,0.0000,0.0000,0.0000,-0.1000,-0.1000,-0.1000,-0.1000,0.0000,0.0000,0.0000,0.0000,4
0,-1,0,-10.5685,-0.0929,-0.0881,0.0110,0.6510,0.3510,1.1721,123.2422,123.2422,123.2422,8025.5859,12.2607,0.0000,-0.0610,-0.2441,0.1221,-0.1817,-0.1319,-10.5668,0.0093,-0.0116,-0.0031,0.0000,0.0000,0.0000,0.0000,0.0000,0.0000,0.0000,0.0000,0.0000,0.0000,0.0000,0.0300,0.0000,0.0000,1.0000,0.0000,0.0000,0.0000,0.0000,0.0000,0.0000,0.0000,0.0000,0.0000,0.0000,0.0000,0.0000,0.0000,0.0000,0.0000,0.0000,0.0000,0.0000,-0.1000,-0.1000,-0.1000,-0.1000,0.0000,0.0000,0.0000,0.0000,4
0,-1,0,-10.4166,-0.2131,-0.0080,-0.0490,0.7810,0.4510,1.1721,123.2422,123.2422,123.2422,123.2422,12.2604,0.0000,0.0000,-0.0610,-0.0610,-0.1602,-0.1103,-10.5739,0.0094,-0.0116,-0.0031,0.0000,0.0000,0.0000,0.0000,0.0000,0.0000,0.0000,0.0000,0.0000,0.0000,0.0000,0.0300,0.0000,0.0000,1.0000,0.0000,0.0000,0.0000,0.0000,0.0000,0.0000,0.0000,0.0000,0.0000,0.0000,0.0000,0.0000,0.0000,0.0000,0.0000,0.0000,0.0000,0.0000,-0.1000,-0.1000,-0.1000,-0.1000,0.0000,0.0000,0.0000,0.0000,4
0,-1,0,-10.4113,-0.2152,-0.0141,-0.0690,0.8110,0.0110,1.1721,123.2422,123.2422,123.2422,123.2422,12.2597,0.0000,-0.0610,-0.1221,-0.0000,-0.1578,-0.1295,-10.5572,0.0097,-0.0128,-0.0035,0.0000,0.0000,0.0000,0.0000,0.0000,0.0000,0.0000,0.0000,0.0000,0.0000,0.0000,0.0300,0.0000,0.0000,1.0000,0.0000,0.0000,0.0000,0.0000,0.0000,0.0000,0.0000,0.0000,0.0000,0.0000,0.0000,0.0000,0.0000,0.0000,0.0000,0.0000,0.0000,0.0000,-0.1000,-0.1000,-0.1000,-0.1000,0.0000,0.0000,0.0000,0.0000,4
0,-1,0,-10.4113,-0.2152,-0.0141,-0.0690,0.8110,0.0110,1.1721,123.2422,123.2422,123.2422,123.2422,12.2587,0.0000,0.0000,-0.0610,-0.0000,-0.1745,-0.1103,-10.5596,0.0097,-0.0128,-0.0035,0.0000,0.0000,0.0000,0.0000,0.0000,0.0000,0.0000,0.0000,0.0000,0.0000,0.0000,0.0300,0.0000,0.0000,1.0000,0.0000,0.0000,0.0000,0.0000,0.0000,0.0000,0.0000,0.0000,0.0000,0.0000,0.0000,0.0000,0.0000,0.0000,0.0000,0.0000,0.0000,0.0000,-0.1000,-0.1000,-0.1000,-0.1000,0.0000,0.0000,0.0000,0.0000,4
0,-1,0,-10.4113,-0.2152,-0.0141,-0.0690,0.8110,0.0110,1.1721,123.2422,123.2422,123.2422,123.2422,12.2575,0.0000,-0.0610,-0.1221,0.1221,-0.1626,-0.1271,-10.6718,0.0097,-0.0128,-0.0035,0.0000,0.0000,0.0000,0.0000,0.0000,0.0000,0.0000,0.0000,0.0000,0.0000,0.0000,0.0300,0.0000,0.0000,1.0000,0.0000,0.0000,0.0000,0.0000,0.0000,0.0000,0.0000,0.0000,0.0000,0.0000,0.0000,0.0000,0.0000,0.0000,0.0000,0.0000,0.0000,0.0000,-0.1000,-0.1000,-0.1000,-0.1000,0.0000,0.0000,0.0000,0.0000,4
0,-1,0,-10.4113,-0.2152,-0.0141,-0.0690,0.8110,0.0110,1.1721,123.2422,123.2422,123.2422,123.2422,12.2565,0.0000,0.1221,0.0000,0.1221,-0.2152,-0.1319,-10.5691,0.0097,-0.0128,-0.0034,0.0000,0.0000,0.0000,0.0000,0.0000,0.0000,0.0000,0.0000,0.0000,0.0000,0.0000,0.0300,0.0000,0.0000,1.0000,0.0000,0.0000,0.0000,0.0000,0.0000,0.0000,0.0000,0.0000,0.0000,0.0000,0.0000,0.0000,0.0000,0.0000,0.0000,0.0000,0.0000,0.0000,-0.1000,-0.1000,-0.1000,-0.1000,0.0000,0.0000,0.0000,0.0000,4
0,-1,0,-10.4113,-0.2152,-0.0141,-0.0690,0.8110,0.0110,1.1721,123.2422,123.2422,123.2422,123.2422,12.2553,0.0000,-0.1831,-0.1221,-0.0000,-0.1913,-0.0911,-10.6193,0.0097,-0.0129,-0.0035,0.0000,0.0000,0.0000,0.0000,0.0000,0.0000,0.0000,0.0000,0.0000,0.0000,0.0000,0.0300,0.0000,0.0000,1.0000,0.0000,0.0000,0.0000,0.0000,0.0000,0.0000,0.0000,0.0000,0.0000,0.0000,0.0000,0.0000,0.0000,0.0000,0.0000,0.0000,0.0000,0.0000,-0.1000,-0.1000,-0.1000,-0.1000,0.0000,0.0000,0.0000,0.0000,4
0,-1,0,-10.4113,-0.2152,-0.0141,-0.0690,0.8110,0.0110,1.1721,123.2422,123.2422,123.2422,123.2422,12.2546,0.0000,-0.0610,-0.1831,0.1221,-0.1506,-0.0983,-10.5501,0.0097,-0.0129,-0.0034,0.0000,0.0000,0.0000,0.0000,0.0000,0.0000,0.0000,0.0000,0.0000,0.0000,0.0000,0.0300,0.0000,0.0000,1.0000,0.0000,0.0000,0.0000,0.0000,0.0000,0.0000,0.0000,0.0000,0.0000,0.0000,0.0000,0.0000,0.0000,0.0000,0.0000,0.0000,0.0000,0.0000,-0.1000,-0.1000,-0.1000,-0.1000,0.0000,0.0000,0.0000,0.0000,4
0,-1,0,-10.4113,-0.2152,-0.0141,-0.0690,0.8110,0.0110,1.1721,123.2422,123.2422,123.2422,123.2422,12.2536,0.0000,-0.1831,-0.2441,0.1831,-0.1578,-0.1486,-10.5548,0.0097,-0.0129,-0.0034,0.0000,0.0000,0.0000,0.0000,0.0000,0.0000,0.0000,0.0000,0.0000,0.0000,0.0000,0.0300,0.0000,0.0000,1.0000,0.0000,0.0000,0.0000,0.0000,0.0000,0.0000,0.0000,0.0000,0.0000,0.0000,0.0000,0.0000,0.0000,0.0000,0.0000,0.0000,0.0000,0.0000,-0.1000,-0.1000,-0.1000,-0.1000,0.0000,0.0000,0.0000,0.0000,4
0,-1,0,-10.4113,-0.2152,-0.0141,-0.0690,0.8110,0.0110,1.1721,123.2422,123.2422,123.2422,123.2422,12.2527,0.0000,-0.0610,-0.1831,-0.0000,-0.1482,-0.0791,-10.5477,0.0097,-0.0129,-0.0034,0.0000,0.0000,0.0000,0.0000,0.0000,0.0000,0.0000,0.0000,0.0000,0.0000,0.0000,0.0300,0.0000,0.0000,1.0000,0.0000,0.0000,0.0000,0.0000,0.0000,0.0000,0.0000,0.0000,0.0000,0.0000,0.0000,0.0000,0.0000,0.0000,0.0000,0.0000,0.0000,0.0000,-0.1000,-0.1000,-0.1000,-0.1000,0.0000,0.0000,0.0000,0.0000,4
0,-1,0,-10.4113,-0.2152,-0.0141,-0.0690,0.8110,0.0110,1.1721,123.2422,123.2422,123.2422,123.2422,12.2512,0.0000,-0.0610,-0.1831,-0.0000,-0.1674,-0.1414,-10.5596,0.0097,-0.0129,-0.0034,0.0000,0.0000,0.0000,0.0000,0.0000,0.0000,0.0000,0.0000,0.0000,0.0000,0.0000,0.0300,0.0000,0.0000,1.0000,0.0000,0.0000,0.0000,0.0000,0.0000,0.0000,0.0000,0.0000,0.0000,0.0000,0.0000,0.0000,0.0000,0.0000,0.0000,0.0000,0.0000,0.0000,-0.1000,-0.1000,-0.1000,-0.1000,0.0000,0.0000,0.0000,0.0000,4
0,-1,0,-10.4113,-0.2152,-0.0141,-0.0690,0.8110,0.0110,1.1721,123.2422,123.2422,123.2422,123.2422,12.2503,0.0000,0.0000,-0.1221,-0.0000,-0.1817,-0.1247,-10.5954,0.0098,-0.0129,-0.0034,0.0000,0.0000,0.0000,0.0000,0.0000,0.0000,0.0000,0.0000,0.0000,0.0000,0.0000,0.0300,0.0000,0.0000,1.0000,0.0000,0.0000,0.0000,0.0000,0.0000,0.0000,0.0000,0.0000,0.0000,0.0000,0.0000,0.0000,0.0000,0.0000,0.0000,0.0000,0.0000,0.0000,-0.1000,-0.1000,-0.1000,-0.1000,0.0000,0.0000,0.0000,0.0000,4
0,-1,0,-10.4113,-0.2152,-0.0141,-0.0690,0.8110,0.0110,1.1721,123.2422,123.2422,123.2422,123.2422,12.2483,0.0000,-0.0610,-0.1221,0.1221,-0.1458,-0.1630,-10.5859,0.0098,-0.0129,-0.0034,0.0000,0.0000,0.0000,0.0000,0.0000,0.0000,0.0000,0.0000,0.0000,0.0000,0.0000,0.0300,0.0000,0.0000,1.0000,0.0000,0.0000,0.0000,0.0000,0.0000,0.0000,0.0000,0.0000,0.0000,0.0000,0.0000,0.0000,0.0000,0.0000,0.0000,0.0000,0.0000,0.0000,-0.1000,-0.1000,-0.1000,-0.1000,0.0000,0.0000,0.0000,0.0000,4
0,-1,0,-10.4113,-0.2152,-0.0141,-0.0690,0.8110,0.0110,1.1721,123.2422,123.2422,123.2422,123.2422,12.2471,0.0000,-0.0610,-0.1221,-0.0000,-0.2128,-0.1247,-10.6026,0.0098,-0.0129,-0.0034,0.0000,0.0000,0.0000,0.0000,0.0000,0.0000,0.0000,0.0000,0.0000,0.0000,0.0000,0.0300,0.0000,0.0000,1.0000,0.0000,0.0000,0.0000,0.0000,0.0000,0.0000,0.0000,0.0000,0.0000,0.0000,0.0000,0.0000,0.0000,0.0000,0.0000,0.0000,0.0000,0.0000,-0.1000,-0.1000,-0.1000,-0.1000,0.0000,0.0000,0.0000,0.0000,4
0,-1,0,-10.4113,-0.2152,-0.0141,-0.0690,0.8110,0.0110,1.1721,123.2422,123.2422,123.2422,123.2422,12.2462,0.0000,-0.1831,-0.1831,-0.0000,-0.1817,-0.1247,-10.6097,0.0098,-0.0130,-0.0034,0.0000,0.0000,0.0000,0.0000,0.0000,0.0000,0.0000,0.0000,0.0000,0.0000,0.0000,0.0300,0.0000,0.0000,1.0000,0.0000,0.0000,0.0000,0.0000,0.0000,0.0000,0.0000,0.0000,0.0000,0.0000,0.0000,0.0000,0.0000,0.0000,0.0000,0.0000,0.0000,0.0000,-0.1000,-0.1000,-0.1000,-0.1000,0.0000,0.0000,0.0000,0.0000,4
0,-1,0,-10.4113,-0.2152,-0.0141,-0.0690,0.8110,0.0110,1.1721,123.2422,123.2422,123.2422,123.2422,12.2457,0.0000,0.0000,0.0000,-0.1221,-0.1626,-0.1390,-10.6002,0.0098,-0.0130,-0.0035,0.0000,0.0000,0.0000,0.0000,0.0000,0.0000,0.0000,0.0000,0.0000,0.0000,0.0000,0.0300,0.0000,0.0000,1.0000,0.0000,0.0000,0.0000,0.0000,0.0000,0.0000,0.0000,0.0000,0.0000,0.0000,0.0000,0.0000,0.0000,0.0000,0.0000,0.0000,0.0000,0.0000,-0.1000,-0.1000,-0.1000,-0.1000,0.0000,0.0000,0.0000,0.0000,4
0,-1,0,-10.4113,-0.2152,-0.0141,-0.0690,0.8110,0.0110,1.1721,123.2422,123.2422,123.2422,123.2422,12.2447,0.0000,-0.1831,-0.1831,-0.0000,-0.1913,-0.0791,-10.5548,0.0098,-0.0130,-0.0035,0.0000,0.0000,0.0000,0.0000,0.0000,0.0000,0.0000,0.0000,0.0000,0.0000,0.0000,0.0300,0.0000,0.0000,1.0000,0.0000,0.0000,0.0000,0.0000,0.0000,0.0000,0.0000,0.0000,0.0000,0.0000,0.0000,0.0000,0.0000,0.0000,0.0000,0.0000,0.0000,0.0000,-0.1000,-0.1000,-0.1000,-0.1000,0.0000,0.0000,0.0000,0.0000,4
0,-1,0,-10.5699,-0.1065,-0.0693,-0.1290,0.1110,0.0110,1.1721,8025.5859,8025.5859,8025.5859,8025.5859,12.2430,0.0000,-0.0610,-0.1221,-0.0000,-0.1984,-0.1295,-10.5715,0.0098,-0.0130,-0.0035,0.0000,0.0000,0.0000,0.0000,0.0000,0.0000,0.0000,0.0000,0.0000,0.0000,0.0000,0.0300,0.0000,0.0000,1.0000,0.0000,0.0000,0.0000,0.0000,0.0000,0.0000,0.0000,0.0000,0.0000,0.0000,0.0000,0.0000,0.0000,0.0000,0.0000,0.0000,0.0000,0.0000,-0.1000,-0.1000,-0.1000,-0.1000,0.0000,0.0000,0.0000,0.0000,4
0,-1,0,-10.5486,-0.1277,-0.0620,-0.1290,0.0610,0.0110,1.1721,8025.5859,8025.5859,8025.5859,8025.5859,12.2420,0.0000,-0.1221,-0.0610,-0.0000,-0.1578,-0.1223,-10.6766,0.0102,-0.0145,-0.0039,0.0000,0.0000,0.0000,0.0000,0.0000,0.0000,0.0000,0.0000,0.0000,0.0000,0.0000,0.0300,0.0000,0.0000,1.0000,0.0000,0.0000,0.0000,0.0000,0.0000,0.0000,0.0000,0.0000,0.0000,0.0000,0.0000,0.0000,0.0000,0.0000,0.0000,0.0000,0.0000,0.0000,-0.1000,-0.1000,-0.1000,-0.1000,0.0000,0.0000,0.0000,0.0000,4
0,-1,0,-10.5486,-0.1277,-0.0620,-0.1290,0.0610,0.0110,1.1721,8025.5859,8025.5859,8025.5859,8025.5859,12.2413,0.0000,-0.1831,-0.1831,-0.0000,-0.1817,-0.1438,-10.5357,0.0102,-0.0145,-0.0039,0.0000,0.0000,0.0000,0.0000,0.0000,0.0000,0.0000,0.0000,0.0000,0.0000,0.0000,0.0300,0.0000,0.0000,1.0000,0.0000,0.0000,0.0000,0.0000,0.0000,0.0000,0.0000,0.0000,0.0000,0.0000,0.0000,0.0000,0.0000,0.0000,0.0000,0.0000,0.0000,0.0000,-0.1000,-0.1000,-0.1000,-0.1000,0.0000,0.0000,0.0000,0.0000,4
0,-1,0,-10.5486,-0.1277,-0.0620,-0.1290,0.0610,0.0110,1.1721,8025.5859,8025.5859,8025.5859,8025.5859,12.2411,0.0000,0.0610,-0.1221,-0.0000,-0.1984,-0.1055,-10.5691,0.0103,-0.0145,-0.0039,0.0000,0.0000,0.0000,0.0000,0.0000,0.0000,0.0000,0.0000,0.0000,0.0000,0.0000,0.0300,0.0000,0.0000,1.0000,0.0000,0.0000,0.0000,0.0000,0.0000,0.0000,0.0000,0.0000,0.0000,0.0000,0.0000,0.0000,0.0000,0.0000,0.0000,0.0000,0.0000,0.0000,-0.1000,-0.1000,-0.1000,-0.1000,0.0000,0.0000,0.0000,0.0000,4
0,-1,0,-10.5486,-0.1277,-0.0620,-0.1290,0.0610,0.0110,1.1721,8025.5859,8025.5859,8025.5859,8025.5859,12.2399,0.0000,-0.1221,-0.0610,0.1831,-0.1482,-0.1247,-10.5906,0.0103,-0.0145,-0.0039,0.0000,0.0000,0.0000,0.0000,0.0000,0.0000,0.0000,0.0000,0.0000,0.0000,0.0000,0.0300,0.0000,0.0000,1.0000,0.0000,0.0000,0.0000,0.0000,0.0000,0.0000,0.0000,0.0000,0.0000,0.0000,0.0000,0.0000,0.0000,0.0000,0.0000,0.0000,0.0000,0.0000,-0.1000,-0.1000,-0.1000,-0.1000,0.0000,0.0000,0.0000,0.0000,4
0,-1,0,-10.5449,-0.0620,-0.1304,-0.1290,0.0610,0.0110,1.1721,8025.5859,8025.5859,8025.5859,8025.5859,12.2399,0.0000,-0.0610,-0.1221,-0.0000,-0.1793,-0.1319,-10.5739,0.0103,-0.0146,-0.0039,0.0000,0.0000,0.0000,0.0000,0.0000,0.0000,0.0000,0.0000,0.0000,0.0000,0.0000,0.0300,0.0000,0.0000,1.0000,0.0000,0.0000,0.0000,0.0000,0.0000,0.0000,0.0000,0.0000,0.0000,0.0000,0.0000,0.0000,0.0000,0.0000,0.0000,0.0000,0.0000,0.0000,-0.1000,-0.1000,-0.1000,-0.1000,0.0000,0.0000,0.0000,0.0000,4
0,-1,0,-10.5449,-0.0620,-0.1304,-0.6990,0.8110,0.0410,1.1721,8025.5859,8025.5859,8025.5859,8025.5859,12.2401,0.0000,-0.1831,-0.3052,-0.0610,-0.1745,-0.1414,-10.5524,0.0103,-0.0146,-0.0039,0.0000,0.0000,0.0000,0.0000,0.0000,0.0000,0.0000,0.0000,0.0000,0.0000,0.0000,0.0300,0.0000,0.0000,1.0000,0.0000,0.0000,0.0000,0.0000,0.0000,0.0000,0.0000,0.0000,0.0000,0.0000,0.0000,0.0000,0.0000,0.0000,0.0000,0.0000,0.0000,0.0000,-0.1000,-0.1000,-0.1000,-0.1000,0.0000,0.0000,0.0000,0.0000,4
0,-1,0,-10.5449,-0.0620,-0.1304,-0.6990,0.8110,0.0410,1.1721,8025.5859,8025.5859,8025.5859,8025.5859,12.2399,0.0000,0.0000,0.0000,-0.0000,-0.1817,-0.1271,-10.6312,0.0103,-0.0146,-0.0039,0.0000,0.0000,0.0000,0.0000,0.0000,0.0000,0.0000,0.0000,0.0000,0.0000,0.0000,0.0300,0.0000,0.0000,1.0000,0.0000,0.0000,0.0000,0.0000,0.0000,0.0000,0.0000,0.0000,0.0000,0.0000,0.0000,0.0000,0.0000,0.0000,0.0000,0.0000,0.0000,0.0000,-0.1000,-0.1000,-0.1000,-0.1000,0.0000,0.0000,0.0000,0.0000,4
0,-1,0,-10.5449,-0.0620,-0.1304,-0.6990,0.8110,0.0410,1.1721,8025.5859,8025.5859,8025.5859,8025.5859,12.2396,0.0000,-0.1831,-0.2441,0.1221,-0.1602,-0.1390,-10.5835,0.0103,-0.0146,-0.0039,0.0000,0.0000,0.0000,0.0000,0.0000,0.0000,0.0000,0.0000,0.0000,0.0000,0.0000,0.0300,0.0000,0.0000,1.0000,0.0000,0.0000,0.0000,0.0000,0.0000,0.0000,0.0000,0.0000,0.0000,0.0000,0.0000,0.0000,0.0000,0.0000,0.0000,0.0000,0.0000,0.0000,-0.1000,-0.1000,-0.1000,-0.1000,0.0000,0.0000,0.0000,0.0000,4
0,-1,0,-10.5449,-0.0620,-0.1304,-0.6990,0.8110,0.0410,1.1721,123.2422,8025.5859,8025.5859,8025.5859,12.2401,0.0000,-0.1831,-0.2441,-0.0000,-0.1602,-0.1151,-10.6384,0.0103,-0.0146,-0.0039,0.0000,0.0000,0.0000,0.0000,0.0000,0.0000,0.0000,0.0000,0.0000,0.0000,0.0000,0.0300,0.0000,0.0000,1.0000,0.0000,0.0000,0.0000,0.0000,0.0000,0.0000,0.0000,0.0000,0.0000,0.0000,0.0000,0.0000,0.0000,0.0000,0.0000,0.0000,0.0000,0.0000,-0.1000,-0.1000,-0.1000,-0.1000,0.0000,0.0000,0.0000,0.0000,4
0,-1,0,-10.5449,-0.0620,-0.1304,-0.6990,0.8110,0.0410,1.1721,123.2422,8025.5859,8025.5859,8025.5859,12.2404,0.0000,-0.0610,-0.1831,-0.0000,-0.1769,-0.1031,-10.6026,0.0103,-0.0146,-0.0039,0.0000,0.0000,0.0000,0.0000,0.0000,0.0000,0.0000,0.0000,0.0000,0.0000,0.0000,0.0300,0.0000,0.0000,1.0000,0.0000,0.0000,0.0000,0.0000,0.0000,0.0000,0.0000,0.0000,0.0000,0.0000,0.0000,0.0000,0.0000,0.0000,0.0000,0.0000,0.0000,0.0000,-0.1000,-0.1000,-0.1000,-0.1000,0.0000,0.0000,0.0000,0.0000,4
0,-1,0,-10.5449,-0.0620,-0.1304,-0.6990,0.8110,0.0410,1.1721,123.2422,8025.5859,8025.5859,8025.5859,12.2401,0.0000,-0.0610,-0.1831,-0.0000,-0.1626,-0.1438,-10.5620,0.0103,-0.0146,-0.0039,0.0000,0.0000,0.0000,0.0000,0.0000,0.0000,0.0000,0.0000,0.0000,0.0000,0.0000,0.0300,0.0000,0.0000,1.0000,0.0000,0.0000,0.0000,0.0000,0.0000,0.0000,0.0000,0.0000,0.0000,0.0000,0.0000,0.0000,0.0000,0.0000,0.0000,0.0000,0.0000,0.0000,-0.1000,-0.1000,-0.1000,-0.1000,0.0000,0.0000,0.0000,0.0000,4
0,-1,0,-10.5449,-0.0620,-0.1304,-0.6990,0.8110,0.0410,1.1721,123.2422,8025.5859,8025.5859,8025.5859,12.2401,0.0000,-0.0610,-0.2441,-0.1221,-0.1650,-0.0983,-10.5548,0.0103,-0.0146,-0.0039,0.0000,0.0000,0.0000,0.0000,0.0000,0.0000,0.0000,0.0000,0.0000,0.0000,0.0000,0.0300,0.0000,0.0000,1.0000,0.0000,0.0000,0.0000,0.0000,0.0000,0.0000,0.0000,0.0000,0.0000,0.0000,0.0000,0.0000,0.0000,0.0000,0.0000,0.0000,0.0000,0.0000,-0.1000,-0.1000,-0.1000,-0.1000,0.0000,0.0000,0.0000,0.0000,4
0,-1,0,-10.5682,-0.0923,-0.0892,-0.7290,0.7510,0.0110,1.1721,8025.5859,8025.5859,8025.5859,8025.5859,12.2401,0.0000,0.0000,0.0000,0.1221,-0.1721,-0.1319,-10.5763,0.0103,-0.0146,-0.0039,0.0000,0.0000,0.0000,0.0000,0.0000,0.0000,0.0000,0.0000,0.0000,0.0000,0.0000,0.0300,0.0000,0.0000,1.0000,0.0000,0.0000,0.0000,0.0000,0.0000,0.0000,0.0000,0.0000,0.0000,0.0000,0.0000,0.0000,0.0000,0.0000,0.0000,0.0000,0.0000,0.0000,-0.1000,-0.1000,-0.1000,-0.1000,0.0000,0.0000,0.0000,0.0000,4
0,-1,0,-10.5680,-0.0974,-0.0837,-0.7090,0.7910,0.0110,1.1721,8025.5859,8025.5859,8025.5859,123.2422,12.2396,0.0000,-0.1831,-0.1221,-0.0000,-0.1554,-0.1678,-10.6240,0.0106,-0.0155,-0.0042,0.0000,0.0000,0.0000,0.0000,0.0000,0.0000,0.0000,0.0000,0.0000,0.0000,0.0000,0.0300,0.0000,0.0000,1.0000,0.0000,0.0000,0.0000,0.0000,0.0000,0.0000,0.0000,0.0000,0.0000,0.0000,0.0000,0.0000,0.0000,0.0000,0.0000,0.0000,0.0000,0.0000,-0.1000,-0.1000,-0.1000,-0.1000,0.0000,0.0000,0.0000,0.0000,4
0,-1,0,-10.5680,-0.0974,-0.0837,-0.7090,0.7910,0.0110,1.1721,8025.5859,8025.5859,8025.5859,123.2422,12.2401,0.0000,-0.0610,-0.1831,-0.0610,-0.1578,-0.1175,-10.6217,0.0106,-0.0155,-0.0042,0.0000,0.0000,0.0000,0.0000,0.0000,0.0000,0.0000,0.0000,0.0000,0.0000,0.0000,0.0300,0.0000,0.0000,1.0000,0.0000,0.0000,0.0000,0.0000,0.0000,0.0000,0.0000,0.0000,0.0000,0.0000,0.0000,0.0000,0.0000,0.0000,0.0000,0.0000,0.0000,0.0000,-0.1000,-0.1000,-0.1000,-0.1000,0.0000,0.0000,0.0000,0.0000,4
0,-1,0,-10.5680,-0.0974,-0.0837,-0.7090,0.7910,0.0110,1.1721,8025.5859,8025.5859,8025.5859,123.2422,12.2404,0.0000,-0.0610,-0.1221,-0.0000,-0.1530,-0.1462,-10.5071,0.0106,-0.0155,-0.0042,0.0000,0.0000,0.0000,0.0000,0.0000,0.0000,0.0000,0.0000,0.0000,0.0000,0.0000,0.0300,0.0000,0.0000,1.0000,0.0000,0.0000,0.0000,0.0000,0.0000,0.0000,0.0000,0.0000,0.0000,0.0000,0.0000,0.0000,0.0000,0.0000,0.0000,0.0000,0.0000,0.0000,-0.1000,-0.1000,-0.1000,-0.1000,0.0000,0.0000,0.0000,0.0000,4
0,-1,0,-10.5683,-0.0957,-0.0854,-0.0090,0.7610,0.4410,1.1721,8025.5859,8025.5859,8025.5859,8025.5859,12.2401,0.0000,-0.1831,-0.1221,-0.0000,-0.1769,-0.0743,-10.5787,0.0106,-0.0155,-0.0042,0.0000,0.0000,0.0000,0.0000,0.0000,0.0000,0.0000,0.0000,0.0000,0.0000,0.0000,0.0300,0.0000,0.0000,1.0000,0.0000,0.0000,0.0000,0.0000,0.0000,0.0000,0.0000,0.0000,0.0000,0.0000,0.0000,0.0000,0.0000,0.0000,0.0000,0.0000,0.0000,0.0000,-0.1000,-0.1000,-0.1000,-0.1000,0.0000,0.0000,0.0000,0.0000,4
0,-1,0,-10.5683,-0.0957,-0.0854,-0.0090,0.7610,0.4410,1.1721,8025.5859,8025.5859,8025.5859,8025.5859,12.2391,0.0000,-0.0610,-0.1831,0.1221,-0.1721,-0.1151,-10.5238,0.0106,-0.0155,-0.0042,0.0000,0.0000,0.0000,0.0000,0.0000,0.0000,0.0000,0.0000,0.0000,0.0000,0.0000,0.0300,0.0000,0.0000,1.0000,0.0000,0.0000,0.0000,0.0000,0.0000,0.0000,0.0000,0.0000,0.0000,0.0000,0.0000,0.0000,0.0000,0.0000,0.0000,0.0000,0.0000,0.0000,-0.1000,-0.1000,-0.1000,-0.1000,0.0000,0.0000,0.0000,0.0000,4
0,-1,0,-10.5683,-0.0957,-0.0854,-0.0090,0.7610,0.4410,1.1721,8025.5859,8025.5859,8025.5859,8025.5859,12.2387,0.0000,-0.0610,-0.2441,-0.0000,-0.1411,-0.1223,-10.4808,0.0106,-0.0155,-0.0042,0.0000,0.0000,0.0000,0.0000,0.0000,0.0000,0.0000,0.0000,0.0000,0.0000,0.0000,0.0300,0.0000,0.0000,1.0000,0.0000,0.0000,0.0000,0.0000,0.0000,0.0000,0.0000,0.0000,0.0000,0.0000,0.0000,0.0000,0.0000,0.0000,0.0000,0.0000,0.0000,0.0000,-0.1000,-0.1000,-0.1000,-0.1000,0.0000,0.0000,0.0000,0.0000,4
0,-1,0,-10.5682,-0.0952,-0.0860,-0.7090,0.7810,0.0110,1.1721,123.2422,123.2422,123.2422,123.2422,12.2384,0.0000,-0.2441,-0.1831,-0.0000,-0.1363,-0.1175,-10.6479,0.0106,-0.0155,-0.0042,0.0000,0.0000,0.0000,0.0000,0.0000,0.0000,0.0000,0.0000,0.0000,0.0000,0.0000,0.0300,0.0000,0.0000,1.0000,0.0000,0.0000,0.0000,0.0000,0.0000,0.0000,0.0000,0.0000,0.0000,0.0000,0.0000,0.0000,0.0000,0.0000,0.0000,0.0000,0.0000,0.0000,-0.1000,-0.1000,-0.1000,-0.1000,0.0000,0.0000,0.0000,0.0000,4
0,-1,0,-10.4202,-0.2106,-0.0214,-0.7190,0.8110,0.0410,1.1721,123.2422,123.2422,123.2422,123.2422,12.2384,0.0000,0.0000,0.0000,-0.0000,-0.1506,-0.1247,-10.5978,0.0106,-0.0157,-0.0043,0.0000,0.0000,0.0000,0.0000,0.0000,0.0000,0.0000,0.0000,0.0000,0.0000,0.0000,0.0300,0.0000,0.0000,1.0000,0.0000,0.0000,0.0000,0.0000,0.0000,0.0000,0.0000,0.0000,0.0000,0.0000,0.0000,0.0000,0.0000,0.0000,0.0000,0.0000,0.0000,0.0000,-0.1000,-0.1000,-0.1000,-0.1000,0.0000,0.0000,0.0000,0.0000,4
0,-1,0,-10.5591,-0.1010,-0.0896,-0.0290,0.7810,0.4710,1.1721,123.2422,123.2422,123.2422,123.2422,12.2391,0.0000,-0.1831,-0.1831,0.1221,-0.1554,-0.1175,-10.5882,0.0106,-0.0158,-0.0043,0.0000,0.0000,0.0000,0.0000,0.0000,0.0000,0.0000,0.0000,0.0000,0.0000,0.0000,0.0300,0.0000,0.0000,1.0000,0.0000,0.0000,0.0000,0.0000,0.0000,0.0000,0.0000,0.0000,0.0000,0.0000,0.0000,0.0000,0.0000,0.0000,0.0000,0.0000,0.0000,0.0000,-0.1000,-0.1000,-0.1000,-0.1000,0.0000,0.0000,0.0000,0.0000,4
0,-1,0,-10.4118,-0.2154,-0.0079,-0.7490,0.8210,0.0210,1.1721,8025.5859,8025.5859,123.2422,123.2422,12.2384,0.0000,-0.1831,-0.0610,-0.0000,-0.1721,-0.1630,-10.5882,0.0108,-0.0171,-0.0047,0.0000,0.0000,0.0000,0.0000,0.0000,0.0000,0.0000,0.0000,0.0000,0.0000,0.0000,0.0300,0.0000,0.0000,1.0000,0.0000,0.0000,0.0000,0.0000,0.0000,0.0000,0.0000,0.0000,0.0000,0.0000,0.0000,0.0000,0.0000,0.0000,0.0000,0.0000,0.0000,0.0000,-0.1000,-0.1000,-0.1000,-0.1000,0.0000,0.0000,0.0000,0.0000,4
0,-1,0,-10.4118,-0.2154,-0.0079,-0.7490,0.8210,0.0210,1.1721,8025.5859,8025.5859,123.2422,123.2422,12.2384,0.0000,-0.0610,-0.1831,-0.1221,-0.1865,-0.1295,-10.6312,0.0108,-0.0171,-0.0047,0.0000,0.0000,0.0000,0.0000,0.0000,0.0000,0.0000,0.0000,0.0000,0.0000,0.0000,0.0300,0.0000,0.0000,1.0000,0.0000,0.0000,0.0000,0.0000,0.0000,0.0000,0.0000,0.0000,0.0000,0.0000,0.0000,0.0000,0.0000,0.0000,0.0000,0.0000,0.0000,0.0000,-0.1000,-0.1000,-0.1000,-0.1000,0.0000,0.0000,0.0000,0.0000,4
0,-1,0,-10.4118,-0.2154,-0.0079,-0.7490,0.8210,0.0210,1.1721,8025.5859,8025.5859,123.2422,123.2422,12.2384,0.0000,-0.0610,-0.2441,-0.0610,-0.1291,-0.0959,-10.6240,0.0108,-0.0171,-0.0047,0.0000,0.0000,0.0000,0.0000,0.0000,0.0000,0.0000,0.0000,0.0000,0.0000,0.0000,0.0300,0.0000,0.0000,1.0000,0.0000,0.0000,0.0000,0.0000,0.0000,0.0000,0.0000,0.0000,0.0000,0.0000,0.0000,0.0000,0.0000,0.0000,0.0000,0.0000,0.0000,0.0000,-0.1000,-0.1000,-0.1000,-0.1000,0.0000,0.0000,0.0000,0.0000,4
0,-1,0,-10.4118,-0.2154,-0.0079,-0.7490,0.8210,0.0210,1.1721,8025.5859,8025.5859,123.2422,123.2422,12.2389,0.0000,-0.0610,-0.3052,-0.0000,-0.1554,-0.1654,-10.6097,0.0108,-0.0171,-0.0047,0.0000,0.0000,0.0000,0.0000,0.0000,0.0000,0.0000,0.0000,0.0000,0.0000,0.0000,0.0300,0.0000,0.0000,1.0000,0.0000,0.0000,0.0000,0.0000,0.0000,0.0000,0.0000,0.0000,0.0000,0.0000,0.0000,0.0000,0.0000,0.0000,0.0000,0.0000,0.0000,0.0000,-0.1000,-0.1000,-0.1000,-0.1000,0.0000,0.0000,0.0000,0.0000,4
0,-1,0,-10.4118,-0.2154,-0.0079,-0.7490,0.8210,0.0210,1.1721,8025.5859,8025.5859,8025.5859,123.2422,12.2387,0.0000,-0.0610,-0.1221,-0.0000,-0.1435,-0.1582,-10.6575,0.0108,-0.0171,-0.0047,0.0000,0.0000,0.0000,0.0000,0.0000,0.0000,0.0000,0.0000,0.0000,0.0000,0.0000,0.0300,0.0000,0.0000,1.0000,0.0000,0.0000,0.0000,0.0000,0.0000,0.0000,0.0000,0.0000,0.0000,0.0000,0.0000,0.0000,0.0000,0.0000,0.0000,0.0000,0.0000,0.0000,-0.1000,-0.1000,-0.1000,-0.1000,0.0000,0.0000,0.0000,0.0000,4
0,-1,0,-10.4118,-0.2154,-0.0079,-0.7490,0.8210,0.0210,1.1721,8025.5859,8025.5859,8025.5859,123.2422,12.2387,0.0000,0.0000,0.0000,-0.0000,-0.1339,-0.1247,-10.6408,0.0108,-0.0171,-0.0047,0.0000,0.0000,0.0000,0.0000,0.0000,0.0000,0.0000,0.0000,0.0000,0.0000,0.0000,0.0300,0.0000,0.0000,1.0000,0.0000,0.0000,0.0000,0.0000,0.0000,0.0000,0.0000,0.0000,0.0000,0.0000,0.0000,0.0000,0.0000,0.0000,0.0000,0.0000,0.0000,0.0000,-0.1000,-0.1000,-0.1000,-0.1000,0.0000,0.0000,0.0000,0.0000,4
0,-1,0,-10.4118,-0.2154,-0.0079,-0.7490,0.8210,0.0210,1.1721,8025.5859,8025.5859,8025.5859,123.2422,12.2382,0.0000,0.0000,0.0000,-0.0000,-0.1602,-0.1414,-10.5763,0.0108,-0.0171,-0.0047,0.0000,0.0000,0.0000,0.0000,0.0000,0.0000,0.0000,0.0000,0.0000,0.0000,0.0000,0.0300,0.0000,0.0000,1.0000,0.0000,0.0000,0.0000,0.0000,0.0000,0.0000,0.0000,0.0000,0.0000,0.0000,0.0000,0.0000,0.0000,0.0000,0.0000,0.0000,0.0000,0.0000,-0.1000,-0.1000,-0.1000,-0.1000,0.0000,0.0000,0.0000,0.0000,4
0,-1,0,-10.4118,-0.2154,-0.0079,-0.7490,0.8210,0.0210,1.1721,8025.5859,8025.5859,8025.5859,123.2422,12.2377,0.0000,0.0000,0.0000,-0.1221,-0.1363,-0.1199,-10.6169,0.0108,-0.0171,-0.0047,0.0000,0.0000,0.0000,0.0000,0.0000,0.0000,0.0000,0.0000,0.0000,0.0000,0.0000,0.0300,0.0000,0.0000,1.0000,0.0000,0.0000,0.0000,0.0000,0.0000,0.0000,0.0000,0.0000,0.0000,0.0000,0.0000,0.0000,0.0000,0.0000,0.0000,0.0000,0.0000,0.0000,-0.1000,-0.1000,-0.1000,-0.1000,0.0000,0.0000,0.0000,0.0000,4
0,-1,0,-10.5687,-0.0944,-0.0863,0.0010,0.6910,0.3810,1.1721,8025.5859,8025.5859,8025.5859,8025.5859,12.2377,0.0000,-0.0610,-0.1831,-0.0610,-0.1698,-0.1630,-10.6073,0.0108,-0.0171,-0.0048,0.0000,0.0000,0.0000,0.0000,0.0000,0.0000,0.0000,0.0000,0.0000,0.0000,0.0000,0.0300,0.0000,0.0000,1.0000,0.0000,0.0000,0.0000,0.0000,0.0000,0.0000,0.0000,0.0000,0.0000,0.0000,0.0000,0.0000,0.0000,0.0000,0.0000,0.0000,0.0000,0.0000,-0.1000,-0.1000,-0.1000,-0.1000,0.0000,0.0000,0.0000,0.0000,4
0,-1,0,-10.4174,-0.2127,0.0003,-0.0490,-0.0290,-0.0190,1.1721,8025.5859,8025.5859,8025.5859,123.2422,12.2372,0.0000,-0.0610,-0.1831,-0.0610,-0.1889,-0.1199,-10.6050,0.0111,-0.0180,-0.0052,0.0000,0.0000,0.0000,0.0000,0.0000,0.0000,0.0000,0.0000,0.0000,0.0000,0.0000,0.0300,0.0000,0.0000,1.0000,0.0000,0.0000,0.0000,0.0000,0.0000,0.0000,0.0000,0.0000,0.0000,0.0000,0.0000,0.0000,0.0000,0.0000,0.0000,0.0000,0.0000,0.0000,-0.1000,-0.1000,-0.1000,-0.1000,0.0000,0.0000,0.0000,0.0000,4
0,-1,0,-10.4174,-0.2127,0.0003,-0.0490,-0.0290,-0.0190,1.1721,8025.5859,8025.5859,8025.5859,123.2422,12.2377,0.0000,-0.3662,-0.1221,-0.1221,-0.1817,-0.1295,-10.6002,0.0111,-0.0180,-0.0052,0.0000,0.0000,0.0000,0.0000,0.0000,0.0000,0.0000,0.0000,0.0000,0.0000,0.0000,0.0300,0.0000,0.0000,1.0000,0.0000,0.0000,0.0000,0.0000,0.0000,0.0000,0.0000,0.0000,0.0000,0.0000,0.0000,0.0000,0.0000,0.0000,0.0000,0.0000,0.0000,0.0000,-0.1000,-0.1000,-0.1000,-0.1000,0.0000,0.0000,0.0000,0.0000,4
0,-1,0,-10.4174,-0.2127,0.0003,-0.0490,-0.0290,-0.0190,1.1721,8025.5859,8025.5859,8025.5859,123.2422,12.2377,0.0000,-0.0610,-0.2441,-0.0000,-0.1769,-0.1462,-10.5644,0.0111,-0.0180,-0.0052,0.0000,0.0000,0.0000,0.0000,0.0000,0.0000,0.0000,0.0000,0.0000,0.0000,0.0000,0.0300,0.0000,0.0000,1.0000,0.0000,0.0000,0.0000,0.0000,0.0000,0.0000,0.0000,0.0000,0.0000,0.0000,0.0000,0.0000,0.0000,0.0000,0.0000,0.0000,0.0000,0.0000,-0.1000,-0.1000,-0.1000,-0.1000,0.0000,0.0000,0.0000,0.0000,4
0,-1,0,-10.4591,0.0989,-0.1653,-0.0490,-0.0290,-0.0190,1.1721,8025.5859,8025.5859,8025.5859,8025.5859,12.2377,0.0000,0.0000,0.0000,-0.0000,-0.1817,-0.1295,-10.5954,0.0111,-0.0180,-0.0052,0.0000,0.0000,0.0000,0.0000,0.0000,0.0000,0.0000,0.0000,0.0000,0.0000,0.0000,0.0300,0.0000,0.0000,1.0000,0.0000,0.0000,0.0000,0.0000,0.0000,0.0000,0.0000,0.0000,0.0000,0.0000,0.0000,0.0000,0.0000,0.0000,0.0000,0.0000,0.0000,0.0000,-0.1000,-0.1000,-0.1000,-0.1000,0.0000,0.0000,0.0000,0.0000,4
0,-1,0,-10.4591,0.0989,-0.1653,-0.2190,0.6710,-0.0390,1.1721,8025.5859,8025.5859,8025.5859,8025.5859,12.2375,0.0000,-0.0610,-0.1221,-0.0000,-0.1602,-0.1798,-10.5262,0.0111,-0.0180,-0.0052,0.0000,0.0000,0.0000,0.0000,0.0000,0.0000,0.0000,0.0000,0.0000,0.0000,0.0000,0.0300,0.0000,0.0000,1.0000,0.0000,0.0000,0.0000,0.0000,0.0000,0.0000,0.0000,0.0000,0.0000,0.0000,0.0000,0.0000,0.0000,0.0000,0.0000,0.0000,0.0000,0.0000,-0.1000,-0.1000,-0.1000,-0.1000,0.0000,0.0000,0.0000,0.0000,4
0,-1,0,-10.4591,0.0989,-0.1653,-0.2190,0.6710,-0.0390,1.1721,8025.5859,8025.5859,8025.5859,8025.5859,12.2375,0.0000,0.0000,0.0000,-0.1221,-0.1889,-0.1390,-10.5763,0.0111,-0.0180,-0.0053,0.0000,0.0000,0.0000,0.0000,0.0000,0.0000,0.0000,0.0000,0.0000,0.0000,0.0000,0.0300,0.0000,0.0000,1.0000,0.0000,0.0000,0.0000,0.0000,0.0000,0.0000,0.0000,0.0000,0.0000,0.0000,0.0000,0.0000,0.0000,0.0000,0.0000,0.0000,0.0000,0.0000,-0.1000,-0.1000,-0.1000,-0.1000,0.0000,0.0000,0.0000,0.0000,4
0,-1,0,-10.4591,0.0989,-0.1653,-0.2190,0.6710,-0.0390,1.1721,8025.5859,8025.5859,8025.5859,8025.5859,12.2384,0.0000,-0.0610,-0.1221,-0.0000,-0.1482,-0.1127,-10.5620,0.0111,-0.0180,-0.0053,0.0000,0.0000,0.0000,0.0000,0.0000,0.0000,0.0000,0.0000,0.0000,0.0000,0.0000,0.0300,0.0000,0.0000,1.0000,0.0000,0.0000,0.0000,0.0000,0.0000,0.0000,0.0000,0.0000,0.0000,0.0000,0.0000,0.0000,0.0000,0.0000,0.0000,0.0000,0.0000,0.0000,-0.1000,-0.1000,-0.1000,-0.1000,0.0000,0.0000,0.0000,0.0000,4
0,-1,0,-10.4591,0.0989,-0.1653,-0.2190,0.6710,-0.0390,1.1721,123.2422,8025.5859,8025.5859,8025.5859,12.2387,0.0000,0.0000,0.0000,-0.0000,-0.1530,-0.1582,-10.6073,0.0111,-0.0180,-0.0053,0.0000,0.0000,0.0000,0.0000,0.0000,0.0000,0.0000,0.0000,0.0000,0.0000,0.0000,0.0300,0.0000,0.0000,1.0000,0.0000,0.0000,0.0000,0.0000,0.0000,0.0000,0.0000,0.0000,0.0000,0.0000,0.0000,0.0000,0.0000,0.0000,0.0000,0.0000,0.0000,0.0000,-0.1000,-0.1000,-0.1000,-0.1000,0.0000,0.0000,0.0000,0.0000,4
0,-1,0,-10.3982,0.2148,-0.0491,-0.0890,-0.1290,-0.0590,1.1721,123.2422,8025.5859,8025.5859,8025.5859,12.2389,0.0000,0.0000,0.0000,-0.0000,-0.1721,-0.1319,-10.5978,0.0111,-0.0180,-0.0053,0.0000,0.0000,0.0000,0.0000,0.0000,0.0000,0.0000,0.0000,0.0000,0.0000,0.0000,0.0300,0.0000,0.0000,1.0000,0.0000,0.0000,0.0000,0.0000,0.0000,0.0000,0.0000,0.0000,0.0000,0.0000,0.0000,0.0000,0.0000,0.0000,0.0000,0.0000,0.0000,0.0000,-0.1000,-0.1000,-0.1000,-0.1000,0.0000,0.0000,0.0000,0.0000,4
0,-1,0,-10.4045,0.2172,0.0113,-0.0990,-0.0290,-0.0690,1.1721,8025.5859,8025.5859,8025.5859,8025.5859,12.2399,0.0000,-0.0610,-0.3052,0.1221,-0.1554,-0.1079,-10.6694,0.0112,-0.0188,-0.0057,0.0000,0.0000,0.0000,0.0000,0.0000,0.0000,0.0000,0.0000,0.0000,0.0000,0.0000,0.0300,0.0000,0.0000,1.0000,0.0000,0.0000,0.0000,0.0000,0.0000,0.0000,0.0000,0.0000,0.0000,0.0000,0.0000,0.0000,0.0000,0.0000,0.0000,0.0000,0.0000,0.0000,-0.1000,-0.1000,-0.1000,-0.1000,0.0000,0.0000,0.0000,0.0000,4
0,-1,0,-10.4045,0.2172,0.0113,-0.0990,-0.0290,-0.0690,1.1721,8025.5859,8025.5859,8025.5859,8025.5859,12.2404,0.0000,-0.0610,-0.3052,-0.0000,-0.1411,-0.1558,-10.5691,0.0112,-0.0188,-0.0057,0.0000,0.0000,0.0000,0.0000,0.0000,0.0000,0.0000,0.0000,0.0000,0.0000,0.0000,0.0300,0.0000,0.0000,1.0000,0.0000,0.0000,0.0000,0.0000,0.0000,0.0000,0.0000,0.0000,0.0000,0.0000,0.0000,0.0000,0.0000,0.0000,0.0000,0.0000,0.0000,0.0000,-0.1000,-0.1000,-0.1000,-0.1000,0.0000,0.0000,0.0000,0.0000,4
0,-1,0,-10.4045,0.2172,0.0113,-0.0990,-0.0290,-0.0690,1.1721,8025.5859,8025.5859,8025.5859,8025.5859,12.2416,0.0000,-0.0610,-0.1831,-0.0000,-0.1458,-0.1175,-10.5691,0.0112,-0.0188,-0.0057,0.0000,0.0000,0.0000,0.0000,0.0000,0.0000,0.0000,0.0000,0.0000,0.0000,0.0000,0.0300,0.0000,0.0000,1.0000,0.0000,0.0000,0.0000,0.0000,0.0000,0.0000,0.0000,0.0000,0.0000,0.0000,0.0000,0.0000,0.0000,0.0000,0.0000,0.0000,0.0000,0.0000,-0.1000,-0.1000,-0.1000,-0.1000,0.0000,0.0000,0.0000,0.0000,4
0,-1,0,-10.4045,0.2172,0.0113,-0.0990,-0.0290,-0.0690,1.1721,8025.5859,8025.5859,8025.5859,8025.5859,12.2430,0.0000,-0.1831,-0.2441,-0.1221,-0.1578,-0.1151,-10.6503,0.0112,-0.0188,-0.0058,0.0000,0.0000,0.0000,0.0000,0.0000,0.0000,0.0000,0.0000,0.0000,0.0000,0.0000,0.0300,0.0000,0.0000,1.0000,0.0000,0.0000,0.0000,0.0000,0.0000,0.0000,0.0000,0.0000,0.0000,0.0000,0.0000,0.0000,0.0000,0.0000,0.0000,0.0000,0.0000,0.0000,-0.1000,-0.1000,-0.1000,-0.1000,0.0000,0.0000,0.0000,0.0000,4
0,-1,0,-10.4045,0.2172,0.0113,-0.0990,-0.0290,-0.0690,1.1721,8025.5859,8025.5859,8025.5859,8025.5859,12.2425,0.0000,-0.1221,-0.0610,-0.0000,-0.1721,-0.1486,-10.6384,0.0112,-0.0188,-0.0058,0.0000,0.0000,0.0000,0.0000,0.0000,0.0000,0.0000,0.0000,0.0000,0.0000,0.0000,0.0300,0.0000,0.0000,1.0000,0.0000,0.0000,0.0000,0.0000,0.0000,0.0000,0.0000,0.0000,0.0000,0.0000,0.0000,0.0000,0.0000,0.0000,0.0000,0.0000,0.0000,0.0000,-0.1000,-0.1000,-0.1000,-0.1000,0.0000,0.0000,0.0000,0.0000,4
0,-1,0,-10.4045,0.2172,0.0113,-0.0990,-0.0290,-0.0690,1.1721,8025.5859,8025.5859,8025.5859,8025.5859,12.2435,0.0000,0.0000,-0.2441,0.1221,-0.1626,-0.0983,-10.6050,0.0112,-0.0188,-0.0058,0.0000,0.0000,0.0000,0.0000,0.0000,0.0000,0.0000,0.0000,0.0000,0.0000,0.0000,0.0300,0.0000,0.0000,1.0000,0.0000,0.0000,0.0000,0.0000,0.0000,0.0000,0.0000,0.0000,0.0000,0.0000,0.0000,0.0000,0.0000,0.0000,0.0000,0.0000,0.0000,0.0000,-0.1000,-0.1000,-0.1000,-0.1000,0.0000,0.0000,0.0000,0.0000,4
0,-1,0,-10.4045,0.2172,0.0113,-0.0990,-0.0290,-0.0690,1.1721,8025.5859,8025.5859,8025.5859,8025.5859,12.2445,0.0000,-0.0610,-0.1831,-0.0000,-0.1817,-0.1151,-10.5262,0.0112,-0.0188,-0.0058,0.0000,0.0000,0.0000,0.0000,0.0000,0.0000,0.0000,0.0000,0.0000,0.0000,0.0000,0.0300,0.0000,0.0000,1.0000,0.0000,0.0000,0.0000,0.0000,0.0000,0.0000,0.0000,0.0000,0.0000,0.0000,0.0000,0.0000,0.0000,0.0000,0.0000,0.0000,0.0000,0.0000,-0.1000,-0.1000,-0.1000,-0.1000,0.0000,0.0000,0.0000,0.0000,4
0,-1,0,-10.4045,0.2172,0.0113,-0.0990,-0.0290,-0.0690,1.1721,8025.5859,8025.5859,8025.5859,8025.5859,12.2457,0.0000,-0.1831,-0.1221,-0.0000,-0.1578,-0.1462,-10.6455,0.0112,-0.0188,-0.0058,0.0000,0.0000,0.0000,0.0000,0.0000,0.0000,0.0000,0.0000,0.0000,0.0000,0.0000,0.0300,0.0000,0.0000,1.0000,0.0000,0.0000,0.0000,0.0000,0.0000,0.0000,0.0000,0.0000,0.0000,0.0000,0.0000,0.0000,0.0000,0.0000,0.0000,0.0000,0.0000,0.0000,-0.1000,-0.1000,-0.1000,-0.1000,0.0000,0.0000,0.0000,0.0000,4
0,-1,0,-10.4028,0.1209,-0.1821,-0.0290,-0.0190,-0.0890,1.1721,8025.5859,8025.5859,8025.5859,8025.5859,12.2469,0.0000,0.0000,0.0000,-0.0000,-0.1195,-0.1151,-10.5954,0.0112,-0.0188,-0.0058,0.0000,0.0000,0.0000,0.0000,0.0000,0.0000,0.0000,0.0000,0.0000,0.0000,0.0000,0.0300,0.0000,0.0000,1.0000,0.0000,0.0000,0.0000,0.0000,0.0000,0.0000,0.0000,0.0000,0.0000,0.0000,0.0000,0.0000,0.0000,0.0000,0.0000,0.0000,0.0000,0.0000,-0.1000,-0.1000,-0.1000,-0.1000,0.0000,0.0000,0.0000,0.0000,4
0,-1,0,-10.4256,0.1818,-0.1019,-0.0490,0.0110,-0.0390,1.1721,8025.5859,8025.5859,8025.5859,8025.5859,12.2478,0.0000,-0.1221,-0.0610,-0.0610,-0.1482,-0.1366,-10.5763,0.0112,-0.0189,-0.0059,0.0000,0.0000,0.0000,0.0000,0.0000,0.0000,0.0000,0.0000,0.0000,0.0000,0.0000,0.0300,0.0000,0.0000,1.0000,0.0000,0.0000,0.0000,0.0000,0.0000,0.0000,0.0000,0.0000,0.0000,0.0000,0.0000,0.0000,0.0000,0.0000,0.0000,0.0000,0.0000,0.0000,-0.1000,-0.1000,-0.1000,-0.1000,0.0000,0.0000,0.0000,0.0000,4
0,-1,0,-10.4256,0.1818,-0.1019,-0.0490,0.0110,-0.0390,1.1721,8025.5859,8025.5859,8025.5859,8025.5859,12.2488,0.0000,0.0000,-0.0610,-0.0000,-0.1506,-0.1726,-10.5572,0.0112,-0.0189,-0.0059,0.0000,0.0000,0.0000,0.0000,0.0000,0.0000,0.0000,0.0000,0.0000,0.0000,0.0000,0.0300,0.0000,0.0000,1.0000,0.0000,0.0000,0.0000,0.0000,0.0000,0.0000,0.0000,0.0000,0.0000,0.0000,0.0000,0.0000,0.0000,0.0000,0.0000,0.0000,0.0000,0.0000,-0.1000,-0.1000,-0.1000,-0.1000,0.0000,0.0000,0.0000,0.0000,4
0,-1,0,-10.4069,0.0850,-0.1993,-0.0690,-0.0290,-0.0490,1.1721,8025.5859,8025.5859,8025.5859,8025.5859,12.2498,0.0000,0.0000,-0.0610,0.1221,-0.1435,-0.1247,-10.6336,0.0112,-0.0189,-0.0059,0.0000,0.0000,0.0000,0.0000,0.0000,0.0000,0.0000,0.0000,0.0000,0.0000,0.0000,0.0300,0.0000,0.0000,1.0000,0.0000,0.0000,0.0000,0.0000,0.0000,0.0000,0.0000,0.0000,0.0000,0.0000,0.0000,0.0000,0.0000,0.0000,0.0000,0.0000,0.0000,0.0000,-0.1000,-0.1000,-0.1000,-0.1000,0.0000,0.0000,0.0000,0.0000,4
0,-1,0,-10.4305,-0.0699,-0.1938,-0.0590,-0.0390,-0.0490,1.1721,8025.5859,8025.5859,8025.5859,8025.5859,12.2507,0.0000,0.1221,0.0000,0.1221,-0.1602,-0.1606,-10.5906,0.0114,-0.0116,-0.0061,0.0000,0.0000,0.0000,0.0000,0.0000,0.0000,0.0000,0.0000,0.0000,0.0000,0.0000,0.0300,0.0000,0.0000,1.0000,0.0000,0.0000,0.0000,0.0000,0.0000,0.0000,0.0000,0.0000,0.0000,0.0000,0.0000,0.0000,0.0000,0.0000,0.0000,0.0000,0.0000,0.0000,-0.1000,-0.1000,-0.1000,-0.1000,0.0000,0.0000,0.0000,0.0000,4
0,-1,0,-10.4305,-0.0699,-0.1938,-0.0590,-0.0390,-0.0490,1.1721,8025.5859,8025.5859,8025.5859,8025.5859,12.2520,0.0000,-0.1831,-0.1831,-0.0000,-0.1674,-0.0959,-10.5501,0.0114,-0.0116,-0.0061,0.0000,0.0000,0.0000,0.0000,0.0000,0.0000,0.0000,0.0000,0.0000,0.0000,0.0000,0.0300,0.0000,0.0000,1.0000,0.0000,0.0000,0.0000,0.0000,0.0000,0.0000,0.0000,0.0000,0.0000,0.0000,0.0000,0.0000,0.0000,0.0000,0.0000,0.0000,0.0000,0.0000,-0.1000,-0.1000,-0.1000,-0.1000,0.0000,0.0000,0.0000,0.0000,4
0,-1,0,-10.4305,-0.0699,-0.1938,-0.0590,-0.0390,-0.0490,1.1721,8025.5859,8025.5859,8025.5859,8025.5859,12.2527,0.0000,-0.0610,-0.1221,-0.0000,-0.1506,-0.1438,-10.5333,0.0114,-0.0116,-0.0061,0.0000,0.0000,0.0000,0.0000,0.0000,0.0000,0.0000,0.0000,0.0000,0.0000,0.0000,0.0300,0.0000,0.0000,1.0000,0.0000,0.0000,0.0000,0.0000,0.0000,0.0000,0.0000,0.0000,0.0000,0.0000,0.0000,0.0000,0.0000,0.0000,0.0000,0.0000,0.0000,0.0000,-0.1000,-0.1000,-0.1000,-0.1000,0.0000,0.0000,0.0000,0.0000,4
0,-1,0,-10.4041,0.1214,-0.1811,-0.0290,-0.0090,-0.0690,1.1721,8025.5859,8025.5859,8025.5859,8025.5859,12.2539,0.0000,-0.1831,-0.1831,-0.0000,-0.2104,-0.1175,-10.5978,0.0114,-0.0116,-0.0061,0.0000,0.0000,0.0000,0.0000,0.0000,0.0000,0.0000,0.0000,0.0000,0.0000,0.0000,0.0300,0.0000,0.0000,1.0000,0.0000,0.0000,0.0000,0.0000,0.0000,0.0000,0.0000,0.0000,0.0000,0.0000,0.0000,0.0000,0.0000,0.0000,0.0000,0.0000,0.0000,0.0000,-0.1000,-0.1000,-0.1000,-0.1000,0.0000,0.0000,0.0000,0.0000,4
0,-1,0,-10.4041,0.1214,-0.1811,-0.0290,-0.0090,-0.0690,1.1721,8025.5859,8025.5859,8025.5859,8025.5859,12.2549,0.0000,-0.0610,-0.2441,0.1831,-0.1674,-0.1175,-10.6240,0.0114,-0.0117,-0.0061,0.0000,0.0000,0.0000,0.0000,0.0000,0.0000,0.0000,0.0000,0.0000,0.0000,0.0000,0.0300,0.0000,0.0000,1.0000,0.0000,0.0000,0.0000,0.0000,0.0000,0.0000,0.0000,0.0000,0.0000,0.0000,0.0000,0.0000,0.0000,0.0000,0.0000,0.0000,0.0000,0.0000,-0.1000,-0.1000,-0.1000,-0.1000,0.0000,0.0000,0.0000,0.0000,4
0,-1,0,-10.4251,-0.0021,-0.2083,-0.6590,0.6810,-0.0090,1.1721,123.2422,123.2422,8025.5859,8025.5859,12.2541,0.0000,0.0000,0.0000,-0.0000,-0.1482,-0.1271,-10.5333,0.0114,-0.0118,-0.0061,0.0000,0.0000,0.0000,0.0000,0.0000,0.0000,0.0000,0.0000,0.0000,0.0000,0.0000,0.0300,0.0000,0.0000,1.0000,0.0000,0.0000,0.0000,0.0000,0.0000,0.0000,0.0000,0.0000,0.0000,0.0000,0.0000,0.0000,0.0000,0.0000,0.0000,0.0000,0.0000,0.0000,-0.1000,-0.1000,-0.1000,-0.1000,0.0000,0.0000,0.0000,0.0000,4
0,-1,0,-10.4062,0.1285,-0.1750,-0.6690,0.7610,-0.0190,1.1721,123.2422,123.2422,123.2422,123.2422,12.2544,0.0000,0.0000,0.0000,-0.0000,-0.1411,-0.1534,-10.5691,0.0114,-0.0135,-0.0064,0.0000,0.0000,0.0000,0.0000,0.0000,0.0000,0.0000,0.0000,0.0000,0.0000,0.0000,0.0300,0.0000,0.0000,1.0000,0.0000,0.0000,0.0000,0.0000,0.0000,0.0000,0.0000,0.0000,0.0000,0.0000,0.0000,0.0000,0.0000,0.0000,0.0000,0.0000,0.0000,0.0000,-0.1000,-0.1000,-0.1000,-0.1000,0.0000,0.0000,0.0000,0.0000,4
0,-1,0,-10.4062,0.1285,-0.1750,-0.6690,0.7610,-0.0190,1.1721,123.2422,123.2422,123.2422,123.2422,12.2541,0.0000,-0.1221,0.0000,-0.0000,-0.1554,-0.1366,-10.5524,0.0114,-0.0135,-0.0064,0.0000,0.0000,0.0000,0.0000,0.0000,0.0000,0.0000,0.0000,0.0000,0.0000,0.0000,0.0300,0.0000,0.0000,1.0000,0.0000,0.0000,0.0000,0.0000,0.0000,0.0000,0.0000,0.0000,0.0000,0.0000,0.0000,0.0000,0.0000,0.0000,0.0000,0.0000,0.0000,0.0000,-0.1000,-0.1000,-0.1000,-0.1000,0.0000,0.0000,0.0000,0.0000,4
