loop_index, counter, last_step_ns, T_ref, theta_ref, phi_ref, uwind, vwind, wwind, rho, rpm1, rpm2, rpm3, rpm4,v_batt,alt,gyro_roll,gyro_pitch,gyro_yaw,accel_X,accel_Y,accel_Z,roll,pitch,yaw,X,Y,Z,Xdot,Ydot,Zdot,x0,y0,z0,e.xbee_time,xbee_time_received_ns,xbee_x,xbee_y,xbee_z,xbee_qw,xbee_qx,xbee_qy,xbee_qz,sp_roll,sp_pitch,sp_yaw,sp_X,sp_Y,sp_Z,sp_Xdot,sp_Ydot,sp_Zdot,u_roll,u_pitch,u_yaw,u_X,u_Y,u_Z,mot_1,mot_2,mot_3,mot_4,flight mode
0,-1,0,-10.5012,-0.1615,0.0547,0.0310,0.0910,-0.0190,1.1651,23.4375,23.4375,23.4375,23.4375,12.2237,0.0000,0.0000,0.0000,0.1221,-0.1698,-0.1438,-10.7100,0.0129,-0.0020,-0.0015,0.0000,0.0000,0.0000,0.0000,0.0000,0.0000,0.0000,0.0000,0.0000,0.0000,0.0000,0.0000,0.0000,0.0000,1.0000,0.0000,0.0000,0.0000,0.0000,0.0000,0.0000,0.0000,0.0000,0.0000,0.0000,0.0000,0.0000,0.0000,0.0000,0.0000,0.0000,0.0000,0.0000,-0.1000,-0.1000,-0.1000,-0.1000,4
0,-1,0,-10.5012,-0.1615,0.0547,0.0310,0.0910,-0.0190,1.1651,23.4375,23.4375,23.4375,23.4375,12.2229,0.0000,0.1221,-0.3052,-0.0610,-0.2582,-0.3596,-10.5954,0.0129,-0.0021,-0.0015,0.0000,0.0000,0.0000,0.0000,0.0000,0.0000,0.0000,0.0000,0.0000,0.0000,0.0000,0.0000,0.0000,0.0000,1.0000,0.0000,0.0000,0.0000,0.0000,0.0000,0.0000,0.0000,0.0000,0.0000,0.0000,0.0000,0.0000,0.0000,0.0000,0.0000,0.0000,0.0000,0.0000,-0.1000,-0.1000,-0.1000,-0.1000,4
0,-1,0,-10.5012,-0.1615,0.0547,0.0310,0.0910,-0.0190,1.1651,23.4375,23.4375,23.4375,23.4375,12.2229,0.0000,-0.0610,-0.1221,-0.0000,-0.0789,-0.1031,-10.5763,0.0129,-0.0021,-0.0015,0.0000,0.0000,0.0000,0.0000,0.0000,0.0000,0.0000,0.0000,0.0000,0.0000,0.0000,0.0000,0.0000,0.0000,1.0000,0.0000,0.0000,0.0000,0.0000,0.0000,0.0000,0.0000,0.0000,0.0000,0.0000,0.0000,0.0000,0.0000,0.0000,0.0000,0.0000,0.0000,0.0000,-0.1000,-0.1000,-0.1000,-0.1000,4
0,-1,0,-10.5012,-0.1615,0.0547,0.0310,0.0910,-0.0190,1.1651,23.4375,23.4375,23.4375,23.4375,12.2232,0.0000,0.0610,-0.0610,0.1221,-0.1817,-0.2685,-10.6813,0.0129,-0.0021,-0.0015,0.0000,0.0000,0.0000,0.0000,0.0000,0.0000,0.0000,0.0000,0.0000,0.0000,0.0000,0.0000,0.0000,0.0000,1.0000,0.0000,0.0000,0.0000,0.0000,0.0000,0.0000,0.0000,0.0000,0.0000,0.0000,0.0000,0.0000,0.0000,0.0000,0.0000,0.0000,0.0000,0.0000,-0.1000,-0.1000,-0.1000,-0.1000,4
0,-1,0,-10.5012,-0.1615,0.0547,0.0310,0.0910,-0.0190,1.1651,23.4375,23.4375,23.4375,23.4375,12.2234,0.0000,-0.0610,-0.3052,0.2441,-0.1650,-0.2661,-10.5930,0.0129,-0.0021,-0.0015,0.0000,0.0000,0.0000,0.0000,0.0000,0.0000,0.0000,0.0000,0.0000,0.0000,0.0000,0.0000,0.0000,0.0000,1.0000,0.0000,0.0000,0.0000,0.0000,0.0000,0.0000,0.0000,0.0000,0.0000,0.0000,0.0000,0.0000,0.0000,0.0000,0.0000,0.0000,0.0000,0.0000,-0.1000,-0.1000,-0.1000,-0.1000,4
0,-1,0,-10.5012,-0.1615,0.0547,0.0310,0.0910,-0.0190,1.1651,23.4375,23.4375,23.4375,23.4375,12.2242,0.0000,-0.0610,-0.1221,-0.0610,-0.0622,-0.1151,-10.5548,0.0129,-0.0022,-0.0015,0.0000,0.0000,0.0000,0.0000,0.0000,0.0000,0.0000,0.0000,0.0000,0.0000,0.0000,0.0000,0.0000,0.0000,1.0000,0.0000,0.0000,0.0000,0.0000,0.0000,0.0000,0.0000,0.0000,0.0000,0.0000,0.0000,0.0000,0.0000,0.0000,0.0000,0.0000,0.0000,0.0000,-0.1000,-0.1000,-0.1000,-0.1000,4
0,-1,0,-10.5012,-0.1615,0.0547,0.0310,0.0910,-0.0190,1.1651,23.4375,23.4375,23.4375,23.4375,12.2242,0.0000,0.0610,-0.1831,-0.0000,-0.1267,-0.2110,-10.6766,0.0130,-0.0022,-0.0015,0.0000,0.0000,0.0000,0.0000,0.0000,0.0000,0.0000,0.0000,0.0000,0.0000,0.0000,0.0000,0.0000,0.0000,1.0000,0.0000,0.0000,0.0000,0.0000,0.0000,0.0000,0.0000,0.0000,0.0000,0.0000,0.0000,0.0000,0.0000,0.0000,0.0000,0.0000,0.0000,0.0000,-0.1000,-0.1000,-0.1000,-0.1000,4
0,-1,0,-10.5012,-0.1615,0.0547,0.0310,0.0910,-0.0190,1.1651,23.4375,23.4375,23.4375,23.4375,12.2239,0.0000,0.0000,-0.1831,-0.0000,-0.2319,-0.2565,-10.5166,0.0130,-0.0022,-0.0015,0.0000,0.0000,0.0000,0.0000,0.0000,0.0000,0.0000,0.0000,0.0000,0.0000,0.0000,0.0000,0.0000,0.0000,1.0000,0.0000,0.0000,0.0000,0.0000,0.0000,0.0000,0.0000,0.0000,0.0000,0.0000,0.0000,0.0000,0.0000,0.0000,0.0000,0.0000,0.0000,0.0000,-0.1000,-0.1000,-0.1000,-0.1000,4
0,-1,0,-10.5012,-0.1615,0.0547,0.0310,0.0910,-0.0190,1.1651,23.4375,23.4375,23.4375,23.4375,12.2242,0.0000,-0.1831,-0.1221,-0.0610,-0.0478,-0.0288,-10.6837,0.0130,-0.0022,-0.0015,0.0000,0.0000,0.0000,0.0000,0.0000,0.0000,0.0000,0.0000,0.0000,0.0000,0.0000,0.0000,0.0000,0.0000,1.0000,0.0000,0.0000,0.0000,0.0000,0.0000,0.0000,0.0000,0.0000,0.0000,0.0000,0.0000,0.0000,0.0000,0.0000,0.0000,0.0000,0.0000,0.0000,-0.1000,-0.1000,-0.1000,-0.1000,4
0,-1,0,-10.5012,-0.1615,0.0547,0.0310,0.0910,-0.0190,1.1651,23.4375,23.4375,23.4375,23.4375,12.2242,0.0000,0.0610,-0.0610,-0.0000,-0.1674,-0.3284,-10.5739,0.0130,-0.0022,-0.0015,0.0000,0.0000,0.0000,0.0000,0.0000,0.0000,0.0000,0.0000,0.0000,0.0000,0.0000,0.0000,0.0000,0.0000,1.0000,0.0000,0.0000,0.0000,0.0000,0.0000,0.0000,0.0000,0.0000,0.0000,0.0000,0.0000,0.0000,0.0000,0.0000,0.0000,0.0000,0.0000,0.0000,-0.1000,-0.1000,-0.1000,-0.1000,4
0,-1,0,-10.5012,-0.1615,0.0547,0.0310,0.0910,-0.0190,1.1651,23.4375,23.4375,23.4375,23.4375,12.2244,0.0000,-0.2441,-0.1831,0.1831,-0.1721,-0.2038,-10.5071,0.0130,-0.0023,-0.0015,0.0000,0.0000,0.0000,0.0000,0.0000,0.0000,0.0000,0.0000,0.0000,0.0000,0.0000,0.0000,0.0000,0.0000,1.0000,0.0000,0.0000,0.0000,0.0000,0.0000,0.0000,0.0000,0.0000,0.0000,0.0000,0.0000,0.0000,0.0000,0.0000,0.0000,0.0000,0.0000,0.0000,-0.1000,-0.1000,-0.1000,-0.1000,4
0,-1,0,-10.5012,-0.1615,0.0547,0.0310,0.0910,-0.0190,1.1651,23.4375,23.4375,23.4375,23.4375,12.2244,0.0000,0.0000,0.1831,-0.0610,-0.0909,-0.1366,-10.6002,0.0130,-0.0022,-0.0015,0.0000,0.0000,0.0000,0.0000,0.0000,0.0000,0.0000,0.0000,0.0000,0.0000,0.0000,0.0000,0.0000,0.0000,1.0000,0.0000,0.0000,0.0000,0.0000,0.0000,0.0000,0.0000,0.0000,0.0000,0.0000,0.0000,0.0000,0.0000,0.0000,0.0000,0.0000,0.0000,0.0000,-0.1000,-0.1000,-0.1000,-0.1000,4
0,-1,0,-10.5012,-0.1615,0.0547,0.0310,0.0910,-0.0190,1.1651,23.4375,23.4375,23.4375,23.4375,12.2244,0.0000,0.1221,-0.0610,0.1221,-0.1291,-0.2469,-10.5882,0.0130,-0.0023,-0.0015,0.0000,0.0000,0.0000,0.0000,0.0000,0.0000,0.0000,0.0000,0.0000,0.0000,0.0000,0.0000,0.0000,0.0000,1.0000,0.0000,0.0000,0.0000,0.0000,0.0000,0.0000,0.0000,0.0000,0.0000,0.0000,0.0000,0.0000,0.0000,0.0000,0.0000,0.0000,0.0000,0.0000,-0.1000,-0.1000,-0.1000,-0.1000,4
0,-1,0,-10.5012,-0.1615,0.0547,0.0310,0.0910,-0.0190,1.1651,23.4375,23.4375,23.4375,23.4375,12.2244,0.0000,-0.2441,-0.1831,-0.1221,-0.1626,-0.1582,-10.5930,0.0130,-0.0023,-0.0015,0.0000,0.0000,0.0000,0.0000,0.0000,0.0000,0.0000,0.0000,0.0000,0.0000,0.0000,0.0000,0.0000,0.0000,1.0000,0.0000,0.0000,0.0000,0.0000,0.0000,0.0000,0.0000,0.0000,0.0000,0.0000,0.0000,0.0000,0.0000,0.0000,0.0000,0.0000,0.0000,0.0000,-0.1000,-0.1000,-0.1000,-0.1000,4
0,-1,0,-10.5012,-0.1615,0.0547,0.0310,0.0910,-0.0190,1.1651,23.4375,23.4375,23.4375,23.4375,12.2249,0.0000,0.0610,0.0000,-0.1221,-0.0072,-0.1870,-10.6813,0.0130,-0.0023,-0.0015,0.0000,0.0000,0.0000,0.0000,0.0000,0.0000,0.0000,0.0000,0.0000,0.0000,0.0000,0.0000,0.0000,0.0000,1.0000,0.0000,0.0000,0.0000,0.0000,0.0000,0.0000,0.0000,0.0000,0.0000,0.0000,0.0000,0.0000,0.0000,0.0000,0.0000,0.0000,0.0000,0.0000,-0.1000,-0.1000,-0.1000,-0.1000,4
0,-1,0,-10.5012,-0.1615,0.0547,0.0310,0.0910,-0.0190,1.1651,23.4375,23.4375,23.4375,23.4375,12.2249,0.0000,0.0000,-0.1221,-0.0610,-0.2080,-0.2589,-10.5668,0.0131,-0.0023,-0.0016,0.0000,0.0000,0.0000,0.0000,0.0000,0.0000,0.0000,0.0000,0.0000,0.0000,0.0000,0.0000,0.0000,0.0000,1.0000,0.0000,0.0000,0.0000,0.0000,0.0000,0.0000,0.0000,0.0000,0.0000,0.0000,0.0000,0.0000,0.0000,0.0000,0.0000,0.0000,0.0000,0.0000,-0.1000,-0.1000,-0.1000,-0.1000,4
0,-1,0,-10.5012,-0.1615,0.0547,0.0310,0.0910,-0.0190,1.1651,23.4375,23.4375,23.4375,23.4375,12.2251,0.0000,-0.0610,-0.1221,-0.0000,-0.1028,-0.1678,-10.5668,0.0131,-0.0023,-0.0016,0.0000,0.0000,0.0000,0.0000,0.0000,0.0000,0.0000,0.0000,0.0000,0.0000,0.0000,0.0000,0.0000,0.0000,1.0000,0.0000,0.0000,0.0000,0.0000,0.0000,0.0000,0.0000,0.0000,0.0000,0.0000,0.0000,0.0000,0.0000,0.0000,0.0000,0.0000,0.0000,0.0000,-0.1000,-0.1000,-0.1000,-0.1000,4
0,-1,0,-10.5012,-0.1615,0.0547,0.0310,0.0910,-0.0190,1.1651,23.4375,23.4375,23.4375,23.4375,12.2254,0.0000,0.0000,0.0610,-0.1221,-0.1411,-0.2014,-10.6217,0.0131,-0.0023,-0.0016,0.0000,0.0000,0.0000,0.0000,0.0000,0.0000,0.0000,0.0000,0.0000,0.0000,0.0000,0.0000,0.0000,0.0000,1.0000,0.0000,0.0000,0.0000,0.0000,0.0000,0.0000,0.0000,0.0000,0.0000,0.0000,0.0000,0.0000,0.0000,0.0000,0.0000,0.0000,0.0000,0.0000,-0.1000,-0.1000,-0.1000,-0.1000,4
0,-1,0,-10.5012,-0.1615,0.0547,0.0310,0.0910,-0.0190,1.1651,23.4375,23.4375,23.4375,23.4375,12.2258,0.0000,0.0610,-0.2441,0.2441,-0.1363,-0.2565,-10.5501,0.0131,-0.0024,-0.0016,0.0000,0.0000,0.0000,0.0000,0.0000,0.0000,0.0000,0.0000,0.0000,0.0000,0.0000,0.0000,0.0000,0.0000,1.0000,0.0000,0.0000,0.0000,0.0000,0.0000,0.0000,0.0000,0.0000,0.0000,0.0000,0.0000,0.0000,0.0000,0.0000,0.0000,0.0000,0.0000,0.0000,-0.1000,-0.1000,-0.1000,-0.1000,4
0,-1,0,-10.5012,-0.1615,0.0547,0.0310,0.0910,-0.0190,1.1651,23.4375,23.4375,23.4375,23.4375,12.2258,0.0000,0.0000,-0.1831,-0.0000,-0.1626,-0.1870,-10.5715,0.0131,-0.0024,-0.0016,0.0000,0.0000,0.0000,0.0000,0.0000,0.0000,0.0000,0.0000,0.0000,0.0000,0.0000,0.0000,0.0000,0.0000,1.0000,0.0000,0.0000,0.0000,0.0000,0.0000,0.0000,0.0000,0.0000,0.0000,0.0000,0.0000,0.0000,0.0000,0.0000,0.0000,0.0000,0.0000,0.0000,-0.1000,-0.1000,-0.1000,-0.1000,4
0,-1,0,-10.5012,-0.1615,0.0547,0.0310,0.0910,-0.0190,1.1651,23.4375,23.4375,23.4375,23.4375,12.2251,0.0000,0.0000,-0.0610,0.1221,-0.0646,-0.2349,-10.6861,0.0131,-0.0024,-0.0016,0.0000,0.0000,0.0000,0.0000,0.0000,0.0000,0.0000,0.0000,0.0000,0.0000,0.0000,0.0000,0.0000,0.0000,1.0000,0.0000,0.0000,0.0000,0.0000,0.0000,0.0000,0.0000,0.0000,0.0000,0.0000,0.0000,0.0000,0.0000,0.0000,0.0000,0.0000,0.0000,0.0000,-0.1000,-0.1000,-0.1000,-0.1000,4
0,-1,0,-10.5012,-0.1615,0.0547,0.0310,0.0910,-0.0190,1.1651,23.4375,23.4375,23.4375,23.4375,12.2246,0.0000,-0.0610,-0.2441,0.1221,-0.2247,-0.2182,-10.5596,0.0132,-0.0024,-0.0016,0.0000,0.0000,0.0000,0.0000,0.0000,0.0000,0.0000,0.0000,0.0000,0.0000,0.0000,0.0000,0.0000,0.0000,1.0000,0.0000,0.0000,0.0000,0.0000,0.0000,0.0000,0.0000,0.0000,0.0000,0.0000,0.0000,0.0000,0.0000,0.0000,0.0000,0.0000,0.0000,0.0000,-0.1000,-0.1000,-0.1000,-0.1000,4
0,-1,0,-10.5012,-0.1615,0.0547,0.0310,0.0910,-0.0190,1.1651,23.4375,23.4375,23.4375,23.4375,12.2249,0.0000,-0.2441,-0.1831,-0.0610,-0.0956,-0.1918,-10.5572,0.0131,-0.0025,-0.0016,0.0000,0.0000,0.0000,0.0000,0.0000,0.0000,0.0000,0.0000,0.0000,0.0000,0.0000,0.0000,0.0000,0.0000,1.0000,0.0000,0.0000,0.0000,0.0000,0.0000,0.0000,0.0000,0.0000,0.0000,0.0000,0.0000,0.0000,0.0000,0.0000,0.0000,0.0000,0.0000,0.0000,-0.1000,-0.1000,-0.1000,-0.1000,4
0,-1,0,-10.5012,-0.1615,0.0547,0.0310,0.0910,-0.0190,1.1651,23.4375,23.4375,23.4375,23.4375,12.2251,0.0000,-0.0610,-0.1831,-0.0610,-0.1004,-0.1966,-10.6264,0.0132,-0.0025,-0.0016,0.0000,0.0000,0.0000,0.0000,0.0000,0.0000,0.0000,0.0000,0.0000,0.0000,0.0000,0.0000,0.0000,0.0000,1.0000,0.0000,0.0000,0.0000,0.0000,0.0000,0.0000,0.0000,0.0000,0.0000,0.0000,0.0000,0.0000,0.0000,0.0000,0.0000,0.0000,0.0000,0.0000,-0.1000,-0.1000,-0.1000,-0.1000,4
0,-1,0,-10.5012,-0.1615,0.0547,0.0310,0.1010,-0.0290,1.1651,23.4375,23.4375,23.4375,23.4375,12.2249,0.0000,0.0000,-0.3052,0.1221,-0.1267,-0.2493,-10.5524,0.0132,-0.0025,-0.0016,0.0000,0.0000,0.0000,0.0000,0.0000,0.0000,0.0000,0.0000,0.0000,0.0000,0.0000,0.0000,0.0000,0.0000,1.0000,0.0000,0.0000,0.0000,0.0000,0.0000,0.0000,0.0000,0.0000,0.0000,0.0000,0.0000,0.0000,0.0000,0.0000,0.0000,0.0000,0.0000,0.0000,-0.1000,-0.1000,-0.1000,-0.1000,4
0,-1,0,-10.5012,-0.1615,0.0547,0.0310,0.1010,-0.0290,1.1651,23.4375,23.4375,23.4375,23.4375,12.2249,0.0000,0.0610,0.0000,-0.1221,-0.1961,-0.1654,-10.6288,0.0132,-0.0025,-0.0016,0.0000,0.0000,0.0000,0.0000,0.0000,0.0000,0.0000,0.0000,0.0000,0.0000,0.0000,0.0000,0.0000,0.0000,1.0000,0.0000,0.0000,0.0000,0.0000,0.0000,0.0000,0.0000,0.0000,0.0000,0.0000,0.0000,0.0000,0.0000,0.0000,0.0000,0.0000,0.0000,0.0000,-0.1000,-0.1000,-0.1000,-0.1000,4
0,-1,0,-10.5012,-0.1615,0.0547,0.0310,0.1010,-0.0290,1.1651,23.4375,23.4375,23.4375,23.4375,12.2249,0.0000,-0.2441,-0.1831,-0.0000,-0.1076,-0.2206,-10.5477,0.0132,-0.0025,-0.0016,0.0000,0.0000,0.0000,0.0000,0.0000,0.0000,0.0000,0.0000,0.0000,0.0000,0.0000,0.0000,0.0000,0.0000,1.0000,0.0000,0.0000,0.0000,0.0000,0.0000,0.0000,0.0000,0.0000,0.0000,0.0000,0.0000,0.0000,0.0000,0.0000,0.0000,0.0000,0.0000,0.0000,-0.1000,-0.1000,-0.1000,-0.1000,4
0,-1,0,-10.5012,-0.1615,0.0547,0.0310,0.1010,-0.0290,1.1651,23.4375,23.4375,23.4375,23.4375,12.2251,0.0000,-0.0610,-0.3052,-0.0000,-0.1817,-0.1894,-10.6288,0.0132,-0.0026,-0.0016,0.0000,0.0000,0.0000,0.0000,0.0000,0.0000,0.0000,0.0000,0.0000,0.0000,0.0000,0.0000,0.0000,0.0000,1.0000,0.0000,0.0000,0.0000,0.0000,0.0000,0.0000,0.0000,0.0000,0.0000,0.0000,0.0000,0.0000,0.0000,0.0000,0.0000,0.0000,0.0000,0.0000,-0.1000,-0.1000,-0.1000,-0.1000,4
0,-1,0,-10.5012,-0.1615,0.0547,0.0310,0.1010,-0.0290,1.1651,23.4375,23.4375,23.4375,23.4375,12.2251,0.0000,0.1221,0.0000,-0.0000,-0.0646,-0.1390,-10.5524,0.0132,-0.0026,-0.0016,0.0000,0.0000,0.0000,0.0000,0.0000,0.0000,0.0000,0.0000,0.0000,0.0000,0.0000,0.0000,0.0000,0.0000,1.0000,0.0000,0.0000,0.0000,0.0000,0.0000,0.0000,0.0000,0.0000,0.0000,0.0000,0.0000,0.0000,0.0000,0.0000,0.0000,0.0000,0.0000,0.0000,-0.1000,-0.1000,-0.1000,-0.1000,4
0,-1,0,-10.5012,-0.1615,0.0547,0.0310,0.1010,-0.0290,1.1651,23.4375,23.4375,23.4375,23.4375,12.2256,0.0000,0.0610,-0.1221,0.1221,-0.1458,-0.2086,-10.5668,0.0132,-0.0026,-0.0016,0.0000,0.0000,0.0000,0.0000,0.0000,0.0000,0.0000,0.0000,0.0000,0.0000,0.0000,0.0000,0.0000,0.0000,1.0000,0.0000,0.0000,0.0000,0.0000,0.0000,0.0000,0.0000,0.0000,0.0000,0.0000,0.0000,0.0000,0.0000,0.0000,0.0000,0.0000,0.0000,0.0000,-0.1000,-0.1000,-0.1000,-0.1000,4
0,-1,0,-10.5012,-0.1615,0.0547,0.0310,0.1010,-0.0290,1.1651,23.4375,23.4375,23.4375,23.4375,12.2256,0.0000,0.0000,-0.1831,-0.0000,-0.1650,-0.1726,-10.5572,0.0132,-0.0026,-0.0016,0.0000,0.0000,0.0000,0.0000,0.0000,0.0000,0.0000,0.0000,0.0000,0.0000,0.0000,0.0000,0.0000,0.0000,1.0000,0.0000,0.0000,0.0000,0.0000,0.0000,0.0000,0.0000,0.0000,0.0000,0.0000,0.0000,0.0000,0.0000,0.0000,0.0000,0.0000,0.0000,0.0000,-0.1000,-0.1000,-0.1000,-0.1000,4
0,-1,0,-10.5012,-0.1615,0.0547,0.0310,0.1010,-0.0290,1.1651,23.4375,23.4375,23.4375,23.4375,12.2256,0.0000,0.0610,0.0000,-0.0000,-0.1172,-0.1606,-10.6288,0.0133,-0.0026,-0.0016,0.0000,0.0000,0.0000,0.0000,0.0000,0.0000,0.0000,0.0000,0.0000,0.0000,0.0000,0.0000,0.0000,0.0000,1.0000,0.0000,0.0000,0.0000,0.0000,0.0000,0.0000,0.0000,0.0000,0.0000,0.0000,0.0000,0.0000,0.0000,0.0000,0.0000,0.0000,0.0000,0.0000,-0.1000,-0.1000,-0.1000,-0.1000,4
0,-1,0,-10.5012,-0.1615,0.0547,0.0310,0.1010,-0.0290,1.1651,23.4375,23.4375,23.4375,23.4375,12.2249,0.0000,0.0000,-0.3052,0.1221,-0.1267,-0.2493,-10.5596,0.0133,-0.0027,-0.0016,0.0000,0.0000,0.0000,0.0000,0.0000,0.0000,0.0000,0.0000,0.0000,0.0000,0.0000,0.0000,0.0000,0.0000,1.0000,0.0000,0.0000,0.0000,0.0000,0.0000,0.0000,0.0000,0.0000,0.0000,0.0000,0.0000,0.0000,0.0000,0.0000,0.0000,0.0000,0.0000,0.0000,-0.1000,-0.1000,-0.1000,-0.1000,4
0,-1,0,-10.4760,-0.1759,0.0537,0.0310,0.1010,-0.0290,1.1651,23.4375,23.4375,23.4375,23.4375,12.2249,0.0000,0.1221,-0.1221,-0.1831,-0.1650,-0.1870,-10.5763,0.0133,-0.0027,-0.0016,0.0000,0.0000,0.0000,0.0000,0.0000,0.0000,0.0000,0.0000,0.0000,0.0000,0.0000,0.0000,0.0000,0.0000,1.0000,0.0000,0.0000,0.0000,0.0000,0.0000,0.0000,0.0000,0.0000,0.0000,0.0000,0.0000,0.0000,0.0000,0.0000,0.0000,0.0000,0.0000,0.0000,-0.1000,-0.1000,-0.1000,-0.1000,4
0,-1,0,-10.4760,-0.1759,0.0537,0.0310,0.1010,-0.0290,1.1651,23.4375,23.4375,23.4375,23.4375,12.2234,0.0000,-0.0610,-0.2441,-0.0000,-0.1506,-0.2158,-10.5835,0.0133,-0.0028,-0.0016,0.0000,0.0000,0.0000,0.0000,0.0000,0.0000,0.0000,0.0000,0.0000,0.0000,0.0000,0.0000,0.0000,0.0000,1.0000,0.0000,0.0000,0.0000,0.0000,0.0000,0.0000,0.0000,0.0000,0.0000,0.0000,0.0000,0.0000,0.0000,0.0000,0.0000,0.0000,0.0000,0.0000,-0.1000,-0.1000,-0.1000,-0.1000,4
0,-1,0,-10.4760,-0.1759,0.0537,0.0310,0.1010,-0.0290,1.1651,23.4375,23.4375,23.4375,23.4375,12.2237,0.0000,-0.0610,-0.3052,-0.0000,-0.0861,-0.2182,-10.5906,0.0133,-0.0028,-0.0016,0.0000,0.0000,0.0000,0.0000,0.0000,0.0000,0.0000,0.0000,0.0000,0.0000,0.0000,0.0000,0.0000,0.0000,1.0000,0.0000,0.0000,0.0000,0.0000,0.0000,0.0000,0.0000,0.0000,0.0000,0.0000,0.0000,0.0000,0.0000,0.0000,0.0000,0.0000,0.0000,0.0000,-0.1000,-0.1000,-0.1000,-0.1000,4
0,-1,0,-10.4760,-0.1759,0.0537,0.0310,0.1010,-0.0290,1.1651,23.4375,23.4375,23.4375,23.4375,12.2234,0.0000,0.0610,-0.1831,-0.0000,-0.1674,-0.2038,-10.5668,0.0134,-0.0028,-0.0016,0.0000,0.0000,0.0000,0.0000,0.0000,0.0000,0.0000,0.0000,0.0000,0.0000,0.0000,0.0000,0.0000,0.0000,1.0000,0.0000,0.0000,0.0000,0.0000,0.0000,0.0000,0.0000,0.0000,0.0000,0.0000,0.0000,0.0000,0.0000,0.0000,0.0000,0.0000,0.0000,0.0000,-0.1000,-0.1000,-0.1000,-0.1000,4
0,-1,0,-10.4760,-0.1759,0.0537,0.0310,0.1010,-0.0290,1.1651,23.4375,23.4375,23.4375,23.4375,12.2232,0.0000,-0.0610,-0.1221,-0.1221,-0.1148,-0.2206,-10.6408,0.0134,-0.0030,-0.0016,0.0000,0.0000,0.0000,0.0000,0.0000,0.0000,0.0000,0.0000,0.0000,0.0000,0.0000,0.0000,0.0000,0.0000,1.0000,0.0000,0.0000,0.0000,0.0000,0.0000,0.0000,0.0000,0.0000,0.0000,0.0000,0.0000,0.0000,0.0000,0.0000,0.0000,0.0000,0.0000,0.0000,-0.1000,-0.1000,-0.1000,-0.1000,4
0,-1,0,-10.4760,-0.1759,0.0537,0.0310,0.1010,-0.0290,1.1651,23.4375,23.4375,23.4375,23.4375,12.2229,0.0000,0.0000,-0.0610,-0.0610,-0.1100,-0.2230,-10.6002,0.0135,-0.0030,-0.0016,0.0000,0.0000,0.0000,0.0000,0.0000,0.0000,0.0000,0.0000,0.0000,0.0000,0.0000,0.0000,0.0000,0.0000,1.0000,0.0000,0.0000,0.0000,0.0000,0.0000,0.0000,0.0000,0.0000,0.0000,0.0000,0.0000,0.0000,0.0000,0.0000,0.0000,0.0000,0.0000,0.0000,-0.1000,-0.1000,-0.1000,-0.1000,4
0,-1,0,-10.4760,-0.1759,0.0537,0.0310,0.1010,-0.0290,1.1651,23.4375,23.4375,23.4375,23.4375,12.2232,0.0000,0.0610,-0.0610,-0.1221,-0.1626,-0.2301,-10.6431,0.0135,-0.0030,-0.0017,0.0000,0.0000,0.0000,0.0000,0.0000,0.0000,0.0000,0.0000,0.0000,0.0000,0.0000,0.0000,0.0000,0.0000,1.0000,0.0000,0.0000,0.0000,0.0000,0.0000,0.0000,0.0000,0.0000,0.0000,0.0000,0.0000,0.0000,0.0000,0.0000,0.0000,0.0000,0.0000,0.0000,-0.1000,-0.1000,-0.1000,-0.1000,4
0,-1,0,-10.4760,-0.1759,0.0537,0.0310,0.1010,-0.0290,1.1651,23.4375,23.4375,23.4375,23.4375,12.2234,0.0000,0.0000,-0.0610,-0.0000,-0.1411,-0.2373,-10.6646,0.0135,-0.0030,-0.0017,0.0000,0.0000,0.0000,0.0000,0.0000,0.0000,0.0000,0.0000,0.0000,0.0000,0.0000,0.0000,0.0000,0.0000,1.0000,0.0000,0.0000,0.0000,0.0000,0.0000,0.0000,0.0000,0.0000,0.0000,0.0000,0.0000,0.0000,0.0000,0.0000,0.0000,0.0000,0.0000,0.0000,-0.1000,-0.1000,-0.1000,-0.1000,4
0,-1,0,-10.4760,-0.1759,0.0537,0.0310,0.1010,-0.0290,1.1651,23.4375,23.4375,23.4375,23.4375,12.2246,0.0000,0.0000,-0.0610,-0.1221,-0.1554,-0.2038,-10.6217,0.0135,-0.0030,-0.0017,0.0000,0.0000,0.0000,0.0000,0.0000,0.0000,0.0000,0.0000,0.0000,0.0000,0.0000,0.0000,0.0000,0.0000,1.0000,0.0000,0.0000,0.0000,0.0000,0.0000,0.0000,0.0000,0.0000,0.0000,0.0000,0.0000,0.0000,0.0000,0.0000,0.0000,0.0000,0.0000,0.0000,-0.1000,-0.1000,-0.1000,-0.1000,4
0,-1,0,-10.4760,-0.1759,0.0537,0.0310,0.1010,-0.0290,1.1651,23.4375,23.4375,23.4375,23.4375,12.2244,0.0000,0.0000,0.0000,-0.0610,-0.1554,-0.1942,-10.5906,0.0135,-0.0030,-0.0017,0.0000,0.0000,0.0000,0.0000,0.0000,0.0000,0.0000,0.0000,0.0000,0.0000,0.0000,0.0000,0.0000,0.0000,1.0000,0.0000,0.0000,0.0000,0.0000,0.0000,0.0000,0.0000,0.0000,0.0000,0.0000,0.0000,0.0000,0.0000,0.0000,0.0000,0.0000,0.0000,0.0000,-0.1000,-0.1000,-0.1000,-0.1000,4
0,-1,0,-10.4760,-0.1759,0.0537,0.0310,0.1010,-0.0290,1.1651,23.4375,23.4375,23.4375,23.4375,12.2239,0.0000,0.0610,0.1221,-0.0000,-0.1052,-0.1990,-10.5620,0.0136,-0.0030,-0.0017,0.0000,0.0000,0.0000,0.0000,0.0000,0.0000,0.0000,0.0000,0.0000,0.0000,0.0000,0.0000,0.0000,0.0000,1.0000,0.0000,0.0000,0.0000,0.0000,0.0000,0.0000,0.0000,0.0000,0.0000,0.0000,0.0000,0.0000,0.0000,0.0000,0.0000,0.0000,0.0000,0.0000,-0.1000,-0.1000,-0.1000,-0.1000,4
0,-1,0,-10.4760,-0.1759,0.0537,0.0310,0.1010,-0.0290,1.1651,23.4375,23.4375,23.4375,23.4375,12.2242,0.0000,0.0000,-0.0610,0.2441,-0.0956,-0.1750,-10.6861,0.0136,-0.0030,-0.0017,0.0000,0.0000,0.0000,0.0000,0.0000,0.0000,0.0000,0.0000,0.0000,0.0000,0.0000,0.0000,0.0000,0.0000,1.0000,0.0000,0.0000,0.0000,0.0000,0.0000,0.0000,0.0000,0.0000,0.0000,0.0000,0.0000,0.0000,0.0000,0.0000,0.0000,0.0000,0.0000,0.0000,-0.1000,-0.1000,-0.1000,-0.1000,4
0,-1,0,-10.4760,-0.1759,0.0537,0.0710,0.0710,-0.0190,1.1651,23.4375,23.4375,23.4375,23.4375,12.2234,0.0000,-0.0610,-0.1831,-0.0000,-0.1506,-0.1966,-10.5930,0.0136,-0.0031,-0.0017,0.0000,0.0000,0.0000,0.0000,0.0000,0.0000,0.0000,0.0000,0.0000,0.0000,0.0000,0.0000,0.0000,0.0000,1.0000,0.0000,0.0000,0.0000,0.0000,0.0000,0.0000,0.0000,0.0000,0.0000,0.0000,0.0000,0.0000,0.0000,0.0000,0.0000,0.0000,0.0000,0.0000,-0.1000,-0.1000,-0.1000,-0.1000,4
0,-1,0,-10.4760,-0.1759,0.0537,0.0710,0.0710,-0.0190,1.1651,23.4375,23.4375,23.4375,23.4375,12.2234,0.0000,0.0000,-0.0610,0.1221,-0.0932,-0.2014,-10.5978,0.0136,-0.0031,-0.0017,0.0000,0.0000,0.0000,0.0000,0.0000,0.0000,0.0000,0.0000,0.0000,0.0000,0.0000,0.0000,0.0000,0.0000,1.0000,0.0000,0.0000,0.0000,0.0000,0.0000,0.0000,0.0000,0.0000,0.0000,0.0000,0.0000,0.0000,0.0000,0.0000,0.0000,0.0000,0.0000,0.0000,-0.1000,-0.1000,-0.1000,-0.1000,4
0,-1,0,-10.5041,-0.1199,0.1191,0.0710,0.0710,-0.0190,1.1651,23.4375,23.4375,23.4375,23.4375,12.2234,0.0000,0.0610,-0.0610,-0.0610,-0.1674,-0.1822,-10.5882,0.0136,-0.0031,-0.0017,0.0000,0.0000,0.0000,0.0000,0.0000,0.0000,0.0000,0.0000,0.0000,0.0000,0.0000,0.0000,0.0000,0.0000,1.0000,0.0000,0.0000,0.0000,0.0000,0.0000,0.0000,0.0000,0.0000,0.0000,0.0000,0.0000,0.0000,0.0000,0.0000,0.0000,0.0000,0.0000,0.0000,-0.1000,-0.1000,-0.1000,-0.1000,4
0,-1,0,-10.5041,-0.1199,0.1191,0.0710,0.0710,-0.0190,1.1651,23.4375,23.4375,23.4375,23.4375,12.2229,0.0000,0.0000,0.0000,-0.0000,-0.0932,-0.1822,-10.5739,0.0136,-0.0031,-0.0017,0.0000,0.0000,0.0000,0.0000,0.0000,0.0000,0.0000,0.0000,0.0000,0.0000,0.0000,0.0000,0.0000,0.0000,1.0000,0.0000,0.0000,0.0000,0.0000,0.0000,0.0000,0.0000,0.0000,0.0000,0.0000,0.0000,0.0000,0.0000,0.0000,0.0000,0.0000,0.0000,0.0000,-0.1000,-0.1000,-0.1000,-0.1000,4
0,-1,0,-10.5041,-0.1199,0.1191,0.0710,0.0710,-0.0190,1.1651,23.4375,23.4375,23.4375,23.4375,12.2229,0.0000,-0.0610,-0.1831,-0.0000,-0.1172,-0.2086,-10.5930,0.0137,-0.0032,-0.0017,0.0000,0.0000,0.0000,0.0000,0.0000,0.0000,0.0000,0.0000,0.0000,0.0000,0.0000,0.0000,0.0000,0.0000,1.0000,0.0000,0.0000,0.0000,0.0000,0.0000,0.0000,0.0000,0.0000,0.0000,0.0000,0.0000,0.0000,0.0000,0.0000,0.0000,0.0000,0.0000,0.0000,-0.1000,-0.1000,-0.1000,-0.1000,4
0,-1,0,-10.5041,-0.1199,0.1191,0.0710,0.0710,-0.0190,1.1651,23.4375,23.4375,23.4375,23.4375,12.2227,0.0000,-0.0610,-0.1221,0.1831,-0.1363,-0.1846,-10.5906,0.0138,-0.0034,-0.0017,0.0000,0.0000,0.0000,0.0000,0.0000,0.0000,0.0000,0.0000,0.0000,0.0000,0.0000,0.0000,0.0000,0.0000,1.0000,0.0000,0.0000,0.0000,0.0000,0.0000,0.0000,0.0000,0.0000,0.0000,0.0000,0.0000,0.0000,0.0000,0.0000,0.0000,0.0000,0.0000,0.0000,-0.1000,-0.1000,-0.1000,-0.1000,4
0,-1,0,-10.5041,-0.1199,0.1191,0.0710,0.0710,-0.0190,1.1651,23.4375,23.4375,23.4375,23.4375,12.2227,0.0000,0.0000,0.0000,-0.0000,-0.1482,-0.1774,-10.6622,0.0138,-0.0034,-0.0017,0.0000,0.0000,0.0000,0.0000,0.0000,0.0000,0.0000,0.0000,0.0000,0.0000,0.0000,0.0000,0.0000,0.0000,1.0000,0.0000,0.0000,0.0000,0.0000,0.0000,0.0000,0.0000,0.0000,0.0000,0.0000,0.0000,0.0000,0.0000,0.0000,0.0000,0.0000,0.0000,0.0000,-0.1000,-0.1000,-0.1000,-0.1000,4
0,-1,0,-10.5041,-0.1199,0.1191,0.0710,0.0710,-0.0190,1.1651,23.4375,23.4375,23.4375,23.4375,12.2232,0.0000,-0.0610,-0.1221,-0.0000,-0.1267,-0.2086,-10.5978,0.0138,-0.0034,-0.0017,0.0000,0.0000,0.0000,0.0000,0.0000,0.0000,0.0000,0.0000,0.0000,0.0000,0.0000,0.0000,0.0000,0.0000,1.0000,0.0000,0.0000,0.0000,0.0000,0.0000,0.0000,0.0000,0.0000,0.0000,0.0000,0.0000,0.0000,0.0000,0.0000,0.0000,0.0000,0.0000,0.0000,-0.1000,-0.1000,-0.1000,-0.1000,4
0,-1,0,-10.5041,-0.1199,0.1191,0.0710,0.0710,-0.0190,1.1651,23.4375,23.4375,23.4375,23.4375,12.2229,0.0000,0.0000,0.0000,-0.0000,-0.1387,-0.1918,-10.6002,0.0138,-0.0034,-0.0017,0.0000,0.0000,0.0000,0.0000,0.0000,0.0000,0.0000,0.0000,0.0000,0.0000,0.0000,0.0000,0.0000,0.0000,1.0000,0.0000,0.0000,0.0000,0.0000,0.0000,0.0000,0.0000,0.0000,0.0000,0.0000,0.0000,0.0000,0.0000,0.0000,0.0000,0.0000,0.0000,0.0000,-0.1000,-0.1000,-0.1000,-0.1000,4
0,-1,0,-10.5041,-0.1199,0.1191,0.0710,0.0710,-0.0190,1.1651,23.4375,23.4375,23.4375,23.4375,12.2237,0.0000,0.0000,-0.0610,-0.1831,-0.1387,-0.2158,-10.6026,0.0138,-0.0034,-0.0017,0.0000,0.0000,0.0000,0.0000,0.0000,0.0000,0.0000,0.0000,0.0000,0.0000,0.0000,0.0000,0.0000,0.0000,1.0000,0.0000,0.0000,0.0000,0.0000,0.0000,0.0000,0.0000,0.0000,0.0000,0.0000,0.0000,0.0000,0.0000,0.0000,0.0000,0.0000,0.0000,0.0000,-0.1000,-0.1000,-0.1000,-0.1000,4
0,-1,0,-10.5041,-0.1199,0.1191,0.0710,0.0710,-0.0190,1.1651,23.4375,23.4375,23.4375,23.4375,12.2237,0.0000,0.0000,-0.1221,-0.0610,-0.1458,-0.2134,-10.5978,0.0138,-0.0034,-0.0017,0.0000,0.0000,0.0000,0.0000,0.0000,0.0000,0.0000,0.0000,0.0000,0.0000,0.0000,0.0000,0.0000,0.0000,1.0000,0.0000,0.0000,0.0000,0.0000,0.0000,0.0000,0.0000,0.0000,0.0000,0.0000,0.0000,0.0000,0.0000,0.0000,0.0000,0.0000,0.0000,0.0000,-0.1000,-0.1000,-0.1000,-0.1000,4
0,-1,0,-10.5041,-0.1199,0.1191,0.0710,0.0710,-0.0190,1.1651,23.4375,23.4375,23.4375,23.4375,12.2237,0.0000,-0.0610,-0.1831,-0.0000,-0.1721,-0.1678,-10.5882,0.0138,-0.0035,-0.0017,0.0000,0.0000,0.0000,0.0000,0.0000,0.0000,0.0000,0.0000,0.0000,0.0000,0.0000,0.0000,0.0000,0.0000,1.0000,0.0000,0.0000,0.0000,0.0000,0.0000,0.0000,0.0000,0.0000,0.0000,0.0000,0.0000,0.0000,0.0000,0.0000,0.0000,0.0000,0.0000,0.0000,-0.1000,-0.1000,-0.1000,-0.1000,4
0,-1,0,-10.5041,-0.1199,0.1191,0.0710,0.0710,-0.0190,1.1651,23.4375,23.4375,23.4375,23.4375,12.2237,0.0000,-0.0610,-0.1221,-0.0000,-0.1387,-0.2110,-10.5501,0.0138,-0.0035,-0.0017,0.0000,0.0000,0.0000,0.0000,0.0000,0.0000,0.0000,0.0000,0.0000,0.0000,0.0000,0.0000,0.0000,0.0000,1.0000,0.0000,0.0000,0.0000,0.0000,0.0000,0.0000,0.0000,0.0000,0.0000,0.0000,0.0000,0.0000,0.0000,0.0000,0.0000,0.0000,0.0000,0.0000,-0.1000,-0.1000,-0.1000,-0.1000,4
0,-1,0,-10.5041,-0.1199,0.1191,0.0710,0.0710,-0.0190,1.1651,23.4375,23.4375,23.4375,23.4375,12.2234,0.0000,0.0000,-0.1221,0.1221,-0.1291,-0.1990,-10.5787,0.0139,-0.0035,-0.0017,0.0000,0.0000,0.0000,0.0000,0.0000,0.0000,0.0000,0.0000,0.0000,0.0000,0.0000,0.0000,0.0000,0.0000,1.0000,0.0000,0.0000,0.0000,0.0000,0.0000,0.0000,0.0000,0.0000,0.0000,0.0000,0.0000,0.0000,0.0000,0.0000,0.0000,0.0000,0.0000,0.0000,-0.1000,-0.1000,-0.1000,-0.1000,4
0,-1,0,-10.5041,-0.1199,0.1191,0.0710,0.0710,-0.0190,1.1651,23.4375,23.4375,23.4375,23.4375,12.2237,0.0000,-0.0610,-0.2441,-0.0000,-0.0669,-0.2062,-10.6288,0.0139,-0.0035,-0.0017,0.0000,0.0000,0.0000,0.0000,0.0000,0.0000,0.0000,0.0000,0.0000,0.0000,0.0000,0.0000,0.0000,0.0000,1.0000,0.0000,0.0000,0.0000,0.0000,0.0000,0.0000,0.0000,0.0000,0.0000,0.0000,0.0000,0.0000,0.0000,0.0000,0.0000,0.0000,0.0000,0.0000,-0.1000,-0.1000,-0.1000,-0.1000,4
0,-1,0,-10.5041,-0.1199,0.1191,0.0710,0.0710,-0.0190,1.1651,23.4375,23.4375,23.4375,23.4375,12.2237,0.0000,-0.0610,-0.1831,-0.0000,-0.1602,-0.1702,-10.6002,0.0139,-0.0035,-0.0017,0.0000,0.0000,0.0000,0.0000,0.0000,0.0000,0.0000,0.0000,0.0000,0.0000,0.0000,0.0000,0.0000,0.0000,1.0000,0.0000,0.0000,0.0000,0.0000,0.0000,0.0000,0.0000,0.0000,0.0000,0.0000,0.0000,0.0000,0.0000,0.0000,0.0000,0.0000,0.0000,0.0000,-0.1000,-0.1000,-0.1000,-0.1000,4
0,-1,0,-10.5041,-0.1199,0.1191,0.0710,0.0710,-0.0190,1.1651,23.4375,23.4375,23.4375,23.4375,12.2239,0.0000,-0.1831,-0.1831,0.1221,-0.1530,-0.1774,-10.5811,0.0139,-0.0036,-0.0017,0.0000,0.0000,0.0000,0.0000,0.0000,0.0000,0.0000,0.0000,0.0000,0.0000,0.0000,0.0000,0.0000,0.0000,1.0000,0.0000,0.0000,0.0000,0.0000,0.0000,0.0000,0.0000,0.0000,0.0000,0.0000,0.0000,0.0000,0.0000,0.0000,0.0000,0.0000,0.0000,0.0000,-0.1000,-0.1000,-0.1000,-0.1000,4
0,-1,0,-10.5041,-0.1199,0.1191,0.0710,0.0710,-0.0190,1.1651,23.4375,23.4375,23.4375,23.4375,12.2242,0.0000,-0.0610,-0.1831,0.1221,-0.1602,-0.2541,-10.5644,0.0139,-0.0036,-0.0017,0.0000,0.0000,0.0000,0.0000,0.0000,0.0000,0.0000,0.0000,0.0000,0.0000,0.0000,0.0000,0.0000,0.0000,1.0000,0.0000,0.0000,0.0000,0.0000,0.0000,0.0000,0.0000,0.0000,0.0000,0.0000,0.0000,0.0000,0.0000,0.0000,0.0000,0.0000,0.0000,0.0000,-0.1000,-0.1000,-0.1000,-0.1000,4
0,-1,0,-10.5041,-0.1199,0.1191,0.0710,0.0710,-0.0190,1.1651,23.4375,23.4375,23.4375,23.4375,12.2239,0.0000,-0.0610,-0.1831,0.1221,-0.1650,-0.1942,-10.5262,0.0139,-0.0036,-0.0017,0.0000,0.0000,0.0000,0.0000,0.0000,0.0000,0.0000,0.0000,0.0000,0.0000,0.0000,0.0000,0.0000,0.0000,1.0000,0.0000,0.0000,0.0000,0.0000,0.0000,0.0000,0.0000,0.0000,0.0000,0.0000,0.0000,0.0000,0.0000,0.0000,0.0000,0.0000,0.0000,0.0000,-0.1000,-0.1000,-0.1000,-0.1000,4
0,-1,0,-10.5041,-0.1199,0.1191,0.0710,0.0710,-0.0190,1.1651,23.4375,23.4375,23.4375,23.4375,12.2237,0.0000,0.0000,-0.0610,0.1831,-0.1267,-0.2110,-10.5930,0.0139,-0.0036,-0.0017,0.0000,0.0000,0.0000,0.0000,0.0000,0.0000,0.0000,0.0000,0.0000,0.0000,0.0000,0.0000,0.0000,0.0000,1.0000,0.0000,0.0000,0.0000,0.0000,0.0000,0.0000,0.0000,0.0000,0.0000,0.0000,0.0000,0.0000,0.0000,0.0000,0.0000,0.0000,0.0000,0.0000,-0.1000,-0.1000,-0.1000,-0.1000,4
0,-1,0,-10.5048,-0.1350,0.1010,0.0610,0.0810,-0.0190,1.1651,23.4375,23.4375,23.4375,23.4375,12.2234,0.0000,0.1221,-0.1831,-0.0000,-0.1506,-0.1942,-10.6073,0.0139,-0.0037,-0.0017,0.0000,0.0000,0.0000,0.0000,0.0000,0.0000,0.0000,0.0000,0.0000,0.0000,0.0000,0.0000,0.0000,0.0000,1.0000,0.0000,0.0000,0.0000,0.0000,0.0000,0.0000,0.0000,0.0000,0.0000,0.0000,0.0000,0.0000,0.0000,0.0000,0.0000,0.0000,0.0000,0.0000,-0.1000,-0.1000,-0.1000,-0.1000,4
0,-1,0,-10.5048,-0.1350,0.1010,0.0610,0.0810,-0.0190,1.1651,23.4375,23.4375,23.4375,23.4375,12.2234,0.0000,-0.0610,-0.1831,-0.0000,-0.1339,-0.1702,-10.6145,0.0140,-0.0038,-0.0017,0.0000,0.0000,0.0000,0.0000,0.0000,0.0000,0.0000,0.0000,0.0000,0.0000,0.0000,0.0000,0.0000,0.0000,1.0000,0.0000,0.0000,0.0000,0.0000,0.0000,0.0000,0.0000,0.0000,0.0000,0.0000,0.0000,0.0000,0.0000,0.0000,0.0000,0.0000,0.0000,0.0000,-0.1000,-0.1000,-0.1000,-0.1000,4
0,-1,0,-10.5048,-0.1350,0.1010,0.0610,0.0810,-0.0190,1.1651,23.4375,23.4375,23.4375,23.4375,12.2232,0.0000,0.0000,0.0000,-0.0610,-0.1219,-0.1798,-10.5835,0.0140,-0.0038,-0.0017,0.0000,0.0000,0.0000,0.0000,0.0000,0.0000,0.0000,0.0000,0.0000,0.0000,0.0000,0.0000,0.0000,0.0000,1.0000,0.0000,0.0000,0.0000,0.0000,0.0000,0.0000,0.0000,0.0000,0.0000,0.0000,0.0000,0.0000,0.0000,0.0000,0.0000,0.0000,0.0000,0.0000,-0.1000,-0.1000,-0.1000,-0.1000,4
0,-1,0,-10.5048,-0.1350,0.1010,0.0610,0.0810,-0.0190,1.1651,23.4375,23.4375,23.4375,23.4375,12.2234,0.0000,0.0610,-0.0610,-0.0000,-0.1243,-0.2182,-10.6766,0.0140,-0.0038,-0.0017,0.0000,0.0000,0.0000,0.0000,0.0000,0.0000,0.0000,0.0000,0.0000,0.0000,0.0000,0.0000,0.0000,0.0000,1.0000,0.0000,0.0000,0.0000,0.0000,0.0000,0.0000,0.0000,0.0000,0.0000,0.0000,0.0000,0.0000,0.0000,0.0000,0.0000,0.0000,0.0000,0.0000,-0.1000,-0.1000,-0.1000,-0.1000,4
0,-1,0,-10.5048,-0.1350,0.1010,0.0610,0.0810,-0.0190,1.1651,23.4375,23.4375,23.4375,23.4375,12.2227,0.0000,0.0610,-0.0610,-0.0000,-0.1530,-0.2182,-10.5572,0.0141,-0.0038,-0.0017,0.0000,0.0000,0.0000,0.0000,0.0000,0.0000,0.0000,0.0000,0.0000,0.0000,0.0000,0.0000,0.0000,0.0000,1.0000,0.0000,0.0000,0.0000,0.0000,0.0000,0.0000,0.0000,0.0000,0.0000,0.0000,0.0000,0.0000,0.0000,0.0000,0.0000,0.0000,0.0000,0.0000,-0.1000,-0.1000,-0.1000,-0.1000,4
0,-1,0,-10.5048,-0.1350,0.1010,0.0610,0.0810,-0.0190,1.1651,23.4375,23.4375,23.4375,23.4375,12.2229,0.0000,-0.0610,-0.1831,-0.0000,-0.1100,-0.1846,-10.5739,0.0141,-0.0038,-0.0018,0.0000,0.0000,0.0000,0.0000,0.0000,0.0000,0.0000,0.0000,0.0000,0.0000,0.0000,0.0000,0.0000,0.0000,1.0000,0.0000,0.0000,0.0000,0.0000,0.0000,0.0000,0.0000,0.0000,0.0000,0.0000,0.0000,0.0000,0.0000,0.0000,0.0000,0.0000,0.0000,0.0000,-0.1000,-0.1000,-0.1000,-0.1000,4
0,-1,0,-10.5048,-0.1350,0.1010,0.0610,0.0810,-0.0190,1.1651,23.4375,23.4375,23.4375,23.4375,12.2229,0.0000,-0.0610,-0.1831,-0.0610,-0.1411,-0.1462,-10.5954,0.0141,-0.0038,-0.0018,0.0000,0.0000,0.0000,0.0000,0.0000,0.0000,0.0000,0.0000,0.0000,0.0000,0.0000,0.0000,0.0000,0.0000,1.0000,0.0000,0.0000,0.0000,0.0000,0.0000,0.0000,0.0000,0.0000,0.0000,0.0000,0.0000,0.0000,0.0000,0.0000,0.0000,0.0000,0.0000,0.0000,-0.1000,-0.1000,-0.1000,-0.1000,4
0,-1,0,-10.5048,-0.1350,0.1010,0.0610,0.0810,-0.0190,1.1651,23.4375,23.4375,23.4375,23.4375,12.2232,0.0000,0.0610,0.0000,0.1221,-0.2080,-0.2325,-10.6121,0.0141,-0.0038,-0.0018,0.0000,0.0000,0.0000,0.0000,0.0000,0.0000,0.0000,0.0000,0.0000,0.0000,0.0000,0.0000,0.0000,0.0000,1.0000,0.0000,0.0000,0.0000,0.0000,0.0000,0.0000,0.0000,0.0000,0.0000,0.0000,0.0000,0.0000,0.0000,0.0000,0.0000,0.0000,0.0000,0.0000,-0.1000,-0.1000,-0.1000,-0.1000,4
0,-1,0,-10.5048,-0.1350,0.1010,0.0610,0.0810,-0.0190,1.1651,23.4375,23.4375,23.4375,23.4375,12.2237,0.0000,0.0000,-0.1831,-0.0000,-0.1482,-0.2038,-10.5548,0.0141,-0.0039,-0.0018,0.0000,0.0000,0.0000,0.0000,0.0000,0.0000,0.0000,0.0000,0.0000,0.0000,0.0000,0.0000,0.0000,0.0000,1.0000,0.0000,0.0000,0.0000,0.0000,0.0000,0.0000,0.0000,0.0000,0.0000,0.0000,0.0000,0.0000,0.0000,0.0000,0.0000,0.0000,0.0000,0.0000,-0.1000,-0.1000,-0.1000,-0.1000,4
0,-1,0,-10.5048,-0.1350,0.1010,0.0610,0.0810,-0.0190,1.1651,23.4375,23.4375,23.4375,23.4375,12.2239,0.0000,0.0610,-0.0610,-0.0000,-0.1482,-0.1822,-10.5835,0.0141,-0.0039,-0.0018,0.0000,0.0000,0.0000,0.0000,0.0000,0.0000,0.0000,0.0000,0.0000,0.0000,0.0000,0.0000,0.0000,0.0000,1.0000,0.0000,0.0000,0.0000,0.0000,0.0000,0.0000,0.0000,0.0000,0.0000,0.0000,0.0000,0.0000,0.0000,0.0000,0.0000,0.0000,0.0000,0.0000,-0.1000,-0.1000,-0.1000,-0.1000,4
0,-1,0,-10.5048,-0.1350,0.1010,0.0610,0.0810,-0.0190,1.1651,23.4375,23.4375,23.4375,23.4375,12.2244,0.0000,-0.0610,-0.1221,-0.0000,-0.1148,-0.1966,-10.5453,0.0141,-0.0039,-0.0018,0.0000,0.0000,0.0000,0.0000,0.0000,0.0000,0.0000,0.0000,0.0000,0.0000,0.0000,0.0000,0.0000,0.0000,1.0000,0.0000,0.0000,0.0000,0.0000,0.0000,0.0000,0.0000,0.0000,0.0000,0.0000,0.0000,0.0000,0.0000,0.0000,0.0000,0.0000,0.0000,0.0000,-0.1000,-0.1000,-0.1000,-0.1000,4
0,-1,0,-10.5048,-0.1350,0.1010,0.0610,0.0810,-0.0190,1.1651,23.4375,23.4375,23.4375,23.4375,12.2244,0.0000,-0.0610,-0.1831,0.1221,-0.1721,-0.2110,-10.5930,0.0141,-0.0039,-0.0018,0.0000,0.0000,0.0000,0.0000,0.0000,0.0000,0.0000,0.0000,0.0000,0.0000,0.0000,0.0000,0.0000,0.0000,1.0000,0.0000,0.0000,0.0000,0.0000,0.0000,0.0000,0.0000,0.0000,0.0000,0.0000,0.0000,0.0000,0.0000,0.0000,0.0000,0.0000,0.0000,0.0000,-0.1000,-0.1000,-0.1000,-0.1000,4
0,-1,0,-10.5048,-0.1350,0.1010,0.0610,0.0810,-0.0190,1.1651,23.4375,23.4375,23.4375,23.4375,12.2246,0.0000,-0.1221,-0.0610,-0.0000,-0.1458,-0.1990,-10.6336,0.0141,-0.0039,-0.0018,0.0000,0.0000,0.0000,0.0000,0.0000,0.0000,0.0000,0.0000,0.0000,0.0000,0.0000,0.0000,0.0000,0.0000,1.0000,0.0000,0.0000,0.0000,0.0000,0.0000,0.0000,0.0000,0.0000,0.0000,0.0000,0.0000,0.0000,0.0000,0.0000,0.0000,0.0000,0.0000,0.0000,-0.1000,-0.1000,-0.1000,-0.1000,4
0,-1,0,-10.5048,-0.1350,0.1010,0.0610,0.0810,-0.0190,1.1651,23.4375,23.4375,23.4375,23.4375,12.2246,0.0000,-0.0610,-0.1831,0.1221,-0.1602,-0.1990,-10.5381,0.0141,-0.0040,-0.0018,0.0000,0.0000,0.0000,0.0000,0.0000,0.0000,0.0000,0.0000,0.0000,0.0000,0.0000,0.0000,0.0000,0.0000,1.0000,0.0000,0.0000,0.0000,0.0000,0.0000,0.0000,0.0000,0.0000,0.0000,0.0000,0.0000,0.0000,0.0000,0.0000,0.0000,0.0000,0.0000,0.0000,-0.1000,-0.1000,-0.1000,-0.1000,4
0,-1,0,-10.5048,-0.1350,0.1010,0.0610,0.0810,-0.0190,1.1651,23.4375,23.4375,23.4375,23.4375,12.2242,0.0000,0.0000,0.0000,-0.0000,-0.1506,-0.2158,-10.5620,0.0142,-0.0040,-0.0018,0.0000,0.0000,0.0000,0.0000,0.0000,0.0000,0.0000,0.0000,0.0000,0.0000,0.0000,0.0000,0.0000,0.0000,1.0000,0.0000,0.0000,0.0000,0.0000,0.0000,0.0000,0.0000,0.0000,0.0000,0.0000,0.0000,0.0000,0.0000,0.0000,0.0000,0.0000,0.0000,0.0000,-0.1000,-0.1000,-0.1000,-0.1000,4
0,-1,0,-10.5048,-0.1350,0.1010,0.0610,0.0810,-0.0190,1.1651,23.4375,23.4375,23.4375,23.4375,12.2242,0.0000,0.0000,0.0000,-0.0000,-0.1482,-0.1894,-10.5668,0.0142,-0.0040,-0.0018,0.0000,0.0000,0.0000,0.0000,0.0000,0.0000,0.0000,0.0000,0.0000,0.0000,0.0000,0.0000,0.0000,0.0000,1.0000,0.0000,0.0000,0.0000,0.0000,0.0000,0.0000,0.0000,0.0000,0.0000,0.0000,0.0000,0.0000,0.0000,0.0000,0.0000,0.0000,0.0000,0.0000,-0.1000,-0.1000,-0.1000,-0.1000,4
0,-1,0,-10.5048,-0.1350,0.1010,0.0610,0.0810,-0.0190,1.1651,23.4375,23.4375,23.4375,23.4375,12.2244,0.0000,0.0610,0.0000,-0.0000,-0.1482,-0.2014,-10.6408,0.0142,-0.0040,-0.0018,0.0000,0.0000,0.0000,0.0000,0.0000,0.0000,0.0000,0.0000,0.0000,0.0000,0.0000,0.0000,0.0000,0.0000,1.0000,0.0000,0.0000,0.0000,0.0000,0.0000,0.0000,0.0000,0.0000,0.0000,0.0000,0.0000,0.0000,0.0000,0.0000,0.0000,0.0000,0.0000,0.0000,-0.1000,-0.1000,-0.1000,-0.1000,4
0,-1,0,-10.5048,-0.1350,0.1010,0.0610,0.0810,-0.0190,1.1651,23.4375,23.4375,23.4375,23.4375,12.2239,0.0000,-0.1831,-0.1831,-0.0000,-0.1315,-0.1774,-10.6264,0.0142,-0.0040,-0.0018,0.0000,0.0000,0.0000,0.0000,0.0000,0.0000,0.0000,0.0000,0.0000,0.0000,0.0000,0.0000,0.0000,0.0000,1.0000,0.0000,0.0000,0.0000,0.0000,0.0000,0.0000,0.0000,0.0000,0.0000,0.0000,0.0000,0.0000,0.0000,0.0000,0.0000,0.0000,0.0000,0.0000,-0.1000,-0.1000,-0.1000,-0.1000,4
0,-1,0,-10.5048,-0.1350,0.1010,0.0610,0.0810,-0.0190,1.1651,23.4375,23.4375,23.4375,23.4375,12.2244,0.0000,-0.0610,-0.1221,0.1831,-0.1411,-0.2253,-10.6217,0.0142,-0.0040,-0.0018,0.0000,0.0000,0.0000,0.0000,0.0000,0.0000,0.0000,0.0000,0.0000,0.0000,0.0000,0.0000,0.0000,0.0000,1.0000,0.0000,0.0000,0.0000,0.0000,0.0000,0.0000,0.0000,0.0000,0.0000,0.0000,0.0000,0.0000,0.0000,0.0000,0.0000,0.0000,0.0000,0.0000,-0.1000,-0.1000,-0.1000,-0.1000,4
0,-1,0,-10.5048,-0.1350,0.1010,0.0610,0.0810,-0.0190,1.1651,23.4375,23.4375,23.4375,23.4375,12.2244,0.0000,-0.0610,-0.1831,0.2441,-0.1339,-0.2062,-10.5930,0.0142,-0.0040,-0.0017,0.0000,0.0000,0.0000,0.0000,0.0000,0.0000,0.0000,0.0000,0.0000,0.0000,0.0000,0.0000,0.0000,0.0000,1.0000,0.0000,0.0000,0.0000,0.0000,0.0000,0.0000,0.0000,0.0000,0.0000,0.0000,0.0000,0.0000,0.0000,0.0000,0.0000,0.0000,0.0000,0.0000,-0.1000,-0.1000,-0.1000,-0.1000,4
0,-1,0,-10.5048,-0.1350,0.1010,0.0610,0.0810,-0.0190,1.1651,23.4375,23.4375,23.4375,23.4375,12.2249,0.0000,0.0000,0.0000,-0.0000,-0.1745,-0.1966,-10.5715,0.0142,-0.0040,-0.0017,0.0000,0.0000,0.0000,0.0000,0.0000,0.0000,0.0000,0.0000,0.0000,0.0000,0.0000,0.0000,0.0000,0.0000,1.0000,0.0000,0.0000,0.0000,0.0000,0.0000,0.0000,0.0000,0.0000,0.0000,0.0000,0.0000,0.0000,0.0000,0.0000,0.0000,0.0000,0.0000,0.0000,-0.1000,-0.1000,-0.1000,-0.1000,4
0,-1,0,-10.5048,-0.1350,0.1010,0.0610,0.0810,-0.0190,1.1651,23.4375,23.4375,23.4375,23.4375,12.2251,0.0000,0.0000,-0.1221,-0.0000,-0.1650,-0.2230,-10.6121,0.0142,-0.0041,-0.0018,0.0000,0.0000,0.0000,0.0000,0.0000,0.0000,0.0000,0.0000,0.0000,0.0000,0.0000,0.0000,0.0000,0.0000,1.0000,0.0000,0.0000,0.0000,0.0000,0.0000,0.0000,0.0000,0.0000,0.0000,0.0000,0.0000,0.0000,0.0000,0.0000,0.0000,0.0000,0.0000,0.0000,-0.1000,-0.1000,-0.1000,-0.1000,4
0,-1,0,-10.5048,-0.1350,0.1010,0.0610,0.0810,-0.0190,1.1651,23.4375,23.4375,23.4375,23.4375,12.2251,0.0000,0.1221,-0.1831,-0.0000,-0.1721,-0.1726,-10.6026,0.0142,-0.0041,-0.0018,0.0000,0.0000,0.0000,0.0000,0.0000,0.0000,0.0000,0.0000,0.0000,0.0000,0.0000,0.0000,0.0000,0.0000,1.0000,0.0000,0.0000,0.0000,0.0000,0.0000,0.0000,0.0000,0.0000,0.0000,0.0000,0.0000,0.0000,0.0000,0.0000,0.0000,0.0000,0.0000,0.0000,-0.1000,-0.1000,-0.1000,-0.1000,4
0,-1,0,-10.5048,-0.1350,0.1010,0.0610,0.0810,-0.0190,1.1651,23.4375,23.4375,23.4375,23.4375,12.2249,0.0000,0.2441,0.0000,-0.0000,-0.0909,-0.2301,-10.6145,0.0143,-0.0041,-0.0018,0.0000,0.0000,0.0000,0.0000,0.0000,0.0000,0.0000,0.0000,0.0000,0.0000,0.0000,0.0000,0.0000,0.0000,1.0000,0.0000,0.0000,0.0000,0.0000,0.0000,0.0000,0.0000,0.0000,0.0000,0.0000,0.0000,0.0000,0.0000,0.0000,0.0000,0.0000,0.0000,0.0000,-0.1000,-0.1000,-0.1000,-0.1000,4
0,-1,0,-10.5048,-0.1350,0.1010,0.0510,0.0810,-0.0290,1.1651,23.4375,23.4375,23.4375,23.4375,12.2251,0.0000,0.0000,-0.1221,-0.1221,-0.1554,-0.1846,-10.5930,0.0143,-0.0041,-0.0018,0.0000,0.0000,0.0000,0.0000,0.0000,0.0000,0.0000,0.0000,0.0000,0.0000,0.0000,0.0000,0.0000,0.0000,1.0000,0.0000,0.0000,0.0000,0.0000,0.0000,0.0000,0.0000,0.0000,0.0000,0.0000,0.0000,0.0000,0.0000,0.0000,0.0000,0.0000,0.0000,0.0000,-0.1000,-0.1000,-0.1000,-0.1000,4
0,-1,0,-10.4675,-0.1598,0.0998,0.0510,0.0810,-0.0290,1.1651,23.4375,23.4375,23.4375,23.4375,12.2249,0.0000,-0.0610,-0.2441,-0.1221,-0.1769,-0.2301,-10.5811,0.0143,-0.0041,-0.0018,0.0000,0.0000,0.0000,0.0000,0.0000,0.0000,0.0000,0.0000,0.0000,0.0000,0.0000,0.0000,0.0000,0.0000,1.0000,0.0000,0.0000,0.0000,0.0000,0.0000,0.0000,0.0000,0.0000,0.0000,0.0000,0.0000,0.0000,0.0000,0.0000,0.0000,0.0000,0.0000,0.0000,-0.1000,-0.1000,-0.1000,-0.1000,4
0,-1,0,-10.4675,-0.1598,0.0998,0.0510,0.0810,-0.0290,1.1651,23.4375,23.4375,23.4375,23.4375,12.2251,0.0000,-0.0610,-0.2441,-0.0000,-0.1458,-0.1870,-10.6121,0.0143,-0.0042,-0.0018,0.0000,0.0000,0.0000,0.0000,0.0000,0.0000,0.0000,0.0000,0.0000,0.0000,0.0000,0.0000,0.0000,0.0000,1.0000,0.0000,0.0000,0.0000,0.0000,0.0000,0.0000,0.0000,0.0000,0.0000,0.0000,0.0000,0.0000,0.0000,0.0000,0.0000,0.0000,0.0000,0.0000,-0.1000,-0.1000,-0.1000,-0.1000,4
0,-1,0,-10.4675,-0.1598,0.0998,0.0510,0.0810,-0.0290,1.1651,23.4375,23.4375,23.4375,23.4375,12.2249,0.0000,-0.1221,0.0000,-0.0000,-0.1411,-0.2134,-10.5787,0.0144,-0.0042,-0.0018,0.0000,0.0000,0.0000,0.0000,0.0000,0.0000,0.0000,0.0000,0.0000,0.0000,0.0000,0.0000,0.0000,0.0000,1.0000,0.0000,0.0000,0.0000,0.0000,0.0000,0.0000,0.0000,0.0000,0.0000,0.0000,0.0000,0.0000,0.0000,0.0000,0.0000,0.0000,0.0000,0.0000,-0.1000,-0.1000,-0.1000,-0.1000,4
0,-1,0,-10.4675,-0.1598,0.0998,0.0510,0.0810,-0.0290,1.1651,23.4375,23.4375,23.4375,23.4375,12.2251,0.0000,-0.0610,-0.1221,-0.0000,-0.1172,-0.1894,-10.6073,0.0144,-0.0043,-0.0018,0.0000,0.0000,0.0000,0.0000,0.0000,0.0000,0.0000,0.0000,0.0000,0.0000,0.0000,0.0000,0.0000,0.0000,1.0000,0.0000,0.0000,0.0000,0.0000,0.0000,0.0000,0.0000,0.0000,0.0000,0.0000,0.0000,0.0000,0.0000,0.0000,0.0000,0.0000,0.0000,0.0000,-0.1000,-0.1000,-0.1000,-0.1000,4
0,-1,0,-10.4675,-0.1598,0.0998,0.0510,0.0810,-0.0290,1.1651,23.4375,23.4375,23.4375,23.4375,12.2249,0.0000,0.0000,-0.1221,0.1831,-0.1698,-0.1870,-10.5882,0.0144,-0.0043,-0.0018,0.0000,0.0000,0.0000,0.0000,0.0000,0.0000,0.0000,0.0000,0.0000,0.0000,0.0000,0.0000,0.0000,0.0000,1.0000,0.0000,0.0000,0.0000,0.0000,0.0000,0.0000,0.0000,0.0000,0.0000,0.0000,0.0000,0.0000,0.0000,0.0000,0.0000,0.0000,0.0000,0.0000,-0.1000,-0.1000,-0.1000,-0.1000,4
0,-1,0,-10.4675,-0.1598,0.0998,0.0510,0.0810,-0.0290,1.1651,23.4375,23.4375,23.4375,23.4375,12.2246,0.0000,-0.0610,-0.1831,-0.0000,-0.1482,-0.1990,-10.5930,0.0144,-0.0043,-0.0018,0.0000,0.0000,0.0000,0.0000,0.0000,0.0000,0.0000,0.0000,0.0000,0.0000,0.0000,0.0000,0.0000,0.0000,1.0000,0.0000,0.0000,0.0000,0.0000,0.0000,0.0000,0.0000,0.0000,0.0000,0.0000,0.0000,0.0000,0.0000,0.0000,0.0000,0.0000,0.0000,0.0000,-0.1000,-0.1000,-0.1000,-0.1000,4
0,-1,0,-10.4675,-0.1598,0.0998,0.0510,0.0810,-0.0290,1.1651,23.4375,23.4375,23.4375,23.4375,12.2251,0.0000,0.0000,-0.1221,-0.0000,-0.1984,-0.1702,-10.6169,0.0144,-0.0044,-0.0018,0.0000,0.0000,0.0000,0.0000,0.0000,0.0000,0.0000,0.0000,0.0000,0.0000,0.0000,0.0000,0.0000,0.0000,1.0000,0.0000,0.0000,0.0000,0.0000,0.0000,0.0000,0.0000,0.0000,0.0000,0.0000,0.0000,0.0000,0.0000,0.0000,0.0000,0.0000,0.0000,0.0000,-0.1000,-0.1000,-0.1000,-0.1000,4
0,-1,0,-10.4675,-0.1598,0.0998,0.0510,0.0810,-0.0290,1.1651,23.4375,23.4375,23.4375,23.4375,12.2249,0.0000,0.0610,-0.1221,-0.0000,-0.1363,-0.2086,-10.5739,0.0145,-0.0044,-0.0019,0.0000,0.0000,0.0000,0.0000,0.0000,0.0000,0.0000,0.0000,0.0000,0.0000,0.0000,0.0000,0.0000,0.0000,1.0000,0.0000,0.0000,0.0000,0.0000,0.0000,0.0000,0.0000,0.0000,0.0000,0.0000,0.0000,0.0000,0.0000,0.0000,0.0000,0.0000,0.0000,0.0000,-0.1000,-0.1000,-0.1000,-0.1000,4
0,-1,0,-10.4675,-0.1598,0.0998,0.0510,0.0810,-0.0290,1.1651,23.4375,23.4375,23.4375,23.4375,12.2246,0.0000,0.0610,-0.1831,-0.0000,-0.1817,-0.1942,-10.5572,0.0145,-0.0045,-0.0019,0.0000,0.0000,0.0000,0.0000,0.0000,0.0000,0.0000,0.0000,0.0000,0.0000,0.0000,0.0000,0.0000,0.0000,1.0000,0.0000,0.0000,0.0000,0.0000,0.0000,0.0000,0.0000,0.0000,0.0000,0.0000,0.0000,0.0000,0.0000,0.0000,0.0000,0.0000,0.0000,0.0000,-0.1000,-0.1000,-0.1000,-0.1000,4
0,-1,0,-10.4675,-0.1598,0.0998,0.0510,0.0810,-0.0290,1.1651,23.4375,23.4375,23.4375,23.4375,12.2263,0.0000,-0.0610,-0.2441,-0.0610,-0.1339,-0.2182,-10.6097,0.0145,-0.0045,-0.0019,0.0000,0.0000,0.0000,0.0000,0.0000,0.0000,0.0000,0.0000,0.0000,0.0000,0.0000,0.0000,0.0000,0.0000,1.0000,0.0000,0.0000,0.0000,0.0000,0.0000,0.0000,0.0000,0.0000,0.0000,0.0000,0.0000,0.0000,0.0000,0.0000,0.0000,0.0000,0.0000,0.0000,-0.1000,-0.1000,-0.1000,-0.1000,4
0,-1,0,-10.4675,-0.1598,0.0998,0.0510,0.0810,-0.0290,1.1651,23.4375,23.4375,23.4375,23.4375,12.2275,0.0000,-0.0610,-0.2441,0.1221,-0.1435,-0.2517,-10.6264,0.0145,-0.0045,-0.0019,0.0000,0.0000,0.0000,0.0000,0.0000,0.0000,0.0000,0.0000,0.0000,0.0000,0.0000,0.0000,0.0000,0.0000,1.0000,0.0000,0.0000,0.0000,0.0000,0.0000,0.0000,0.0000,0.0000,0.0000,0.0000,0.0000,0.0000,0.0000,0.0000,0.0000,0.0000,0.0000,0.0000,-0.1000,-0.1000,-0.1000,-0.1000,4
0,-1,0,-10.4675,-0.1598,0.0998,0.0510,0.0810,-0.0290,1.1651,23.4375,23.4375,23.4375,23.4375,12.2287,0.0000,-0.0610,-0.1221,-0.0000,-0.1291,-0.1846,-10.5835,0.0145,-0.0045,-0.0019,0.0000,0.0000,0.0000,0.0000,0.0000,0.0000,0.0000,0.0000,0.0000,0.0000,0.0000,0.0000,0.0000,0.0000,1.0000,0.0000,0.0000,0.0000,0.0000,0.0000,0.0000,0.0000,0.0000,0.0000,0.0000,0.0000,0.0000,0.0000,0.0000,0.0000,0.0000,0.0000,0.0000,-0.1000,-0.1000,-0.1000,-0.1000,4
0,-1,0,-10.4675,-0.1598,0.0998,0.0510,0.0810,-0.0290,1.1651,23.4375,23.4375,23.4375,23.4375,12.2304,0.0000,0.0000,-0.1831,-0.0000,-0.1076,-0.1918,-10.6026,0.0146,-0.0046,-0.0019,0.0000,0.0000,0.0000,0.0000,0.0000,0.0000,0.0000,0.0000,0.0000,0.0000,0.0000,0.0000,0.0000,0.0000,1.0000,0.0000,0.0000,0.0000,0.0000,0.0000,0.0000,0.0000,0.0000,0.0000,0.0000,0.0000,0.0000,0.0000,0.0000,0.0000,0.0000,0.0000,0.0000,-0.1000,-0.1000,-0.1000,-0.1000,4
0,-1,0,-10.4675,-0.1598,0.0998,0.0510,0.0810,-0.0290,1.1651,23.4375,23.4375,23.4375,23.4375,12.2309,0.0000,0.0000,-0.1221,-0.0000,-0.1602,-0.1846,-10.5405,0.0146,-0.0046,-0.0019,0.0000,0.0000,0.0000,0.0000,0.0000,0.0000,0.0000,0.0000,0.0000,0.0000,0.0000,0.0000,0.0000,0.0000,1.0000,0.0000,0.0000,0.0000,0.0000,0.0000,0.0000,0.0000,0.0000,0.0000,0.0000,0.0000,0.0000,0.0000,0.0000,0.0000,0.0000,0.0000,0.0000,-0.1000,-0.1000,-0.1000,-0.1000,4
0,-1,0,-10.4675,-0.1598,0.0998,0.0510,0.0810,-0.0290,1.1651,23.4375,23.4375,23.4375,23.4375,12.2321,0.0000,-0.0610,-0.1831,-0.0000,-0.1458,-0.1918,-10.5572,0.0146,-0.0046,-0.0019,0.0000,0.0000,0.0000,0.0000,0.0000,0.0000,0.0000,0.0000,0.0000,0.0000,0.0000,0.0000,0.0000,0.0000,1.0000,0.0000,0.0000,0.0000,0.0000,0.0000,0.0000,0.0000,0.0000,0.0000,0.0000,0.0000,0.0000,0.0000,0.0000,0.0000,0.0000,0.0000,0.0000,-0.1000,-0.1000,-0.1000,-0.1000,4
0,-1,0,-10.4675,-0.1598,0.0998,0.0510,0.0810,-0.0290,1.1651,23.4375,23.4375,23.4375,23.4375,12.2336,0.0000,-0.1831,-0.1831,0.1221,-0.1769,-0.1630,-10.5644,0.0146,-0.0046,-0.0019,0.0000,0.0000,0.0000,0.0000,0.0000,0.0000,0.0000,0.0000,0.0000,0.0000,0.0000,0.0000,0.0000,0.0000,1.0000,0.0000,0.0000,0.0000,0.0000,0.0000,0.0000,0.0000,0.0000,0.0000,0.0000,0.0000,0.0000,0.0000,0.0000,0.0000,0.0000,0.0000,0.0000,-0.1000,-0.1000,-0.1000,-0.1000,4
0,-1,0,-10.4675,-0.1598,0.0998,0.0510,0.0810,-0.0290,1.1651,23.4375,23.4375,23.4375,23.4375,12.2343,0.0000,-0.0610,-0.1831,0.1221,-0.1267,-0.2014,-10.6169,0.0146,-0.0046,-0.0019,0.0000,0.0000,0.0000,0.0000,0.0000,0.0000,0.0000,0.0000,0.0000,0.0000,0.0000,0.0000,0.0000,0.0000,1.0000,0.0000,0.0000,0.0000,0.0000,0.0000,0.0000,0.0000,0.0000,0.0000,0.0000,0.0000,0.0000,0.0000,0.0000,0.0000,0.0000,0.0000,0.0000,-0.1000,-0.1000,-0.1000,-0.1000,4
0,-1,0,-10.4675,-0.1598,0.0998,0.0510,0.0810,-0.0290,1.1651,23.4375,23.4375,23.4375,23.4375,12.2355,0.0000,0.0000,-0.0610,0.1221,-0.1387,-0.1798,-10.6360,0.0146,-0.0046,-0.0019,0.0000,0.0000,0.0000,0.0000,0.0000,0.0000,0.0000,0.0000,0.0000,0.0000,0.0000,0.0000,0.0000,0.0000,1.0000,0.0000,0.0000,0.0000,0.0000,0.0000,0.0000,0.0000,0.0000,0.0000,0.0000,0.0000,0.0000,0.0000,0.0000,0.0000,0.0000,0.0000,0.0000,-0.1000,-0.1000,-0.1000,-0.1000,4
0,-1,0,-10.4675,-0.1598,0.0998,0.0510,0.0810,-0.0290,1.1651,23.4375,23.4375,23.4375,23.4375,12.2367,0.0000,0.1221,-0.1831,-0.0610,-0.1315,-0.2253,-10.6026,0.0146,-0.0047,-0.0019,0.0000,0.0000,0.0000,0.0000,0.0000,0.0000,0.0000,0.0000,0.0000,0.0000,0.0000,0.0000,0.0000,0.0000,1.0000,0.0000,0.0000,0.0000,0.0000,0.0000,0.0000,0.0000,0.0000,0.0000,0.0000,0.0000,0.0000,0.0000,0.0000,0.0000,0.0000,0.0000,0.0000,-0.1000,-0.1000,-0.1000,-0.1000,4
0,-1,0,-10.4675,-0.1598,0.0998,0.0510,0.0810,-0.0290,1.1651,23.4375,23.4375,23.4375,23.4375,12.2384,0.0000,0.0000,-0.1221,-0.0000,-0.1243,-0.1846,-10.6073,0.0146,-0.0047,-0.0019,0.0000,0.0000,0.0000,0.0000,0.0000,0.0000,0.0000,0.0000,0.0000,0.0000,0.0000,0.0000,0.0000,0.0000,1.0000,0.0000,0.0000,0.0000,0.0000,0.0000,0.0000,0.0000,0.0000,0.0000,0.0000,0.0000,0.0000,0.0000,0.0000,0.0000,0.0000,0.0000,0.0000,-0.1000,-0.1000,-0.1000,-0.1000,4
0,-1,0,-10.4675,-0.1598,0.0998,0.0510,0.0810,-0.0290,1.1651,23.4375,23.4375,23.4375,23.4375,12.2399,0.0000,0.0610,-0.2441,-0.0000,-0.1554,-0.1846,-10.6766,0.0147,-0.0047,-0.0019,0.0000,0.0000,0.0000,0.0000,0.0000,0.0000,0.0000,0.0000,0.0000,0.0000,0.0000,0.0000,0.0000,0.0000,1.0000,0.0000,0.0000,0.0000,0.0000,0.0000,0.0000,0.0000,0.0000,0.0000,0.0000,0.0000,0.0000,0.0000,0.0000,0.0000,0.0000,0.0000,0.0000,-0.1000,-0.1000,-0.1000,-0.1000,4
0,-1,0,-10.4675,-0.1598,0.0998,0.0510,0.0810,-0.0290,1.1651,23.4375,23.4375,23.4375,23.4375,12.2411,0.0000,0.0000,0.0000,-0.0610,-0.1100,-0.1966,-10.5906,0.0147,-0.0047,-0.0019,0.0000,0.0000,0.0000,0.0000,0.0000,0.0000,0.0000,0.0000,0.0000,0.0000,0.0000,0.0000,0.0000,0.0000,1.0000,0.0000,0.0000,0.0000,0.0000,0.0000,0.0000,0.0000,0.0000,0.0000,0.0000,0.0000,0.0000,0.0000,0.0000,0.0000,0.0000,0.0000,0.0000,-0.1000,-0.1000,-0.1000,-0.1000,4
0,-1,0,-10.4675,-0.1598,0.0998,0.0510,0.0810,-0.0290,1.1651,23.4375,23.4375,23.4375,23.4375,12.2425,0.0000,0.0000,-0.0610,-0.0000,-0.1698,-0.1942,-10.5835,0.0147,-0.0047,-0.0019,0.0000,0.0000,0.0000,0.0000,0.0000,0.0000,0.0000,0.0000,0.0000,0.0000,0.0000,0.0000,0.0000,0.0000,1.0000,0.0000,0.0000,0.0000,0.0000,0.0000,0.0000,0.0000,0.0000,0.0000,0.0000,0.0000,0.0000,0.0000,0.0000,0.0000,0.0000,0.0000,0.0000,-0.1000,-0.1000,-0.1000,-0.1000,4
0,-1,0,-10.4675,-0.1598,0.0998,0.0510,0.0810,-0.0290,1.1651,23.4375,23.4375,23.4375,23.4375,12.2428,0.0000,0.0000,-0.1221,-0.0000,-0.1148,-0.1846,-10.5882,0.0147,-0.0048,-0.0019,0.0000,0.0000,0.0000,0.0000,0.0000,0.0000,0.0000,0.0000,0.0000,0.0000,0.0000,0.0000,0.0000,0.0000,1.0000,0.0000,0.0000,0.0000,0.0000,0.0000,0.0000,0.0000,0.0000,0.0000,0.0000,0.0000,0.0000,0.0000,0.0000,0.0000,0.0000,0.0000,0.0000,-0.1000,-0.1000,-0.1000,-0.1000,4
0,-1,0,-10.4675,-0.1598,0.0998,0.0510,0.0810,-0.0290,1.1651,23.4375,23.4375,23.4375,23.4375,12.2445,0.0000,0.0610,-0.0610,-0.0610,-0.1195,-0.2086,-10.5357,0.0147,-0.0048,-0.0019,0.0000,0.0000,0.0000,0.0000,0.0000,0.0000,0.0000,0.0000,0.0000,0.0000,0.0000,0.0000,0.0000,0.0000,1.0000,0.0000,0.0000,0.0000,0.0000,0.0000,0.0000,0.0000,0.0000,0.0000,0.0000,0.0000,0.0000,0.0000,0.0000,0.0000,0.0000,0.0000,0.0000,-0.1000,-0.1000,-0.1000,-0.1000,4
0,-1,0,-10.4675,-0.1598,0.0998,0.0510,0.0810,-0.0290,1.1651,23.4375,23.4375,23.4375,23.4375,12.2452,0.0000,-0.0610,-0.1831,0.1221,-0.1745,-0.2301,-10.5978,0.0147,-0.0048,-0.0019,0.0000,0.0000,0.0000,0.0000,0.0000,0.0000,0.0000,0.0000,0.0000,0.0000,0.0000,0.0000,0.0000,0.0000,1.0000,0.0000,0.0000,0.0000,0.0000,0.0000,0.0000,0.0000,0.0000,0.0000,0.0000,0.0000,0.0000,0.0000,0.0000,0.0000,0.0000,0.0000,0.0000,-0.1000,-0.1000,-0.1000,-0.1000,4
0,-1,0,-10.4675,-0.1598,0.0998,0.0510,0.0810,-0.0290,1.1651,23.4375,23.4375,23.4375,23.4375,12.2457,0.0000,-0.0610,-0.1221,-0.0000,-0.1243,-0.2301,-10.6742,0.0147,-0.0048,-0.0019,0.0000,0.0000,0.0000,0.0000,0.0000,0.0000,0.0000,0.0000,0.0000,0.0000,0.0000,0.0000,0.0000,0.0000,1.0000,0.0000,0.0000,0.0000,0.0000,0.0000,0.0000,0.0000,0.0000,0.0000,0.0000,0.0000,0.0000,0.0000,0.0000,0.0000,0.0000,0.0000,0.0000,-0.1000,-0.1000,-0.1000,-0.1000,4
0,-1,0,-10.4675,-0.1598,0.0998,0.0510,0.0810,-0.0290,1.1651,23.4375,23.4375,23.4375,23.4375,12.2474,0.0000,-0.1831,-0.2441,-0.0000,-0.1291,-0.1534,-10.5906,0.0147,-0.0048,-0.0019,0.0000,0.0000,0.0000,0.0000,0.0000,0.0000,0.0000,0.0000,0.0000,0.0000,0.0000,0.0000,0.0000,0.0000,1.0000,0.0000,0.0000,0.0000,0.0000,0.0000,0.0000,0.0000,0.0000,0.0000,0.0000,0.0000,0.0000,0.0000,0.0000,0.0000,0.0000,0.0000,0.0000,-0.1000,-0.1000,-0.1000,-0.1000,4
0,-1,0,-10.4675,-0.1598,0.0998,0.0510,0.0810,-0.0290,1.1651,23.4375,23.4375,23.4375,23.4375,12.2488,0.0000,0.1831,0.0000,-0.1221,-0.1267,-0.1966,-10.5787,0.0147,-0.0048,-0.0019,0.0000,0.0000,0.0000,0.0000,0.0000,0.0000,0.0000,0.0000,0.0000,0.0000,0.0000,0.0000,0.0000,0.0000,1.0000,0.0000,0.0000,0.0000,0.0000,0.0000,0.0000,0.0000,0.0000,0.0000,0.0000,0.0000,0.0000,0.0000,0.0000,0.0000,0.0000,0.0000,0.0000,-0.1000,-0.1000,-0.1000,-0.1000,4
0,-1,0,-10.4675,-0.1598,0.0998,0.0510,0.0810,-0.0290,1.1651,23.4375,23.4375,23.4375,23.4375,12.2481,0.0000,0.0000,-0.1221,-0.0000,-0.1435,-0.1774,-10.5978,0.0148,-0.0049,-0.0019,0.0000,0.0000,0.0000,0.0000,0.0000,0.0000,0.0000,0.0000,0.0000,0.0000,0.0000,0.0000,0.0000,0.0000,1.0000,0.0000,0.0000,0.0000,0.0000,0.0000,0.0000,0.0000,0.0000,0.0000,0.0000,0.0000,0.0000,0.0000,0.0000,0.0000,0.0000,0.0000,0.0000,-0.1000,-0.1000,-0.1000,-0.1000,4
0,-1,0,-10.4675,-0.1598,0.0998,0.0710,0.0810,-0.0190,1.1651,23.4375,23.4375,23.4375,23.4375,12.2478,0.0000,0.0000,-0.1831,-0.0000,-0.1435,-0.1870,-10.5954,0.0148,-0.0049,-0.0019,0.0000,0.0000,0.0000,0.0000,0.0000,0.0000,0.0000,0.0000,0.0000,0.0000,0.0000,0.0000,0.0000,0.0000,1.0000,0.0000,0.0000,0.0000,0.0000,0.0000,0.0000,0.0000,0.0000,0.0000,0.0000,0.0000,0.0000,0.0000,0.0000,0.0000,0.0000,0.0000,0.0000,-0.1000,-0.1000,-0.1000,-0.1000,4
0,-1,0,-10.4675,-0.1598,0.0998,0.0710,0.0810,-0.0190,1.1651,23.4375,23.4375,23.4375,23.4375,12.2471,0.0000,0.0610,-0.0610,-0.0000,-0.1674,-0.1798,-10.5906,0.0148,-0.0049,-0.0019,0.0000,0.0000,0.0000,0.0000,0.0000,0.0000,0.0000,0.0000,0.0000,0.0000,0.0000,0.0000,0.0000,0.0000,1.0000,0.0000,0.0000,0.0000,0.0000,0.0000,0.0000,0.0000,0.0000,0.0000,0.0000,0.0000,0.0000,0.0000,0.0000,0.0000,0.0000,0.0000,0.0000,-0.1000,-0.1000,-0.1000,-0.1000,4
0,-1,0,-10.5087,-0.1255,0.1093,0.0710,0.0810,-0.0190,1.1651,23.4375,23.4375,23.4375,23.4375,12.2469,0.0000,-0.2441,-0.1221,-0.0000,-0.1458,-0.1390,-10.6813,0.0148,-0.0049,-0.0019,0.0000,0.0000,0.0000,0.0000,0.0000,0.0000,0.0000,0.0000,0.0000,0.0000,0.0000,0.0000,0.0000,0.0000,1.0000,0.0000,0.0000,0.0000,0.0000,0.0000,0.0000,0.0000,0.0000,0.0000,0.0000,0.0000,0.0000,0.0000,0.0000,0.0000,0.0000,0.0000,0.0000,-0.1000,-0.1000,-0.1000,-0.1000,4
0,-1,0,-10.5087,-0.1255,0.1093,0.0710,0.0810,-0.0190,1.1651,23.4375,23.4375,23.4375,23.4375,12.2476,0.0000,0.0000,-0.1831,-0.0000,-0.1650,-0.1942,-10.5978,0.0148,-0.0050,-0.0019,0.0000,0.0000,0.0000,0.0000,0.0000,0.0000,0.0000,0.0000,0.0000,0.0000,0.0000,0.0000,0.0000,0.0000,1.0000,0.0000,0.0000,0.0000,0.0000,0.0000,0.0000,0.0000,0.0000,0.0000,0.0000,0.0000,0.0000,0.0000,0.0000,0.0000,0.0000,0.0000,0.0000,-0.1000,-0.1000,-0.1000,-0.1000,4
0,-1,0,-10.5087,-0.1255,0.1093,0.0710,0.0810,-0.0190,1.1651,23.4375,23.4375,23.4375,23.4375,12.2476,0.0000,-0.0610,-0.2441,0.1221,-0.1172,-0.1534,-10.5811,0.0148,-0.0050,-0.0020,0.0000,0.0000,0.0000,0.0000,0.0000,0.0000,0.0000,0.0000,0.0000,0.0000,0.0000,0.0000,0.0000,0.0000,1.0000,0.0000,0.0000,0.0000,0.0000,0.0000,0.0000,0.0000,0.0000,0.0000,0.0000,0.0000,0.0000,0.0000,0.0000,0.0000,0.0000,0.0000,0.0000,-0.1000,-0.1000,-0.1000,-0.1000,4
0,-1,0,-10.5087,-0.1255,0.1093,0.0710,0.0810,-0.0190,1.1651,23.4375,23.4375,23.4375,23.4375,12.2469,0.0000,-0.0610,-0.4272,-0.0000,-0.1363,-0.2325,-10.6073,0.0148,-0.0051,-0.0020,0.0000,0.0000,0.0000,0.0000,0.0000,0.0000,0.0000,0.0000,0.0000,0.0000,0.0000,0.0000,0.0000,0.0000,1.0000,0.0000,0.0000,0.0000,0.0000,0.0000,0.0000,0.0000,0.0000,0.0000,0.0000,0.0000,0.0000,0.0000,0.0000,0.0000,0.0000,0.0000,0.0000,-0.1000,-0.1000,-0.1000,-0.1000,4
0,-1,0,-10.5087,-0.1255,0.1093,0.0710,0.0810,-0.0190,1.1651,23.4375,23.4375,23.4375,23.4375,12.2469,0.0000,0.0000,0.0000,-0.0000,-0.1339,-0.1894,-10.5691,0.0149,-0.0052,-0.0020,0.0000,0.0000,0.0000,0.0000,0.0000,0.0000,0.0000,0.0000,0.0000,0.0000,0.0000,0.0000,0.0000,0.0000,1.0000,0.0000,0.0000,0.0000,0.0000,0.0000,0.0000,0.0000,0.0000,0.0000,0.0000,0.0000,0.0000,0.0000,0.0000,0.0000,0.0000,0.0000,0.0000,-0.1000,-0.1000,-0.1000,-0.1000,4
0,-1,0,-10.5087,-0.1255,0.1093,0.0710,0.0810,-0.0190,1.1651,23.4375,23.4375,23.4375,23.4375,12.2474,0.0000,-0.0610,-0.1831,-0.0610,-0.1530,-0.2062,-10.5882,0.0149,-0.0052,-0.0020,0.0000,0.0000,0.0000,0.0000,0.0000,0.0000,0.0000,0.0000,0.0000,0.0000,0.0000,0.0000,0.0000,0.0000,1.0000,0.0000,0.0000,0.0000,0.0000,0.0000,0.0000,0.0000,0.0000,0.0000,0.0000,0.0000,0.0000,0.0000,0.0000,0.0000,0.0000,0.0000,0.0000,-0.1000,-0.1000,-0.1000,-0.1000,4
0,-1,0,-10.5087,-0.1255,0.1093,0.0710,0.0810,-0.0190,1.1651,23.4375,23.4375,23.4375,23.4375,12.2471,0.0000,-0.0610,-0.1221,-0.0610,-0.1124,-0.2158,-10.5811,0.0149,-0.0052,-0.0020,0.0000,0.0000,0.0000,0.0000,0.0000,0.0000,0.0000,0.0000,0.0000,0.0000,0.0000,0.0000,0.0000,0.0000,1.0000,0.0000,0.0000,0.0000,0.0000,0.0000,0.0000,0.0000,0.0000,0.0000,0.0000,0.0000,0.0000,0.0000,0.0000,0.0000,0.0000,0.0000,0.0000,-0.1000,-0.1000,-0.1000,-0.1000,4
0,-1,0,-10.5087,-0.1255,0.1093,0.0710,0.0810,-0.0190,1.1651,23.4375,23.4375,23.4375,23.4375,12.2466,0.0000,0.0000,-0.0610,-0.0610,-0.1674,-0.1822,-10.5429,0.0150,-0.0053,-0.0020,0.0000,0.0000,0.0000,0.0000,0.0000,0.0000,0.0000,0.0000,0.0000,0.0000,0.0000,0.0000,0.0000,0.0000,1.0000,0.0000,0.0000,0.0000,0.0000,0.0000,0.0000,0.0000,0.0000,0.0000,0.0000,0.0000,0.0000,0.0000,0.0000,0.0000,0.0000,0.0000,0.0000,-0.1000,-0.1000,-0.1000,-0.1000,4
0,-1,0,-10.5087,-0.1255,0.1093,0.0710,0.0810,-0.0190,1.1651,23.4375,23.4375,23.4375,23.4375,12.2466,0.0000,-0.0610,-0.1221,0.1221,-0.1602,-0.1894,-10.6264,0.0150,-0.0053,-0.0020,0.0000,0.0000,0.0000,0.0000,0.0000,0.0000,0.0000,0.0000,0.0000,0.0000,0.0000,0.0000,0.0000,0.0000,1.0000,0.0000,0.0000,0.0000,0.0000,0.0000,0.0000,0.0000,0.0000,0.0000,0.0000,0.0000,0.0000,0.0000,0.0000,0.0000,0.0000,0.0000,0.0000,-0.1000,-0.1000,-0.1000,-0.1000,4
0,-1,0,-10.5087,-0.1255,0.1093,0.0710,0.0810,-0.0190,1.1651,23.4375,23.4375,23.4375,23.4375,12.2466,0.0000,0.0610,-0.0610,-0.0000,-0.1626,-0.1966,-10.6694,0.0150,-0.0053,-0.0020,0.0000,0.0000,0.0000,0.0000,0.0000,0.0000,0.0000,0.0000,0.0000,0.0000,0.0000,0.0000,0.0000,0.0000,1.0000,0.0000,0.0000,0.0000,0.0000,0.0000,0.0000,0.0000,0.0000,0.0000,0.0000,0.0000,0.0000,0.0000,0.0000,0.0000,0.0000,0.0000,0.0000,-0.1000,-0.1000,-0.1000,-0.1000,4
0,-1,0,-10.5087,-0.1255,0.1093,0.0710,0.0810,-0.0190,1.1651,23.4375,23.4375,23.4375,23.4375,12.2469,0.0000,0.0000,-0.0610,-0.0000,-0.1650,-0.1894,-10.6050,0.0150,-0.0053,-0.0020,0.0000,0.0000,0.0000,0.0000,0.0000,0.0000,0.0000,0.0000,0.0000,0.0000,0.0000,0.0000,0.0000,0.0000,1.0000,0.0000,0.0000,0.0000,0.0000,0.0000,0.0000,0.0000,0.0000,0.0000,0.0000,0.0000,0.0000,0.0000,0.0000,0.0000,0.0000,0.0000,0.0000,-0.1000,-0.1000,-0.1000,-0.1000,4
0,-1,0,-10.5087,-0.1255,0.1093,0.0710,0.0810,-0.0190,1.1651,23.4375,23.4375,23.4375,23.4375,12.2474,0.0000,0.0000,0.0000,-0.1831,-0.1315,-0.1702,-10.5691,0.0150,-0.0053,-0.0020,0.0000,0.0000,0.0000,0.0000,0.0000,0.0000,0.0000,0.0000,0.0000,0.0000,0.0000,0.0000,0.0000,0.0000,1.0000,0.0000,0.0000,0.0000,0.0000,0.0000,0.0000,0.0000,0.0000,0.0000,0.0000,0.0000,0.0000,0.0000,0.0000,0.0000,0.0000,0.0000,0.0000,-0.1000,-0.1000,-0.1000,-0.1000,4
