loop_index, counter, last_step_ns, T_ref, theta_ref, phi_ref, uwind, vwind, wwind, rho, rpm1, rpm2, rpm3, rpm4,v_batt,alt,gyro_roll,gyro_pitch,gyro_yaw,accel_X,accel_Y,accel_Z,roll,pitch,yaw,X,Y,Z,Xdot,Ydot,Zdot,x0,y0,z0,e.xbee_time,xbee_time_received_ns,xbee_x,xbee_y,xbee_z,xbee_qw,xbee_qx,xbee_qy,xbee_qz,sp_roll,sp_pitch,sp_yaw,sp_X,sp_Y,sp_Z,sp_Xdot,sp_Ydot,sp_Zdot,u_roll,u_pitch,u_yaw,u_X,u_Y,u_Z,mot_1,mot_2,mot_3,mot_4,flight mode
1,69,3651514005883,-10.4379,-0.1810,0.0912,0.0310,0.0610,-0.0290,1.1651,5236.5234,5050.5859,4934.3750,5027.3438,11.9587,0.0000,-0.6104,6.7749,0.4272,8.2201,-6.5279,-19.0713,0.0205,-0.0129,-0.0064,0.0000,0.0000,0.0000,0.0000,0.0000,0.0000,0.0000,0.0000,0.0000,0.0000,0.0000,0.0000,0.0000,0.0000,1.0000,0.0000,0.0000,0.0000,-0.1810,0.0912,0.0000,0.0000,0.0000,0.0000,0.0000,0.0000,-0.0000,-0.0000,0.0000,0.0000,0.0000,0.0000,-0.5683,0.5442,0.5223,0.5087,0.5196,4
2,70,3651518742734,-10.4379,-0.1810,0.0912,0.0310,0.0610,-0.0290,1.1651,5236.5234,5050.5859,4934.3750,5027.3438,11.9640,0.0000,3.4790,-6.7139,-0.6714,-16.9542,-3.7542,21.0404,0.0238,-0.0158,-0.0063,0.0000,0.0000,0.0000,0.0000,0.0000,0.0000,0.0000,0.0000,0.0000,0.0000,0.0000,0.0000,0.0000,0.0000,1.0000,0.0000,0.0000,0.0000,-0.1810,0.0912,0.0000,0.0000,0.0000,0.0000,0.0000,0.0000,-0.0000,-0.0020,0.0020,0.0020,0.0000,0.0000,-0.5683,0.5442,0.5223,0.5087,0.5196,4
3,71,3651522387798,-10.4379,-0.1810,0.0912,0.0310,0.0610,-0.0290,1.1651,5236.5234,5050.5859,4934.3750,5027.3438,11.9696,0.0000,-4.2725,5.4321,0.7935,5.6116,5.4132,-28.8289,0.0197,-0.0144,-0.0063,0.0000,0.0000,0.0000,0.0000,0.0000,0.0000,0.0000,0.0000,0.0000,0.0000,0.0000,0.0000,0.0000,0.0000,1.0000,0.0000,0.0000,0.0000,-0.1810,0.0912,0.0000,0.0000,0.0000,0.0000,0.0000,0.0000,-0.0000,0.0040,0.0025,0.0040,0.0000,0.0000,-0.5683,0.5442,0.5223,0.5087,0.5196,4
4,72,3651526625583,-10.4379,-0.1810,0.0912,0.0310,0.0610,-0.0290,1.1651,5236.5234,5050.5859,4934.3750,5027.3438,11.9742,0.0000,-1.8311,1.7700,0.6714,-1.7813,-8.3307,-2.9287,0.0190,-0.0137,-0.0062,0.0000,0.0000,0.0000,0.0000,0.0000,0.0000,0.0000,0.0000,0.0000,0.0000,0.0000,0.0000,0.0000,0.0000,1.0000,0.0000,0.0000,0.0000,-0.1810,0.0912,0.0000,0.0000,0.0000,0.0000,0.0000,0.0000,-0.0000,-0.0060,0.0060,0.0056,0.0000,0.0000,-0.5683,0.5442,0.5223,0.5087,0.5196,4
5,73,3651531544204,-10.4379,-0.1810,0.0912,0.0310,0.0610,-0.0290,1.1651,5236.5234,5050.5859,4934.3750,5027.3438,11.9790,0.0000,1.9531,-2.3804,0.7324,-6.6157,-21.5113,9.4091,0.0200,-0.0140,-0.0062,0.0000,0.0000,0.0000,0.0000,0.0000,0.0000,0.0000,0.0000,0.0000,0.0000,0.0000,0.0000,0.0000,0.0000,1.0000,0.0000,0.0000,0.0000,-0.1810,0.0912,0.0000,0.0000,0.0000,0.0000,0.0000,0.0000,-0.0000,-0.0080,0.0080,0.0070,0.0000,0.0000,-0.5683,0.5442,0.5223,0.5087,0.5196,4
6,74,3651558286716,-10.4379,-0.1810,0.0912,0.0310,0.0610,-0.0290,1.1651,5050.5859,5027.3438,5027.3438,5027.3438,11.9824,0.0000,4.2725,-3.5400,-0.6714,-3.4071,-17.4910,5.4230,0.0225,-0.0150,-0.0063,0.0000,0.0000,0.0000,0.0000,0.0000,0.0000,0.0000,0.0000,0.0000,0.0000,0.0000,0.0000,0.0000,0.0000,1.0000,0.0000,0.0000,0.0000,-0.1810,0.0912,0.0000,0.0000,0.0000,0.0000,0.0000,0.0000,-0.0000,-0.0100,0.0100,0.0094,0.0000,0.0000,-0.5683,0.5223,0.5196,0.5196,0.5196,4
7,75,3651562068389,-10.4379,-0.1810,0.0912,0.0310,0.0610,-0.0290,1.1651,5050.5859,5027.3438,5027.3438,5027.3438,11.9875,0.0000,-2.1973,2.1362,0.2441,-3.2015,17.3232,-8.6024,0.0239,-0.0154,-0.0063,0.0000,0.0000,0.0000,0.0000,0.0000,0.0000,0.0000,0.0000,0.0000,0.0000,0.0000,0.0000,0.0000,0.0000,1.0000,0.0000,0.0000,0.0000,-0.1810,0.0912,0.0000,0.0000,0.0000,0.0000,0.0000,0.0000,-0.0000,-0.0120,0.0120,0.0109,0.0000,0.0000,-0.5683,0.5223,0.5196,0.5196,0.5196,4
8,76,3651567395044,-10.4379,-0.1810,0.0912,0.0310,0.0610,-0.0290,1.1651,5050.5859,5027.3438,5027.3438,5027.3438,11.9916,0.0000,-1.7700,-0.6714,-0.9155,10.8860,-8.2900,-26.0314,0.0193,-0.0158,-0.0064,0.0000,0.0000,0.0000,0.0000,0.0000,0.0000,0.0000,0.0000,0.0000,0.0000,0.0000,0.0000,0.0000,0.0000,1.0000,0.0000,0.0000,0.0000,-0.1810,0.0912,0.0000,0.0000,0.0000,0.0000,0.0000,0.0000,-0.0000,0.0017,0.0140,0.0129,0.0000,0.0000,-0.5683,0.5223,0.5196,0.5196,0.5196,4
9,77,3651599937821,-10.4379,-0.1810,0.0912,0.0310,0.0610,-0.0290,1.1651,5073.8281,5027.3438,5050.5859,5050.5859,11.9962,0.0000,1.1597,0.6714,1.1597,12.0169,-16.2899,-25.2223,0.0202,-0.0146,-0.0063,0.0000,0.0000,0.0000,0.0000,0.0000,0.0000,0.0000,0.0000,0.0000,0.0000,0.0000,0.0000,0.0000,0.0000,1.0000,0.0000,0.0000,0.0000,-0.1810,0.0912,0.0000,0.0000,0.0000,0.0000,0.0000,0.0000,-0.0000,-0.0160,0.0119,0.0129,0.0000,0.0000,-0.5683,0.5251,0.5196,0.5223,0.5223,4
10,78,3651657994716,-10.4379,-0.1810,0.0912,0.0310,0.0610,-0.0290,1.1651,5073.8281,5027.3438,5050.5859,5050.5859,12.0003,0.0000,-1.0376,-5.4932,-0.7324,3.8805,-11.6726,-9.5786,0.0200,-0.0172,-0.0067,0.0000,0.0000,0.0000,0.0000,0.0000,0.0000,0.0000,0.0000,0.0000,0.0000,0.0000,0.0000,0.0000,0.0000,1.0000,0.0000,0.0000,0.0000,-0.1810,0.0912,0.0000,0.0000,0.0000,0.0000,0.0000,0.0000,-0.0000,-0.0180,0.0180,0.0169,0.0000,0.0000,-0.5683,0.5251,0.5196,0.5223,0.5223,4
11,79,3651661585495,-10.4379,-0.1810,0.0912,0.0310,0.0610,-0.0290,1.1651,5073.8281,5027.3438,5050.5859,5050.5859,12.0029,0.0000,0.8545,-2.6855,-0.8545,16.3110,-16.8053,-31.6215,0.0212,-0.0171,-0.0068,0.0000,0.0000,0.0000,0.0000,0.0000,0.0000,0.0000,0.0000,0.0000,0.0000,0.0000,0.0000,0.0000,0.0000,1.0000,0.0000,0.0000,0.0000,-0.1810,0.0912,0.0000,0.0000,0.0000,0.0000,0.0000,0.0000,-0.0000,-0.0200,0.0200,0.0181,0.0000,0.0000,-0.5683,0.5251,0.5196,0.5223,0.5223,4
12,80,3651666458329,-10.4379,-0.1810,0.0912,0.0310,0.0610,-0.0290,1.1651,5073.8281,5027.3438,5050.5859,5050.5859,12.0066,0.0000,2.1362,1.5259,-1.3428,18.2142,-13.1734,-43.5154,0.0230,-0.0153,-0.0069,0.0000,0.0000,0.0000,0.0000,0.0000,0.0000,0.0000,0.0000,0.0000,0.0000,0.0000,0.0000,0.0000,0.0000,1.0000,0.0000,0.0000,0.0000,-0.1810,0.0912,0.0000,0.0000,0.0000,0.0000,0.0000,0.0000,-0.0000,-0.0220,0.0124,0.0194,0.0000,0.0000,-0.5683,0.5251,0.5196,0.5223,0.5223,4
13,81,3651671443817,-10.4379,-0.1810,0.0912,0.0310,0.0610,-0.0290,1.1651,5073.8281,5027.3438,5050.5859,5050.5859,12.0097,0.0000,1.5259,4.2114,-0.1221,5.8578,-3.4402,-30.5092,0.0243,-0.0131,-0.0070,0.0000,0.0000,0.0000,0.0000,0.0000,0.0000,0.0000,0.0000,0.0000,0.0000,0.0000,0.0000,0.0000,0.0000,1.0000,0.0000,0.0000,0.0000,-0.1810,0.0912,0.0000,0.0000,0.0000,0.0000,0.0000,0.0000,-0.0000,-0.0240,0.0044,0.0196,0.0000,0.0000,-0.5683,0.5251,0.5196,0.5223,0.5223,4
14,82,3651676804593,-10.4379,-0.1810,0.0912,0.0310,0.0610,-0.0290,1.1651,5073.8281,5027.3438,5050.5859,5050.5859,12.0126,0.0000,0.7324,3.3569,-0.3662,-9.8674,3.3203,-1.1385,0.0246,-0.0122,-0.0070,0.0000,0.0000,0.0000,0.0000,0.0000,0.0000,0.0000,0.0000,0.0000,0.0000,0.0000,0.0000,0.0000,0.0000,1.0000,0.0000,0.0000,0.0000,-0.1810,0.0912,0.0000,0.0000,0.0000,0.0000,0.0000,0.0000,-0.0000,-0.0260,0.0066,0.0199,0.0000,0.0000,-0.5683,0.5251,0.5196,0.5223,0.5223,4
15,83,3651681498449,-10.4379,-0.1810,0.0912,0.0310,0.0610,-0.0290,1.1651,5073.8281,5027.3438,5050.5859,5050.5859,12.0153,0.0000,0.3052,-1.2207,0.1221,-19.2639,6.1108,23.8641,0.0243,-0.0132,-0.0070,0.0000,0.0000,0.0000,0.0000,0.0000,0.0000,0.0000,0.0000,0.0000,0.0000,0.0000,0.0000,0.0000,0.0000,1.0000,0.0000,0.0000,0.0000,-0.1810,0.0912,0.0000,0.0000,0.0000,0.0000,0.0000,0.0000,-0.0000,-0.0280,0.0200,0.0197,0.0000,0.0000,-0.5683,0.5251,0.5196,0.5223,0.5223,4
16,84,3651686481686,-10.4379,-0.1810,0.0912,0.0310,0.0610,-0.0290,1.1651,5073.8281,5027.3438,5050.5859,5050.5859,12.0167,0.0000,-0.0610,-4.3945,-0.1831,-15.5985,7.3311,28.9864,0.0238,-0.0155,-0.0070,0.0000,0.0000,0.0000,0.0000,0.0000,0.0000,0.0000,0.0000,0.0000,0.0000,0.0000,0.0000,0.0000,0.0000,1.0000,0.0000,0.0000,0.0000,-0.1810,0.0912,0.0000,0.0000,0.0000,0.0000,0.0000,0.0000,-0.0000,-0.0300,0.0300,0.0199,0.0000,0.0000,-0.5683,0.5251,0.5196,0.5223,0.5223,4
17,85,3651691774012,-10.4379,-0.1810,0.0912,0.0310,0.0610,-0.0290,1.1651,5073.8281,5027.3438,5050.5859,5050.5859,12.0191,0.0000,0.3052,-4.3335,-0.0610,-2.6946,6.3218,10.5071,0.0232,-0.0174,-0.0070,0.0000,0.0000,0.0000,0.0000,0.0000,0.0000,0.0000,0.0000,0.0000,0.0000,0.0000,0.0000,0.0000,0.0000,1.0000,0.0000,0.0000,0.0000,-0.1810,0.0912,0.0000,0.0000,0.0000,0.0000,0.0000,0.0000,-0.0000,-0.0320,0.0320,0.0199,0.0000,0.0000,-0.5683,0.5251,0.5196,0.5223,0.5223,4
18,86,3651696653846,-10.4379,-0.1810,0.0912,0.0310,0.0610,-0.0290,1.1651,5073.8281,5027.3438,5050.5859,5050.5859,12.0216,0.0000,-0.7324,-0.1221,0.4883,10.2524,5.2933,-18.8636,0.0225,-0.0177,-0.0070,0.0000,0.0000,0.0000,0.0000,0.0000,0.0000,0.0000,0.0000,0.0000,0.0000,0.0000,0.0000,0.0000,0.0000,1.0000,0.0000,0.0000,0.0000,-0.1810,0.0912,0.0000,0.0000,0.0000,0.0000,0.0000,0.0000,-0.0000,-0.0340,0.0331,0.0194,0.0000,0.0000,-0.5683,0.5251,0.5196,0.5223,0.5223,4
19,87,3651701727364,-10.4379,-0.1810,0.0912,0.0310,0.0610,-0.0290,1.1651,5073.8281,5027.3438,5050.5859,5050.5859,12.0237,0.0000,-1.2817,1.7700,0.6104,12.5596,0.2877,-38.5984,0.0219,-0.0165,-0.0069,0.0000,0.0000,0.0000,0.0000,0.0000,0.0000,0.0000,0.0000,0.0000,0.0000,0.0000,0.0000,0.0000,0.0000,1.0000,0.0000,0.0000,0.0000,-0.1810,0.0912,0.0000,0.0000,0.0000,0.0000,0.0000,0.0000,-0.0000,-0.0360,0.0250,0.0189,0.0000,0.0000,-0.5683,0.5251,0.5196,0.5223,0.5223,4
20,88,3651706977112,-10.4379,-0.1810,0.0912,0.0310,0.0610,-0.0290,1.1651,5073.8281,5027.3438,5050.5859,5050.5859,12.0247,0.0000,-1.6479,2.9907,1.0986,6.5345,-3.4210,-39.4815,0.0216,-0.0150,-0.0068,0.0000,0.0000,0.0000,0.0000,0.0000,0.0000,0.0000,0.0000,0.0000,0.0000,0.0000,0.0000,0.0000,0.0000,1.0000,0.0000,0.0000,0.0000,-0.1810,0.0912,0.0000,0.0000,0.0000,0.0000,0.0000,0.0000,-0.0000,-0.0380,0.0171,0.0181,0.0000,0.0000,-0.5683,0.5251,0.5196,0.5223,0.5223,4
21,89,3651711466200,-10.4379,-0.1810,0.0912,0.0310,0.0610,-0.0290,1.1651,5073.8281,5027.3438,5050.5859,5050.5859,12.0269,0.0000,-0.7324,1.4038,-0.3662,-0.4495,-9.2154,-29.6810,0.0218,-0.0142,-0.0069,0.0000,0.0000,0.0000,0.0000,0.0000,0.0000,0.0000,0.0000,0.0000,0.0000,0.0000,0.0000,0.0000,0.0000,1.0000,0.0000,0.0000,0.0000,-0.1810,0.0912,0.0000,0.0000,0.0000,0.0000,0.0000,0.0000,-0.0000,-0.0400,0.0160,0.0185,0.0000,0.0000,-0.5683,0.5251,0.5196,0.5223,0.5223,4
22,90,3651716472602,-10.4379,-0.1810,0.0912,0.0310,0.0610,-0.0290,1.1651,5073.8281,5027.3438,5050.5859,5050.5859,12.0283,0.0000,1.4648,-2.7466,0.1221,-1.5876,-10.9630,-17.8969,0.0228,-0.0144,-0.0069,0.0000,0.0000,0.0000,0.0000,0.0000,0.0000,0.0000,0.0000,0.0000,0.0000,0.0000,0.0000,0.0000,0.0000,1.0000,0.0000,0.0000,0.0000,-0.1810,0.0912,0.0000,0.0000,0.0000,0.0000,0.0000,0.0000,-0.0000,-0.0420,0.0216,0.0187,0.0000,0.0000,-0.5683,0.5251,0.5196,0.5223,0.5223,4
23,91,3651721574825,-10.4379,-0.1810,0.0912,0.0410,0.0610,-0.0190,1.1651,5073.8281,5027.3438,5050.5859,5050.5859,12.0303,0.0000,2.1362,-2.3193,-1.5869,1.5159,-5.5091,-9.4306,0.0240,-0.0147,-0.0070,0.0000,0.0000,0.0000,0.0000,0.0000,0.0000,0.0000,0.0000,0.0000,0.0000,0.0000,0.0000,0.0000,0.0000,1.0000,0.0000,0.0000,0.0000,-0.1810,0.0912,0.0000,0.0000,0.0000,0.0000,0.0000,0.0000,-0.0000,-0.0440,0.0260,0.0202,0.0000,0.0000,-0.5683,0.5251,0.5196,0.5223,0.5223,4
24,92,3651755116275,-10.4810,-0.1510,0.1007,0.0410,0.0610,-0.0190,1.1651,5097.0703,5027.3438,4980.8594,4980.8594,12.0315,0.0000,2.0142,-0.1831,0.3662,1.2887,3.8885,-1.7544,0.0247,-0.0146,-0.0070,0.0000,0.0000,0.0000,0.0000,0.0000,0.0000,0.0000,0.0000,0.0000,0.0000,0.0000,0.0000,0.0000,0.0000,1.0000,0.0000,0.0000,0.0000,-0.1510,0.1007,0.0000,0.0000,0.0000,0.0000,0.0000,0.0000,-0.0000,0.0460,0.0460,0.0199,0.0000,0.0000,-0.5705,0.5278,0.5196,0.5141,0.5141,4
25,93,3651812683020,-10.4810,-0.1510,0.1007,0.0410,0.0610,-0.0190,1.1651,5050.5859,4934.3750,5050.5859,5073.8281,12.0332,0.0000,-0.5493,-0.8545,0.2441,2.8189,-8.8246,-9.1991,0.0227,-0.0147,-0.0071,0.0000,0.0000,0.0000,0.0000,0.0000,0.0000,0.0000,0.0000,0.0000,0.0000,0.0000,0.0000,0.0000,0.0000,1.0000,0.0000,0.0000,0.0000,-0.1510,0.1007,0.0000,0.0000,0.0000,0.0000,0.0000,0.0000,-0.0000,0.0286,0.0423,0.0202,0.0000,0.0000,-0.5705,0.5223,0.5087,0.5223,0.5251,4
26,94,3651816838107,-10.4810,-0.1510,0.1007,0.0410,0.0610,-0.0190,1.1651,5050.5859,4934.3750,5050.5859,5073.8281,12.0346,0.0000,2.9907,0.6714,0.4883,0.5380,-11.2075,3.1077,0.0238,-0.0144,-0.0070,0.0000,0.0000,0.0000,0.0000,0.0000,0.0000,0.0000,0.0000,0.0000,0.0000,0.0000,0.0000,0.0000,0.0000,1.0000,0.0000,0.0000,0.0000,-0.1510,0.1007,0.0000,0.0000,0.0000,0.0000,0.0000,0.0000,-0.0000,-0.0021,0.0369,0.0199,0.0000,0.0000,-0.5705,0.5223,0.5087,0.5223,0.5251,4
27,95,3651821475136,-10.4810,-0.1510,0.1007,0.0410,0.0610,-0.0190,1.1651,5050.5859,4934.3750,5050.5859,5073.8281,12.0353,0.0000,4.0894,1.7700,0.7324,-6.0108,-7.1033,14.9061,0.0252,-0.0142,-0.0070,0.0000,0.0000,0.0000,0.0000,0.0000,0.0000,0.0000,0.0000,0.0000,0.0000,0.0000,0.0000,0.0000,0.0000,1.0000,0.0000,0.0000,0.0000,-0.1510,0.1007,0.0000,0.0000,0.0000,0.0000,0.0000,0.0000,-0.0000,-0.0254,0.0341,0.0194,0.0000,0.0000,-0.5705,0.5223,0.5087,0.5223,0.5251,4
28,96,3651826449916,-10.4810,-0.1510,0.1007,0.0410,0.0610,-0.0190,1.1651,5050.5859,4934.3750,5050.5859,5073.8281,12.0368,0.0000,2.3193,2.6855,1.2817,-11.6869,-0.8127,21.6252,0.0261,-0.0145,-0.0069,0.0000,0.0000,0.0000,0.0000,0.0000,0.0000,0.0000,0.0000,0.0000,0.0000,0.0000,0.0000,0.0000,0.0000,1.0000,0.0000,0.0000,0.0000,-0.1510,0.1007,0.0000,0.0000,0.0000,0.0000,0.0000,0.0000,-0.0000,-0.0384,0.0356,0.0185,0.0000,0.0000,-0.5705,0.5223,0.5087,0.5223,0.5251,4
29,97,3651831747116,-10.4810,-0.1510,0.1007,0.0410,0.0610,-0.0190,1.1651,5050.5859,4934.3750,5050.5859,5073.8281,12.0378,0.0000,0.3662,0.1221,-0.7324,-13.6260,7.1417,13.4024,0.0263,-0.0157,-0.0070,0.0000,0.0000,0.0000,0.0000,0.0000,0.0000,0.0000,0.0000,0.0000,0.0000,0.0000,0.0000,0.0000,0.0000,1.0000,0.0000,0.0000,0.0000,-0.1510,0.1007,0.0000,0.0000,0.0000,0.0000,0.0000,0.0000,-0.0000,-0.0428,0.0414,0.0192,0.0000,0.0000,-0.5705,0.5223,0.5087,0.5223,0.5251,4
30,98,3651836470427,-10.4810,-0.1510,0.1007,0.0410,0.0610,-0.0190,1.1651,5050.5859,4934.3750,5050.5859,5073.8281,12.0387,0.0000,-1.4648,-5.1880,-1.4038,-5.9893,10.3901,-11.2972,0.0255,-0.0174,-0.0071,0.0000,0.0000,0.0000,0.0000,0.0000,0.0000,0.0000,0.0000,0.0000,0.0000,0.0000,0.0000,0.0000,0.0000,1.0000,0.0000,0.0000,0.0000,-0.1510,0.1007,0.0000,0.0000,0.0000,0.0000,0.0000,0.0000,-0.0000,-0.0401,0.0493,0.0203,0.0000,0.0000,-0.5705,0.5223,0.5087,0.5223,0.5251,4
31,99,3651841478412,-10.4810,-0.1510,0.1007,0.0410,0.0610,-0.0190,1.1651,5050.5859,4934.3750,5050.5859,5073.8281,12.0397,0.0000,-2.8687,-4.6997,-1.5259,7.6510,13.1590,-41.2264,0.0243,-0.0184,-0.0072,0.0000,0.0000,0.0000,0.0000,0.0000,0.0000,0.0000,0.0000,0.0000,0.0000,0.0000,0.0000,0.0000,0.0000,1.0000,0.0000,0.0000,0.0000,-0.1510,0.1007,0.0000,0.0000,0.0000,0.0000,0.0000,0.0000,-0.0000,-0.0351,0.0499,0.0213,0.0000,0.0000,-0.5705,0.5223,0.5087,0.5223,0.5251,4
32,100,3651847092449,-10.4810,-0.1510,0.1007,0.0410,0.0610,-0.0190,1.1651,5050.5859,4934.3750,5050.5859,5073.8281,12.0402,0.0000,-2.7466,-1.9531,-1.8921,18.1138,5.6313,-59.7224,0.0227,-0.0178,-0.0074,0.0000,0.0000,0.0000,0.0000,0.0000,0.0000,0.0000,0.0000,0.0000,0.0000,0.0000,0.0000,0.0000,0.0000,1.0000,0.0000,0.0000,0.0000,-0.1510,0.1007,0.0000,0.0000,0.0000,0.0000,0.0000,0.0000,-0.0000,-0.0297,0.0406,0.0224,0.0000,0.0000,-0.5705,0.5223,0.5087,0.5223,0.5251,4
33,101,3651851538834,-10.4810,-0.1510,0.1007,0.0410,0.0610,-0.0190,1.1651,5050.5859,4934.3750,5050.5859,5073.8281,12.0407,0.0000,-2.0752,4.0894,1.7090,17.4898,-0.9326,-47.6399,0.0218,-0.0155,-0.0072,0.0000,0.0000,0.0000,0.0000,0.0000,0.0000,0.0000,0.0000,0.0000,0.0000,0.0000,0.0000,0.0000,0.0000,1.0000,0.0000,0.0000,0.0000,-0.1510,0.1007,0.0000,0.0000,0.0000,0.0000,0.0000,0.0000,-0.0000,-0.0303,0.0247,0.0207,0.0000,0.0000,-0.5705,0.5223,0.5087,0.5223,0.5251,4
34,102,3651856576357,-10.4810,-0.1510,0.1007,0.0410,0.0610,-0.0190,1.1651,5050.5859,4934.3750,5050.5859,5073.8281,12.0414,0.0000,-1.2207,6.2256,1.2207,4.0790,-10.7904,-10.2040,0.0217,-0.0132,-0.0071,0.0000,0.0000,0.0000,0.0000,0.0000,0.0000,0.0000,0.0000,0.0000,0.0000,0.0000,0.0000,0.0000,0.0000,1.0000,0.0000,0.0000,0.0000,-0.1510,0.1007,0.0000,0.0000,0.0000,0.0000,0.0000,0.0000,-0.0000,-0.0351,0.0130,0.0196,0.0000,0.0000,-0.5705,0.5223,0.5087,0.5223,0.5251,4
35,103,3651861664457,-10.4810,-0.1510,0.1007,0.0410,0.0610,-0.0190,1.1651,5050.5859,4934.3750,5050.5859,5073.8281,12.0419,0.0000,0.9766,2.2583,2.0142,-9.7192,-17.5701,30.0104,0.0228,-0.0126,-0.0069,0.0000,0.0000,0.0000,0.0000,0.0000,0.0000,0.0000,0.0000,0.0000,0.0000,0.0000,0.0000,0.0000,0.0000,1.0000,0.0000,0.0000,0.0000,-0.1510,0.1007,0.0000,0.0000,0.0000,0.0000,0.0000,0.0000,-0.0000,-0.0458,0.0152,0.0182,0.0000,0.0000,-0.5705,0.5223,0.5087,0.5223,0.5251,4
36,104,3651866768931,-10.4810,-0.1510,0.1007,0.0410,0.0610,-0.0190,1.1651,5050.5859,4934.3750,5050.5859,5073.8281,12.0428,0.0000,3.8452,-1.7090,-0.0000,-18.5753,-19.8308,44.9070,0.0249,-0.0137,-0.0070,0.0000,0.0000,0.0000,0.0000,0.0000,0.0000,0.0000,0.0000,0.0000,0.0000,0.0000,0.0000,0.0000,0.0000,1.0000,0.0000,0.0000,0.0000,-0.1510,0.1007,0.0000,0.0000,0.0000,0.0000,0.0000,0.0000,-0.0000,-0.0592,0.0271,0.0186,0.0000,0.0000,-0.5705,0.5223,0.5087,0.5223,0.5251,4
37,105,3651871404460,-10.4810,-0.1510,0.1007,0.0410,0.0610,-0.0190,1.1651,5050.5859,4934.3750,5050.5859,5073.8281,12.0436,0.0000,4.6997,-6.1035,-1.1597,-12.1819,-4.9121,18.9089,0.0274,-0.0161,-0.0071,0.0000,0.0000,0.0000,0.0000,0.0000,0.0000,0.0000,0.0000,0.0000,0.0000,0.0000,0.0000,0.0000,0.0000,1.0000,0.0000,0.0000,0.0000,-0.1510,0.1007,0.0000,0.0000,0.0000,0.0000,0.0000,0.0000,-0.0000,-0.0707,0.0430,0.0200,0.0000,0.0000,-0.5705,0.5223,0.5087,0.5223,0.5251,4
38,106,3651876496893,-10.4810,-0.1510,0.1007,0.0410,0.0610,-0.0190,1.1651,5050.5859,4934.3750,5050.5859,5073.8281,12.0440,0.0000,2.6245,-5.1270,-2.0142,0.9062,13.6360,-20.0737,0.0281,-0.0178,-0.0073,0.0000,0.0000,0.0000,0.0000,0.0000,0.0000,0.0000,0.0000,0.0000,0.0000,0.0000,0.0000,0.0000,0.0000,1.0000,0.0000,0.0000,0.0000,-0.1510,0.1007,0.0000,0.0000,0.0000,0.0000,0.0000,0.0000,-0.0000,-0.0686,0.0496,0.0216,0.0000,0.0000,-0.5705,0.5223,0.5087,0.5223,0.5251,4
39,107,3651881801717,-10.4810,-0.1510,0.1007,0.0410,0.0610,-0.0190,1.1651,5050.5859,4934.3750,5050.5859,5073.8281,12.0445,0.0000,-2.2583,-0.7935,1.2207,7.4908,24.0836,-40.9089,0.0266,-0.0177,-0.0072,0.0000,0.0000,0.0000,0.0000,0.0000,0.0000,0.0000,0.0000,0.0000,0.0000,0.0000,0.0000,0.0000,0.0000,1.0000,0.0000,0.0000,0.0000,-0.1510,0.1007,0.0000,0.0000,0.0000,0.0000,0.0000,0.0000,-0.0000,-0.0532,0.0440,0.0203,0.0000,0.0000,-0.5705,0.5223,0.5087,0.5223,0.5251,4
40,108,3651886382628,-10.4810,-0.1510,0.1007,0.0410,0.0610,-0.0190,1.1651,5050.5859,4934.3750,5050.5859,5073.8281,12.0453,0.0000,-4.6387,3.2959,0.1221,4.7986,20.6195,-39.3503,0.0237,-0.0166,-0.0071,0.0000,0.0000,0.0000,0.0000,0.0000,0.0000,0.0000,0.0000,0.0000,0.0000,0.0000,0.0000,0.0000,0.0000,1.0000,0.0000,0.0000,0.0000,-0.1510,0.1007,0.0000,0.0000,0.0000,0.0000,0.0000,0.0000,-0.0000,-0.0348,0.0338,0.0198,0.0000,0.0000,-0.5705,0.5223,0.5087,0.5223,0.5251,4
41,109,3651891343535,-10.4810,-0.1510,0.1007,0.0410,0.0610,-0.0190,1.1651,5050.5859,4934.3750,5050.5859,5073.8281,12.0453,0.0000,-4.3335,3.3569,2.6245,0.7029,6.2786,-22.7566,0.0213,-0.0158,-0.0069,0.0000,0.0000,0.0000,0.0000,0.0000,0.0000,0.0000,0.0000,0.0000,0.0000,0.0000,0.0000,0.0000,0.0000,1.0000,0.0000,0.0000,0.0000,-0.1510,0.1007,0.0000,0.0000,0.0000,0.0000,0.0000,0.0000,-0.0000,-0.0241,0.0284,0.0175,0.0000,0.0000,-0.5705,0.5223,0.5087,0.5223,0.5251,4
42,110,3651896515334,-10.4810,-0.1510,0.1007,0.0410,0.0610,-0.0190,1.1651,5050.5859,4934.3750,5050.5859,5073.8281,12.0457,0.0000,-1.6479,0.2441,0.5493,-1.9151,-10.9271,-6.1725,0.0205,-0.0157,-0.0068,0.0000,0.0000,0.0000,0.0000,0.0000,0.0000,0.0000,0.0000,0.0000,0.0000,0.0000,0.0000,0.0000,0.0000,1.0000,0.0000,0.0000,0.0000,-0.1510,0.1007,0.0000,0.0000,0.0000,0.0000,0.0000,0.0000,-0.0000,-0.0267,0.0288,0.0173,0.0000,0.0000,-0.5705,0.5223,0.5087,0.5223,0.5251,4
43,111,3651901994804,-10.4810,-0.1510,0.1007,0.0410,0.0610,-0.0190,1.1651,5050.5859,4934.3750,5050.5859,5073.8281,12.0462,0.0000,2.0752,-2.0752,-0.0610,1.5278,-23.8919,-5.1796,0.0217,-0.0160,-0.0068,0.0000,0.0000,0.0000,0.0000,0.0000,0.0000,0.0000,0.0000,0.0000,0.0000,0.0000,0.0000,0.0000,0.0000,1.0000,0.0000,0.0000,0.0000,-0.1510,0.1007,0.0000,0.0000,0.0000,0.0000,0.0000,0.0000,-0.0000,-0.0407,0.0320,0.0178,0.0000,0.0000,-0.5705,0.5223,0.5087,0.5223,0.5251,4
44,112,3651906446105,-10.4810,-0.1510,0.1007,0.0410,0.0610,-0.0190,1.1651,5050.5859,4934.3750,5050.5859,5073.8281,12.0469,0.0000,3.8452,-2.9907,-0.7935,5.5231,-17.9465,-13.2091,0.0244,-0.0161,-0.0070,0.0000,0.0000,0.0000,0.0000,0.0000,0.0000,0.0000,0.0000,0.0000,0.0000,0.0000,0.0000,0.0000,0.0000,1.0000,0.0000,0.0000,0.0000,-0.1510,0.1007,0.0000,0.0000,0.0000,0.0000,0.0000,0.0000,-0.0000,-0.0589,0.0327,0.0190,0.0000,0.0000,-0.5705,0.5223,0.5087,0.5223,0.5251,4
45,113,3651911447966,-10.4810,-0.1510,0.1007,0.0410,0.0610,-0.0190,1.1651,5050.5859,4934.3750,5050.5859,5073.8281,12.0462,0.0000,3.1128,0.0610,-1.4648,5.7646,-3.5241,-14.0898,0.0263,-0.0156,-0.0071,0.0000,0.0000,0.0000,0.0000,0.0000,0.0000,0.0000,0.0000,0.0000,0.0000,0.0000,0.0000,0.0000,0.0000,1.0000,0.0000,0.0000,0.0000,-0.1510,0.1007,0.0000,0.0000,0.0000,0.0000,0.0000,0.0000,-0.0000,-0.0676,0.0291,0.0204,0.0000,0.0000,-0.5705,0.5223,0.5087,0.5223,0.5251,4
46,114,3651916761373,-10.4810,-0.1510,0.1007,0.0410,0.0610,-0.0190,1.1651,5050.5859,4934.3750,5050.5859,5073.8281,12.0465,0.0000,1.1597,4.2725,0.2441,-6.1591,11.8261,-5.5782,0.0268,-0.0146,-0.0071,0.0000,0.0000,0.0000,0.0000,0.0000,0.0000,0.0000,0.0000,0.0000,0.0000,0.0000,0.0000,0.0000,0.0000,1.0000,0.0000,0.0000,0.0000,-0.1510,0.1007,0.0000,0.0000,0.0000,0.0000,0.0000,0.0000,-0.0000,-0.0643,0.0243,0.0201,0.0000,0.0000,-0.5705,0.5223,0.5087,0.5223,0.5251,4
47,115,3651921511097,-10.4810,-0.1510,0.1007,0.0310,0.0710,-0.0290,1.1651,5050.5859,4934.3750,5050.5859,5073.8281,12.0469,0.0000,-1.2207,2.3804,-0.4883,-17.6284,17.6971,4.3776,0.0255,-0.0150,-0.0071,0.0000,0.0000,0.0000,0.0000,0.0000,0.0000,0.0000,0.0000,0.0000,0.0000,0.0000,0.0000,0.0000,0.0000,1.0000,0.0000,0.0000,0.0000,-0.1510,0.1007,0.0000,0.0000,0.0000,0.0000,0.0000,0.0000,-0.0000,-0.0519,0.0289,0.0202,0.0000,0.0000,-0.5705,0.5223,0.5087,0.5223,0.5251,4
48,116,3651926386805,-10.4810,-0.1510,0.1007,0.0310,0.0710,-0.0290,1.1651,5050.5859,4934.3750,5050.5859,5073.8281,12.0467,0.0000,-2.8687,-4.8828,0.6104,-13.3654,15.1847,5.2130,0.0236,-0.0171,-0.0071,0.0000,0.0000,0.0000,0.0000,0.0000,0.0000,0.0000,0.0000,0.0000,0.0000,0.0000,0.0000,0.0000,0.0000,1.0000,0.0000,0.0000,0.0000,-0.1510,0.1007,0.0000,0.0000,0.0000,0.0000,0.0000,0.0000,-0.0000,-0.0392,0.0428,0.0196,0.0000,0.0000,-0.5705,0.5223,0.5087,0.5223,0.5251,4
49,117,3651955990476,-10.4488,-0.1812,0.0785,0.0310,0.0710,-0.0290,1.1651,5143.5547,5050.5859,5004.1016,5050.5859,12.0467,0.0000,-2.4414,-5.0659,-0.7324,2.9504,5.0704,-9.1871,0.0219,-0.0188,-0.0071,0.0000,0.0000,0.0000,0.0000,0.0000,0.0000,0.0000,0.0000,0.0000,0.0000,0.0000,0.0000,0.0000,0.0000,1.0000,0.0000,0.0000,0.0000,-0.1812,0.0785,0.0000,0.0000,0.0000,0.0000,0.0000,0.0000,-0.0000,-0.0960,-0.0847,0.0200,0.0000,0.0000,-0.5686,0.5333,0.5223,0.5169,0.5223,4
50,118,3651960490855,-10.4488,-0.1812,0.0785,0.0310,0.0710,-0.0290,1.1651,5143.5547,5050.5859,5004.1016,5050.5859,12.0467,0.0000,0.6714,5.9204,0.9155,7.5243,-11.8165,-26.7714,0.0229,-0.0139,-0.0070,0.0000,0.0000,0.0000,0.0000,0.0000,0.0000,0.0000,0.0000,0.0000,0.0000,0.0000,0.0000,0.0000,0.0000,1.0000,0.0000,0.0000,0.0000,-0.1812,0.0785,0.0000,0.0000,0.0000,0.0000,0.0000,0.0000,-0.0000,-0.0896,-0.0795,0.0189,0.0000,0.0000,-0.5686,0.5333,0.5223,0.5169,0.5223,4
51,119,3652001270064,-10.4488,-0.1812,0.0785,0.0310,0.0710,-0.0290,1.1651,5073.8281,5166.7969,5073.8281,4887.8906,12.0467,0.0000,-1.3428,1.7700,1.5259,3.8781,13.2213,-4.4539,0.0241,-0.0171,-0.0070,0.0000,0.0000,0.0000,0.0000,0.0000,0.0000,0.0000,0.0000,0.0000,0.0000,0.0000,0.0000,0.0000,0.0000,1.0000,0.0000,0.0000,0.0000,-0.1812,0.0785,0.0000,0.0000,0.0000,0.0000,0.0000,0.0000,-0.0000,-0.0861,-0.0271,0.0194,0.0000,0.0000,-0.5686,0.5251,0.5360,0.5251,0.5032,4
52,120,3652057629662,-10.4488,-0.1812,0.0785,0.0310,0.0710,-0.0290,1.1651,5073.8281,5166.7969,5073.8281,4887.8906,12.0472,0.0000,2.2583,-0.0610,0.8545,-3.5984,2.2151,6.8265,0.0253,-0.0137,-0.0072,0.0000,0.0000,0.0000,0.0000,0.0000,0.0000,0.0000,0.0000,0.0000,0.0000,0.0000,0.0000,0.0000,0.0000,1.0000,0.0000,0.0000,0.0000,-0.1812,0.0785,0.0000,0.0000,0.0000,0.0000,0.0000,0.0000,-0.0000,-0.0846,-0.0308,0.0204,0.0000,0.0000,-0.5686,0.5251,0.5360,0.5251,0.5032,4
53,121,3652061528696,-10.4488,-0.1812,0.0785,0.0310,0.0710,-0.0290,1.1651,5073.8281,5166.7969,5073.8281,4887.8906,12.0472,0.0000,0.5493,0.4883,1.4648,-1.0281,5.3724,-8.9675,0.0252,-0.0140,-0.0070,0.0000,0.0000,0.0000,0.0000,0.0000,0.0000,0.0000,0.0000,0.0000,0.0000,0.0000,0.0000,0.0000,0.0000,1.0000,0.0000,0.0000,0.0000,-0.1812,0.0785,0.0000,0.0000,0.0000,0.0000,0.0000,0.0000,-0.0000,-0.0751,-0.0112,0.0192,0.0000,0.0000,-0.5686,0.5251,0.5360,0.5251,0.5032,4
54,122,3652066331830,-10.4488,-0.1812,0.0785,0.0310,0.0710,-0.0290,1.1651,5073.8281,5166.7969,5073.8281,4887.8906,12.0479,0.0000,-2.0752,1.2817,-0.0610,1.6665,4.6197,-19.8064,0.0245,-0.0140,-0.0070,0.0000,0.0000,0.0000,0.0000,0.0000,0.0000,0.0000,0.0000,0.0000,0.0000,0.0000,0.0000,0.0000,0.0000,1.0000,0.0000,0.0000,0.0000,-0.1812,0.0785,0.0000,0.0000,0.0000,0.0000,0.0000,0.0000,-0.0000,-0.0651,0.0002,0.0193,0.0000,0.0000,-0.5686,0.5251,0.5360,0.5251,0.5032,4
55,123,3652071694731,-10.4488,-0.1812,0.0785,0.0310,0.0710,-0.0290,1.1651,5073.8281,5166.7969,5073.8281,4887.8906,12.0477,0.0000,-3.3569,-1.5869,-1.0376,5.4394,2.0905,-29.9913,0.0237,-0.0140,-0.0071,0.0000,0.0000,0.0000,0.0000,0.0000,0.0000,0.0000,0.0000,0.0000,0.0000,0.0000,0.0000,0.0000,0.0000,1.0000,0.0000,0.0000,0.0000,-0.1812,0.0785,0.0000,0.0000,0.0000,0.0000,0.0000,0.0000,-0.0000,-0.0578,0.0078,0.0201,0.0000,0.0000,-0.5686,0.5251,0.5360,0.5251,0.5032,4
56,124,3652076364381,-10.4488,-0.1812,0.0785,0.0310,0.0710,-0.0290,1.1651,5073.8281,5166.7969,5073.8281,4887.8906,12.0477,0.0000,-1.5259,-2.5635,-2.0142,9.1478,-2.9128,-38.2905,0.0233,-0.0136,-0.0073,0.0000,0.0000,0.0000,0.0000,0.0000,0.0000,0.0000,0.0000,0.0000,0.0000,0.0000,0.0000,0.0000,0.0000,1.0000,0.0000,0.0000,0.0000,-0.1812,0.0785,0.0000,0.0000,0.0000,0.0000,0.0000,0.0000,-0.0000,-0.0551,0.0113,0.0215,0.0000,0.0000,-0.5686,0.5251,0.5360,0.5251,0.5032,4
57,125,3652081382781,-10.4488,-0.1812,0.0785,0.0310,0.0710,-0.0290,1.1651,5073.8281,5166.7969,5073.8281,4887.8906,12.0479,0.0000,0.2441,0.6714,-0.4272,11.8782,-5.4420,-32.4569,0.0235,-0.0126,-0.0073,0.0000,0.0000,0.0000,0.0000,0.0000,0.0000,0.0000,0.0000,0.0000,0.0000,0.0000,0.0000,0.0000,0.0000,1.0000,0.0000,0.0000,0.0000,-0.1812,0.0785,0.0000,0.0000,0.0000,0.0000,0.0000,0.0000,-0.0000,-0.0569,0.0097,0.0217,0.0000,0.0000,-0.5686,0.5251,0.5360,0.5251,0.5032,4
58,126,3652086681565,-10.4488,-0.1812,0.0785,0.0310,0.0710,-0.0290,1.1651,5073.8281,5166.7969,5073.8281,4887.8906,12.0477,0.0000,1.4038,3.3569,-0.0610,2.4292,-4.3320,-6.7263,0.0241,-0.0111,-0.0073,0.0000,0.0000,0.0000,0.0000,0.0000,0.0000,0.0000,0.0000,0.0000,0.0000,0.0000,0.0000,0.0000,0.0000,1.0000,0.0000,0.0000,0.0000,-0.1812,0.0785,0.0000,0.0000,0.0000,0.0000,0.0000,0.0000,-0.0000,-0.0603,0.0056,0.0215,0.0000,0.0000,-0.5686,0.5251,0.5360,0.5251,0.5032,4
59,127,3652091321177,-10.4488,-0.1812,0.0785,0.0310,0.0710,-0.0290,1.1651,5073.8281,5166.7969,5073.8281,4887.8906,12.0474,0.0000,2.0752,4.5776,2.1973,-10.8142,-3.9556,25.3488,0.0247,-0.0105,-0.0072,0.0000,0.0000,0.0000,0.0000,0.0000,0.0000,0.0000,0.0000,0.0000,0.0000,0.0000,0.0000,0.0000,0.0000,1.0000,0.0000,0.0000,0.0000,-0.1812,0.0785,0.0000,0.0000,0.0000,0.0000,0.0000,0.0000,-0.0000,-0.0627,0.0078,0.0197,0.0000,0.0000,-0.5686,0.5251,0.5360,0.5251,0.5032,4
60,128,3652096405611,-10.4488,-0.1812,0.0785,0.0310,0.0710,-0.0290,1.1651,5073.8281,5166.7969,5073.8281,4887.8906,12.0465,0.0000,2.0142,1.2207,-0.0000,-21.0140,-3.8070,39.5794,0.0253,-0.0115,-0.0072,0.0000,0.0000,0.0000,0.0000,0.0000,0.0000,0.0000,0.0000,0.0000,0.0000,0.0000,0.0000,0.0000,0.0000,1.0000,0.0000,0.0000,0.0000,-0.1812,0.0785,0.0000,0.0000,0.0000,0.0000,0.0000,0.0000,-0.0000,-0.0647,0.0189,0.0198,0.0000,0.0000,-0.5686,0.5251,0.5360,0.5251,0.5032,4
61,129,3652101622154,-10.4488,-0.1812,0.0785,0.0310,0.0710,-0.0290,1.1651,5073.8281,5166.7969,5073.8281,4887.8906,12.0465,0.0000,2.3804,-4.7607,-0.0610,-17.2315,0.9086,19.8661,0.0260,-0.0139,-0.0072,0.0000,0.0000,0.0000,0.0000,0.0000,0.0000,0.0000,0.0000,0.0000,0.0000,0.0000,0.0000,0.0000,0.0000,1.0000,0.0000,0.0000,0.0000,-0.1812,0.0785,0.0000,0.0000,0.0000,0.0000,0.0000,0.0000,-0.0000,-0.0664,0.0358,0.0200,0.0000,0.0000,-0.5686,0.5251,0.5360,0.5251,0.5032,4
62,130,3652106735085,-10.4488,-0.1812,0.0785,0.0310,0.0710,-0.0290,1.1651,5073.8281,5166.7969,5073.8281,4887.8906,12.0465,0.0000,0.8545,-6.8359,-2.2583,1.5828,8.5705,-29.0485,0.0260,-0.0162,-0.0074,0.0000,0.0000,0.0000,0.0000,0.0000,0.0000,0.0000,0.0000,0.0000,0.0000,0.0000,0.0000,0.0000,0.0000,1.0000,0.0000,0.0000,0.0000,-0.1812,0.0785,0.0000,0.0000,0.0000,0.0000,0.0000,0.0000,-0.0000,-0.0639,0.0465,0.0219,0.0000,0.0000,-0.5686,0.5251,0.5360,0.5251,0.5032,4
63,131,3652111338743,-10.4488,-0.1812,0.0785,0.0310,0.0710,-0.0290,1.1651,5073.8281,5166.7969,5073.8281,4887.8906,12.0460,0.0000,-2.8076,-3.3569,-1.0986,18.2692,10.5531,-66.1288,0.0249,-0.0163,-0.0075,0.0000,0.0000,0.0000,0.0000,0.0000,0.0000,0.0000,0.0000,0.0000,0.0000,0.0000,0.0000,0.0000,0.0000,1.0000,0.0000,0.0000,0.0000,-0.1812,0.0785,0.0000,0.0000,0.0000,0.0000,0.0000,0.0000,-0.0000,-0.0549,0.0406,0.0224,0.0000,0.0000,-0.5686,0.5251,0.5360,0.5251,0.5032,4
64,132,3652116363142,-10.4488,-0.1812,0.0785,0.0310,0.0710,-0.0290,1.1651,5073.8281,5166.7969,5073.8281,4887.8906,12.0460,0.0000,-2.4414,3.1738,-0.6714,17.9249,6.8564,-63.4340,0.0235,-0.0142,-0.0075,0.0000,0.0000,0.0000,0.0000,0.0000,0.0000,0.0000,0.0000,0.0000,0.0000,0.0000,0.0000,0.0000,0.0000,1.0000,0.0000,0.0000,0.0000,-0.1812,0.0785,0.0000,0.0000,0.0000,0.0000,0.0000,0.0000,-0.0000,-0.0472,0.0230,0.0225,0.0000,0.0000,-0.5686,0.5251,0.5360,0.5251,0.5032,4
65,133,3652153319642,-10.4528,-0.1954,0.0024,0.0010,0.0810,-0.0290,1.1651,5213.2812,5143.5547,5097.0703,5097.0703,12.0469,0.0000,-2.8076,6.1035,1.6479,6.9672,-0.5226,-29.7884,0.0225,-0.0118,-0.0074,0.0000,0.0000,0.0000,0.0000,0.0000,0.0000,0.0000,0.0000,0.0000,0.0000,0.0000,0.0000,0.0000,0.0000,1.0000,0.0000,0.0000,0.0000,-0.1954,0.0024,0.0000,0.0000,0.0000,0.0000,0.0000,0.0000,-0.0000,-0.1280,-0.1280,0.0208,0.0000,0.0000,-0.5688,0.5415,0.5333,0.5278,0.5278,4
66,134,3652212855610,-10.4528,-0.1954,0.0024,0.0010,0.0810,-0.0290,1.1651,5143.5547,5306.2500,5143.5547,4911.1328,12.0467,0.0000,1.7700,2.8076,0.7935,-17.7360,-10.7089,23.9286,0.0232,-0.0137,-0.0071,0.0000,0.0000,0.0000,0.0000,0.0000,0.0000,0.0000,0.0000,0.0000,0.0000,0.0000,0.0000,0.0000,0.0000,1.0000,0.0000,0.0000,0.0000,-0.1954,0.0024,0.0000,0.0000,0.0000,0.0000,0.0000,0.0000,-0.0000,-0.1108,-0.0752,0.0186,0.0000,0.0000,-0.5688,0.5333,0.5524,0.5333,0.5059,4
67,135,3652216355817,-10.4528,-0.1954,0.0024,0.0010,0.0810,-0.0290,1.1651,5143.5547,5306.2500,5143.5547,4911.1328,12.0469,0.0000,3.3569,-4.5166,0.1221,-22.4892,-9.6924,30.6262,0.0245,-0.0158,-0.0071,0.0000,0.0000,0.0000,0.0000,0.0000,0.0000,0.0000,0.0000,0.0000,0.0000,0.0000,0.0000,0.0000,0.0000,1.0000,0.0000,0.0000,0.0000,-0.1954,0.0024,0.0000,0.0000,0.0000,0.0000,0.0000,0.0000,-0.0000,-0.1034,-0.0372,0.0189,0.0000,0.0000,-0.5688,0.5333,0.5524,0.5333,0.5059,4
68,136,3652221331555,-10.4528,-0.1954,0.0024,0.0010,0.0810,-0.0290,1.1651,5143.5547,5306.2500,5143.5547,4911.1328,12.0469,0.0000,3.3569,-7.2632,-1.0376,-10.7043,-0.0264,6.4088,0.0259,-0.0187,-0.0073,0.0000,0.0000,0.0000,0.0000,0.0000,0.0000,0.0000,0.0000,0.0000,0.0000,0.0000,0.0000,0.0000,0.0000,1.0000,0.0000,0.0000,0.0000,-0.1954,0.0024,0.0000,0.0000,0.0000,0.0000,0.0000,0.0000,-0.0000,-0.0980,-0.0067,0.0202,0.0000,0.0000,-0.5688,0.5333,0.5524,0.5333,0.5059,4
69,137,3652226611299,-10.4528,-0.1954,0.0024,0.0010,0.0810,-0.0290,1.1651,5143.5547,5306.2500,5143.5547,4911.1328,12.0465,0.0000,0.6104,-4.6997,-0.6714,6.5536,12.8138,-26.1245,0.0259,-0.0201,-0.0073,0.0000,0.0000,0.0000,0.0000,0.0000,0.0000,0.0000,0.0000,0.0000,0.0000,0.0000,0.0000,0.0000,0.0000,1.0000,0.0000,0.0000,0.0000,-0.1954,0.0024,0.0000,0.0000,0.0000,0.0000,0.0000,0.0000,-0.0000,-0.0869,0.0061,0.0208,0.0000,0.0000,-0.5688,0.5333,0.5524,0.5333,0.5059,4
70,138,3652231350983,-10.4528,-0.1954,0.0024,0.0010,0.0810,-0.0290,1.1651,5143.5547,5306.2500,5143.5547,4911.1328,12.0460,0.0000,-2.5635,1.9531,-0.1831,13.8340,15.5995,-41.0211,0.0244,-0.0193,-0.0073,0.0000,0.0000,0.0000,0.0000,0.0000,0.0000,0.0000,0.0000,0.0000,0.0000,0.0000,0.0000,0.0000,0.0000,1.0000,0.0000,0.0000,0.0000,-0.1954,0.0024,0.0000,0.0000,0.0000,0.0000,0.0000,0.0000,-0.0000,-0.0696,0.0009,0.0206,0.0000,0.0000,-0.5688,0.5333,0.5524,0.5333,0.5059,4
71,139,3652236284227,-10.4528,-0.1954,0.0024,0.0010,0.0810,-0.0290,1.1651,5143.5547,5306.2500,5143.5547,4911.1328,12.0465,0.0000,-4.6387,6.1035,1.4038,10.8573,12.1305,-35.9800,0.0224,-0.0173,-0.0072,0.0000,0.0000,0.0000,0.0000,0.0000,0.0000,0.0000,0.0000,0.0000,0.0000,0.0000,0.0000,0.0000,0.0000,1.0000,0.0000,0.0000,0.0000,-0.1954,0.0024,0.0000,0.0000,0.0000,0.0000,0.0000,0.0000,-0.0000,-0.0547,-0.0093,0.0192,0.0000,0.0000,-0.5688,0.5333,0.5524,0.5333,0.5059,4
72,140,3652241661251,-10.4528,-0.1954,0.0024,0.0010,0.0810,-0.0290,1.1651,5143.5547,5306.2500,5143.5547,4911.1328,12.0465,0.0000,-3.7842,3.6621,1.0376,1.1405,-0.1055,-16.0542,0.0208,-0.0159,-0.0071,0.0000,0.0000,0.0000,0.0000,0.0000,0.0000,0.0000,0.0000,0.0000,0.0000,0.0000,0.0000,0.0000,0.0000,1.0000,0.0000,0.0000,0.0000,-0.1954,0.0024,0.0000,0.0000,0.0000,0.0000,0.0000,0.0000,-0.0000,-0.0469,-0.0134,0.0184,0.0000,0.0000,-0.5688,0.5333,0.5524,0.5333,0.5059,4
73,141,3652246257160,-10.4528,-0.1954,0.0024,0.0010,0.0810,-0.0290,1.1651,5143.5547,5306.2500,5143.5547,4911.1328,12.0460,0.0000,0.0000,-0.6104,0.9155,-5.7502,-16.6471,1.6660,0.0208,-0.0158,-0.0070,0.0000,0.0000,0.0000,0.0000,0.0000,0.0000,0.0000,0.0000,0.0000,0.0000,0.0000,0.0000,0.0000,0.0000,1.0000,0.0000,0.0000,0.0000,-0.1954,0.0024,0.0000,0.0000,0.0000,0.0000,0.0000,0.0000,-0.0000,-0.0509,-0.0081,0.0179,0.0000,0.0000,-0.5688,0.5333,0.5524,0.5333,0.5059,4
74,142,3652251475119,-10.4528,-0.1954,0.0024,0.0010,0.0810,-0.0290,1.1651,5143.5547,5306.2500,5143.5547,4911.1328,12.0450,0.0000,3.8452,-3.6011,-0.3662,-4.6910,-20.7993,3.1125,0.0228,-0.0167,-0.0071,0.0000,0.0000,0.0000,0.0000,0.0000,0.0000,0.0000,0.0000,0.0000,0.0000,0.0000,0.0000,0.0000,0.0000,1.0000,0.0000,0.0000,0.0000,-0.1954,0.0024,0.0000,0.0000,0.0000,0.0000,0.0000,0.0000,-0.0000,-0.0655,0.0013,0.0187,0.0000,0.0000,-0.5688,0.5333,0.5524,0.5333,0.5059,4
75,143,3652256393990,-10.4528,-0.1954,0.0024,0.0010,0.0810,-0.0290,1.1651,5143.5547,5306.2500,5143.5547,4911.1328,12.0453,0.0000,4.6387,-2.9907,-0.4883,-0.5762,-10.6586,-2.6900,0.0252,-0.0174,-0.0071,0.0000,0.0000,0.0000,0.0000,0.0000,0.0000,0.0000,0.0000,0.0000,0.0000,0.0000,0.0000,0.0000,0.0000,1.0000,0.0000,0.0000,0.0000,-0.1954,0.0024,0.0000,0.0000,0.0000,0.0000,0.0000,0.0000,-0.0000,-0.0786,0.0069,0.0196,0.0000,0.0000,-0.5688,0.5333,0.5524,0.5333,0.5059,4
76,144,3652261903498,-10.4528,-0.1954,0.0024,0.0010,0.0810,-0.0290,1.1651,5143.5547,5306.2500,5143.5547,4911.1328,12.0457,0.0000,2.3804,0.0610,-0.3052,0.3252,4.9002,-6.4637,0.0264,-0.0174,-0.0072,0.0000,0.0000,0.0000,0.0000,0.0000,0.0000,0.0000,0.0000,0.0000,0.0000,0.0000,0.0000,0.0000,0.0000,1.0000,0.0000,0.0000,0.0000,-0.1954,0.0024,0.0000,0.0000,0.0000,0.0000,0.0000,0.0000,-0.0000,-0.0805,0.0067,0.0201,0.0000,0.0000,-0.5688,0.5333,0.5524,0.5333,0.5059,4
77,145,3652266407585,-10.4528,-0.1954,0.0024,0.0010,0.0810,-0.0290,1.1651,5143.5547,5306.2500,5143.5547,4911.1328,12.0450,0.0000,-1.2207,1.7700,-0.4272,-2.2021,16.3978,-6.0508,0.0259,-0.0172,-0.0072,0.0000,0.0000,0.0000,0.0000,0.0000,0.0000,0.0000,0.0000,0.0000,0.0000,0.0000,0.0000,0.0000,0.0000,1.0000,0.0000,0.0000,0.0000,-0.1954,0.0024,0.0000,0.0000,0.0000,0.0000,0.0000,0.0000,-0.0000,-0.0709,0.0050,0.0203,0.0000,0.0000,-0.5688,0.5333,0.5524,0.5333,0.5059,4
78,146,3652271374908,-10.4528,-0.1954,0.0024,0.0010,0.0810,-0.0290,1.1651,5143.5547,5306.2500,5143.5547,4911.1328,12.0457,0.0000,-4.1504,1.1597,0.4272,-4.1435,16.5872,-9.7552,0.0239,-0.0173,-0.0072,0.0000,0.0000,0.0000,0.0000,0.0000,0.0000,0.0000,0.0000,0.0000,0.0000,0.0000,0.0000,0.0000,0.0000,1.0000,0.0000,0.0000,0.0000,-0.1954,0.0024,0.0000,0.0000,0.0000,0.0000,0.0000,0.0000,-0.0000,-0.0560,0.0057,0.0197,0.0000,0.0000,-0.5688,0.5333,0.5524,0.5333,0.5059,4
79,147,3652276642320,-10.4528,-0.1954,0.0024,0.0010,0.0810,-0.0290,1.1651,5143.5547,5306.2500,5143.5547,4911.1328,12.0460,0.0000,-4.2725,-2.0142,-1.3428,3.6558,4.9553,-18.1022,0.0219,-0.0178,-0.0073,0.0000,0.0000,0.0000,0.0000,0.0000,0.0000,0.0000,0.0000,0.0000,0.0000,0.0000,0.0000,0.0000,0.0000,1.0000,0.0000,0.0000,0.0000,-0.1954,0.0024,0.0000,0.0000,0.0000,0.0000,0.0000,0.0000,-0.0000,-0.0455,0.0090,0.0206,0.0000,0.0000,-0.5688,0.5333,0.5524,0.5333,0.5059,4
80,148,3652281306346,-10.4528,-0.1954,0.0024,0.0010,0.0810,-0.0290,1.1651,5143.5547,5306.2500,5143.5547,4911.1328,12.0472,0.0000,-2.0752,-2.3804,0.4883,11.1394,-7.8585,-26.7809,0.0212,-0.0177,-0.0072,0.0000,0.0000,0.0000,0.0000,0.0000,0.0000,0.0000,0.0000,0.0000,0.0000,0.0000,0.0000,0.0000,0.0000,1.0000,0.0000,0.0000,0.0000,-0.1954,0.0024,0.0000,0.0000,0.0000,0.0000,0.0000,0.0000,-0.0000,-0.0459,0.0068,0.0201,0.0000,0.0000,-0.5688,0.5333,0.5524,0.5333,0.5059,4
81,149,3652286468895,-10.4528,-0.1954,0.0024,0.0010,0.0810,-0.0290,1.1651,5143.5547,5306.2500,5143.5547,4911.1328,12.0467,0.0000,1.2207,2.0752,-0.1221,11.7874,-15.6786,-23.9214,0.0220,-0.0164,-0.0072,0.0000,0.0000,0.0000,0.0000,0.0000,0.0000,0.0000,0.0000,0.0000,0.0000,0.0000,0.0000,0.0000,0.0000,1.0000,0.0000,0.0000,0.0000,-0.1954,0.0024,0.0000,0.0000,0.0000,0.0000,0.0000,0.0000,-0.0000,-0.0552,-0.0015,0.0203,0.0000,0.0000,-0.5688,0.5333,0.5524,0.5333,0.5059,4
82,150,3652291344646,-10.4528,-0.1954,0.0024,0.0010,0.0810,-0.0290,1.1651,5143.5547,5306.2500,5143.5547,4911.1328,12.0462,0.0000,3.1128,4.0283,1.3428,0.4734,-13.7511,-5.4087,0.0238,-0.0148,-0.0071,0.0000,0.0000,0.0000,0.0000,0.0000,0.0000,0.0000,0.0000,0.0000,0.0000,0.0000,0.0000,0.0000,0.0000,1.0000,0.0000,0.0000,0.0000,-0.1954,0.0024,0.0000,0.0000,0.0000,0.0000,0.0000,0.0000,-0.0000,-0.0673,-0.0087,0.0194,0.0000,0.0000,-0.5688,0.5333,0.5524,0.5333,0.5059,4
83,151,3652296755249,-10.4528,-0.1954,0.0024,0.0010,0.0810,-0.0290,1.1651,5143.5547,5306.2500,5143.5547,4911.1328,12.0462,0.0000,3.3569,1.7090,-0.1221,-13.7742,-6.8132,16.6032,0.0254,-0.0146,-0.0072,0.0000,0.0000,0.0000,0.0000,0.0000,0.0000,0.0000,0.0000,0.0000,0.0000,0.0000,0.0000,0.0000,0.0000,1.0000,0.0000,0.0000,0.0000,-0.1954,0.0024,0.0000,0.0000,0.0000,0.0000,0.0000,0.0000,-0.0000,-0.0749,-0.0057,0.0197,0.0000,0.0000,-0.5688,0.5333,0.5524,0.5333,0.5059,4
84,152,3652301551510,-10.4528,-0.1954,0.0024,0.0010,0.0810,-0.0290,1.1651,5143.5547,5306.2500,5143.5547,4911.1328,12.0450,0.0000,1.9531,-3.1128,-0.0000,-18.9554,1.8867,20.3411,0.0263,-0.0162,-0.0072,0.0000,0.0000,0.0000,0.0000,0.0000,0.0000,0.0000,0.0000,0.0000,0.0000,0.0000,0.0000,0.0000,0.0000,1.0000,0.0000,0.0000,0.0000,-0.1954,0.0024,0.0000,0.0000,0.0000,0.0000,0.0000,0.0000,-0.0000,-0.0759,0.0074,0.0199,0.0000,0.0000,-0.5688,0.5333,0.5524,0.5333,0.5059,4
85,153,3652306419636,-10.4528,-0.1954,0.0024,0.0010,0.0810,-0.0290,1.1651,5143.5547,5306.2500,5143.5547,4911.1328,12.0443,0.0000,-0.0610,-6.5308,-2.0752,-8.6218,13.0103,-3.4634,0.0261,-0.0187,-0.0074,0.0000,0.0000,0.0000,0.0000,0.0000,0.0000,0.0000,0.0000,0.0000,0.0000,0.0000,0.0000,0.0000,0.0000,1.0000,0.0000,0.0000,0.0000,-0.1954,0.0024,0.0000,0.0000,0.0000,0.0000,0.0000,0.0000,-0.0000,-0.0705,0.0214,0.0216,0.0000,0.0000,-0.5688,0.5333,0.5524,0.5333,0.5059,4
86,154,3652311617557,-10.4528,-0.1954,0.0024,0.0010,0.0810,-0.0290,1.1651,5143.5547,5306.2500,5143.5547,4911.1328,12.0443,0.0000,-2.2583,-5.1880,-0.7324,8.1723,17.0451,-33.6265,0.0247,-0.0199,-0.0075,0.0000,0.0000,0.0000,0.0000,0.0000,0.0000,0.0000,0.0000,0.0000,0.0000,0.0000,0.0000,0.0000,0.0000,1.0000,0.0000,0.0000,0.0000,-0.1954,0.0024,0.0000,0.0000,0.0000,0.0000,0.0000,0.0000,-0.0000,-0.0588,0.0242,0.0219,0.0000,0.0000,-0.5688,0.5333,0.5524,0.5333,0.5059,4
87,155,3652316553675,-10.4528,-0.1954,0.0024,0.0010,0.0810,-0.0290,1.1651,5143.5547,5306.2500,5143.5547,4911.1328,12.0438,0.0000,-3.7842,1.8311,-0.1831,17.0546,10.4788,-48.0147,0.0227,-0.0189,-0.0074,0.0000,0.0000,0.0000,0.0000,0.0000,0.0000,0.0000,0.0000,0.0000,0.0000,0.0000,0.0000,0.0000,0.0000,1.0000,0.0000,0.0000,0.0000,-0.1954,0.0024,0.0000,0.0000,0.0000,0.0000,0.0000,0.0000,-0.0000,-0.0471,0.0123,0.0216,0.0000,0.0000,-0.5688,0.5333,0.5524,0.5333,0.5059,4
88,156,3652321510291,-10.4528,-0.1954,0.0024,0.0510,0.1010,-0.0190,1.1651,5143.5547,5306.2500,5143.5547,4911.1328,12.0440,0.0000,-2.9907,5.9814,2.1362,13.2674,0.3788,-37.2641,0.0213,-0.0167,-0.0072,0.0000,0.0000,0.0000,0.0000,0.0000,0.0000,0.0000,0.0000,0.0000,0.0000,0.0000,0.0000,0.0000,0.0000,1.0000,0.0000,0.0000,0.0000,-0.1954,0.0024,0.0000,0.0000,0.0000,0.0000,0.0000,0.0000,-0.0000,-0.0429,-0.0034,0.0196,0.0000,0.0000,-0.5688,0.5333,0.5524,0.5333,0.5059,4
89,157,3652355272881,-10.5117,-0.1472,0.0739,0.0510,0.1010,-0.0190,1.1651,5120.3125,5073.8281,5027.3438,5004.1016,12.0448,0.0000,-0.9766,5.4321,1.6479,-0.7842,-11.5504,-4.7141,0.0211,-0.0148,-0.0071,0.0000,0.0000,0.0000,0.0000,0.0000,0.0000,0.0000,0.0000,0.0000,0.0000,0.0000,0.0000,0.0000,0.0000,1.0000,0.0000,0.0000,0.0000,-0.1472,0.0739,0.0000,0.0000,0.0000,0.0000,0.0000,0.0000,-0.0000,0.1760,0.1760,0.0184,0.0000,0.0000,-0.5712,0.5306,0.5251,0.5197,0.5169,4
90,158,3652412441715,-10.5117,-0.1472,0.0739,0.0510,0.1010,-0.0190,1.1651,5073.8281,4562.5000,5073.8281,5306.2500,12.0457,0.0000,1.4038,5.9204,1.4038,-1.9247,-9.9777,-1.0741,0.0214,-0.0163,-0.0070,0.0000,0.0000,0.0000,0.0000,0.0000,0.0000,0.0000,0.0000,0.0000,0.0000,0.0000,0.0000,0.0000,0.0000,1.0000,0.0000,0.0000,0.0000,-0.1472,0.0739,0.0000,0.0000,0.0000,0.0000,0.0000,0.0000,-0.0000,0.1043,0.1373,0.0182,0.0000,0.0000,-0.5712,0.5251,0.4702,0.5251,0.5525,4
91,159,3652416639547,-10.5117,-0.1472,0.0739,0.0510,0.1010,-0.0190,1.1651,5073.8281,4562.5000,5073.8281,5306.2500,12.0453,0.0000,2.8687,0.5493,0.5493,-18.8717,-11.8165,23.1791,0.0226,-0.0164,-0.0070,0.0000,0.0000,0.0000,0.0000,0.0000,0.0000,0.0000,0.0000,0.0000,0.0000,0.0000,0.0000,0.0000,0.0000,1.0000,0.0000,0.0000,0.0000,-0.1472,0.0739,0.0000,0.0000,0.0000,0.0000,0.0000,0.0000,-0.0000,0.0495,0.1028,0.0182,0.0000,0.0000,-0.5712,0.5251,0.4702,0.5251,0.5525,4
92,160,3652421198085,-10.5117,-0.1472,0.0739,0.0510,0.1010,-0.0190,1.1651,5073.8281,4562.5000,5073.8281,5306.2500,12.0457,0.0000,3.4790,-5.1270,-0.3052,-20.9471,-5.8255,22.9141,0.0241,-0.0187,-0.0071,0.0000,0.0000,0.0000,0.0000,0.0000,0.0000,0.0000,0.0000,0.0000,0.0000,0.0000,0.0000,0.0000,0.0000,1.0000,0.0000,0.0000,0.0000,-0.1472,0.0739,0.0000,0.0000,0.0000,0.0000,0.0000,0.0000,-0.0000,0.0101,0.0923,0.0189,0.0000,0.0000,-0.5712,0.5251,0.4702,0.5251,0.5525,4
93,161,3652426279936,-10.5117,-0.1472,0.0739,0.0510,0.1010,-0.0190,1.1651,5073.8281,4562.5000,5073.8281,5306.2500,12.0462,0.0000,2.9907,-6.9580,-1.8921,-5.4753,5.6793,-3.1411,0.0250,-0.0214,-0.0073,0.0000,0.0000,0.0000,0.0000,0.0000,0.0000,0.0000,0.0000,0.0000,0.0000,0.0000,0.0000,0.0000,0.0000,1.0000,0.0000,0.0000,0.0000,-0.1472,0.0739,0.0000,0.0000,0.0000,0.0000,0.0000,0.0000,-0.0000,-0.0133,0.0875,0.0207,0.0000,0.0000,-0.5712,0.5251,0.4702,0.5251,0.5525,4
94,162,3652431631005,-10.5117,-0.1472,0.0739,0.0510,0.1010,-0.0190,1.1651,5073.8281,4562.5000,5073.8281,5306.2500,12.0472,0.0000,-0.3662,-3.1128,-0.3662,10.1854,15.0601,-31.7934,0.0244,-0.0222,-0.0073,0.0000,0.0000,0.0000,0.0000,0.0000,0.0000,0.0000,0.0000,0.0000,0.0000,0.0000,0.0000,0.0000,0.0000,1.0000,0.0000,0.0000,0.0000,-0.1472,0.0739,0.0000,0.0000,0.0000,0.0000,0.0000,0.0000,-0.0000,-0.0206,0.0731,0.0209,0.0000,0.0000,-0.5712,0.5251,0.4702,0.5251,0.5525,4
95,163,3652436278033,-10.5117,-0.1472,0.0739,0.0510,0.1010,-0.0190,1.1651,5073.8281,4562.5000,5073.8281,5306.2500,12.0479,0.0000,-3.4180,4.5166,-0.5493,15.3140,15.5299,-42.8160,0.0226,-0.0207,-0.0073,0.0000,0.0000,0.0000,0.0000,0.0000,0.0000,0.0000,0.0000,0.0000,0.0000,0.0000,0.0000,0.0000,0.0000,1.0000,0.0000,0.0000,0.0000,-0.1472,0.0739,0.0000,0.0000,0.0000,0.0000,0.0000,0.0000,-0.0000,-0.0180,0.0497,0.0209,0.0000,0.0000,-0.5712,0.5251,0.4702,0.5251,0.5525,4
96,164,3652441205486,-10.5117,-0.1472,0.0739,0.0510,0.1010,-0.0190,1.1651,5073.8281,4562.5000,5073.8281,5306.2500,12.0484,0.0000,-4.5776,6.0425,1.9531,9.0163,9.1099,-34.0991,0.0206,-0.0186,-0.0071,0.0000,0.0000,0.0000,0.0000,0.0000,0.0000,0.0000,0.0000,0.0000,0.0000,0.0000,0.0000,0.0000,0.0000,1.0000,0.0000,0.0000,0.0000,-0.1472,0.0739,0.0000,0.0000,0.0000,0.0000,0.0000,0.0000,-0.0000,-0.0150,0.0296,0.0190,0.0000,0.0000,-0.5712,0.5251,0.4702,0.5251,0.5525,4
97,165,3652446553471,-10.5117,-0.1472,0.0739,0.0510,0.1010,-0.0190,1.1651,5073.8281,4562.5000,5073.8281,5306.2500,12.0494,0.0000,-2.7466,3.6621,0.7935,-2.2738,-5.0728,-10.0607,0.0194,-0.0174,-0.0070,0.0000,0.0000,0.0000,0.0000,0.0000,0.0000,0.0000,0.0000,0.0000,0.0000,0.0000,0.0000,0.0000,0.0000,1.0000,0.0000,0.0000,0.0000,-0.1472,0.0739,0.0000,0.0000,0.0000,0.0000,0.0000,0.0000,-0.0000,-0.0177,0.0207,0.0183,0.0000,0.0000,-0.5712,0.5251,0.4702,0.5251,0.5525,4
98,166,3652451493798,-10.5117,-0.1472,0.0739,0.0510,0.1010,-0.0190,1.1651,5073.8281,4562.5000,5073.8281,5306.2500,12.0498,0.0000,1.2817,-1.7090,0.7324,-7.1011,-20.9240,5.6140,0.0200,-0.0177,-0.0070,0.0000,0.0000,0.0000,0.0000,0.0000,0.0000,0.0000,0.0000,0.0000,0.0000,0.0000,0.0000,0.0000,0.0000,1.0000,0.0000,0.0000,0.0000,-0.1472,0.0739,0.0000,0.0000,0.0000,0.0000,0.0000,0.0000,-0.0000,-0.0302,0.0242,0.0181,0.0000,0.0000,-0.5712,0.5251,0.4702,0.5251,0.5525,4
99,167,3652456442248,-10.5117,-0.1472,0.0739,0.0510,0.1010,-0.0190,1.1651,5073.8281,4562.5000,5073.8281,5306.2500,12.0503,0.0000,4.5166,-4.2114,-1.0376,-4.5141,-20.5572,4.0744,0.0225,-0.0188,-0.0071,0.0000,0.0000,0.0000,0.0000,0.0000,0.0000,0.0000,0.0000,0.0000,0.0000,0.0000,0.0000,0.0000,0.0000,1.0000,0.0000,0.0000,0.0000,-0.1472,0.0739,0.0000,0.0000,0.0000,0.0000,0.0000,0.0000,-0.0000,-0.0500,0.0310,0.0195,0.0000,0.0000,-0.5712,0.5251,0.4702,0.5251,0.5525,4
100,168,3652461312374,-10.5117,-0.1472,0.0739,0.0510,0.1010,-0.0190,1.1651,5073.8281,4562.5000,5073.8281,5306.2500,12.0508,0.0000,4.7607,-2.6245,-0.0610,1.3461,-7.8657,-3.6472,0.0249,-0.0195,-0.0072,0.0000,0.0000,0.0000,0.0000,0.0000,0.0000,0.0000,0.0000,0.0000,0.0000,0.0000,0.0000,0.0000,0.0000,1.0000,0.0000,0.0000,0.0000,-0.1472,0.0739,0.0000,0.0000,0.0000,0.0000,0.0000,0.0000,-0.0000,-0.0637,0.0334,0.0200,0.0000,0.0000,-0.5712,0.5251,0.4702,0.5251,0.5525,4
101,169,3652466560330,-10.5117,-0.1472,0.0739,0.0510,0.1010,-0.0190,1.1651,5073.8281,4562.5000,5073.8281,5306.2500,12.0520,0.0000,1.3428,0.7324,-1.1597,1.0138,9.7140,-6.6475,0.0257,-0.0192,-0.0073,0.0000,0.0000,0.0000,0.0000,0.0000,0.0000,0.0000,0.0000,0.0000,0.0000,0.0000,0.0000,0.0000,0.0000,1.0000,0.0000,0.0000,0.0000,-0.1472,0.0739,0.0000,0.0000,0.0000,0.0000,0.0000,0.0000,-0.0000,-0.0639,0.0297,0.0210,0.0000,0.0000,-0.5712,0.5251,0.4702,0.5251,0.5525,4
102,170,3652478019752,-10.5117,-0.1472,0.0739,0.0510,0.1010,-0.0190,1.1651,5073.8281,4562.5000,5073.8281,5306.2500,12.0525,0.0000,-2.7466,2.3193,0.1831,-3.0748,19.9938,-5.1939,0.0245,-0.0189,-0.0072,0.0000,0.0000,0.0000,0.0000,0.0000,0.0000,0.0000,0.0000,0.0000,0.0000,0.0000,0.0000,0.0000,0.0000,1.0000,0.0000,0.0000,0.0000,-0.1472,0.0739,0.0000,0.0000,0.0000,0.0000,0.0000,0.0000,-0.0000,-0.0516,0.0265,0.0205,0.0000,0.0000,-0.5712,0.5251,0.4702,0.5251,0.5525,4
103,171,3652479621228,-10.5117,-0.1472,0.0739,0.0510,0.1010,-0.0190,1.1651,5073.8281,4562.5000,5073.8281,5306.2500,12.0530,0.0000,-4.8218,0.3052,0.1831,-5.5685,16.9132,-7.3087,0.0222,-0.0192,-0.0072,0.0000,0.0000,0.0000,0.0000,0.0000,0.0000,0.0000,0.0000,0.0000,0.0000,0.0000,0.0000,0.0000,0.0000,1.0000,0.0000,0.0000,0.0000,-0.1472,0.0739,0.0000,0.0000,0.0000,0.0000,0.0000,0.0000,-0.0000,-0.0360,0.0278,0.0200,0.0000,0.0000,-0.5712,0.5251,0.4702,0.5251,0.5525,4
104,172,3652481774304,-10.5117,-0.1472,0.0739,0.0510,0.1010,-0.0190,1.1651,5073.8281,4562.5000,5073.8281,5306.2500,12.0544,0.0000,-3.9673,-2.3804,-0.1221,2.0873,1.6973,-15.5410,0.0202,-0.0199,-0.0072,0.0000,0.0000,0.0000,0.0000,0.0000,0.0000,0.0000,0.0000,0.0000,0.0000,0.0000,0.0000,0.0000,0.0000,1.0000,0.0000,0.0000,0.0000,-0.1472,0.0739,0.0000,0.0000,0.0000,0.0000,0.0000,0.0000,-0.0000,-0.0274,0.0315,0.0199,0.0000,0.0000,-0.5712,0.5251,0.4702,0.5251,0.5525,4
105,173,3652486260976,-10.5117,-0.1472,0.0739,0.0510,0.1010,-0.0190,1.1651,5073.8281,4562.5000,5073.8281,5306.2500,12.0549,0.0000,-1.4648,-2.8076,0.1221,12.5357,-12.9456,-24.9860,0.0199,-0.0199,-0.0072,0.0000,0.0000,0.0000,0.0000,0.0000,0.0000,0.0000,0.0000,0.0000,0.0000,0.0000,0.0000,0.0000,0.0000,1.0000,0.0000,0.0000,0.0000,-0.1472,0.0739,0.0000,0.0000,0.0000,0.0000,0.0000,0.0000,-0.0000,-0.0314,0.0298,0.0199,0.0000,0.0000,-0.5712,0.5251,0.4702,0.5251,0.5525,4
106,174,3652491203635,-10.5117,-0.1472,0.0739,0.0510,0.1010,-0.0190,1.1651,5073.8281,4562.5000,5073.8281,5306.2500,12.0556,0.0000,2.0142,2.3193,0.9766,13.7312,-19.7061,-26.6735,0.0213,-0.0184,-0.0071,0.0000,0.0000,0.0000,0.0000,0.0000,0.0000,0.0000,0.0000,0.0000,0.0000,0.0000,0.0000,0.0000,0.0000,1.0000,0.0000,0.0000,0.0000,-0.1472,0.0739,0.0000,0.0000,0.0000,0.0000,0.0000,0.0000,-0.0000,-0.0444,0.0197,0.0193,0.0000,0.0000,-0.5712,0.5251,0.4702,0.5251,0.5525,4
107,175,3652496320524,-10.5117,-0.1472,0.0739,0.0510,0.1010,-0.0190,1.1651,5073.8281,4562.5000,5073.8281,5306.2500,12.0566,0.0000,3.2349,4.8828,-0.0000,1.6282,-16.0094,-12.4047,0.0234,-0.0166,-0.0071,0.0000,0.0000,0.0000,0.0000,0.0000,0.0000,0.0000,0.0000,0.0000,0.0000,0.0000,0.0000,0.0000,0.0000,1.0000,0.0000,0.0000,0.0000,-0.1472,0.0739,0.0000,0.0000,0.0000,0.0000,0.0000,0.0000,-0.0000,-0.0580,0.0106,0.0196,0.0000,0.0000,-0.5712,0.5251,0.4702,0.5251,0.5525,4
108,176,3652501813825,-10.5117,-0.1472,0.0739,0.0510,0.1010,-0.0190,1.1651,5073.8281,4562.5000,5073.8281,5306.2500,12.0569,0.0000,3.1128,1.3428,-0.4272,-13.5471,-4.9026,7.7932,0.0252,-0.0163,-0.0072,0.0000,0.0000,0.0000,0.0000,0.0000,0.0000,0.0000,0.0000,0.0000,0.0000,0.0000,0.0000,0.0000,0.0000,1.0000,0.0000,0.0000,0.0000,-0.1472,0.0739,0.0000,0.0000,0.0000,0.0000,0.0000,0.0000,-0.0000,-0.0654,0.0133,0.0202,0.0000,0.0000,-0.5712,0.5251,0.4702,0.5251,0.5525,4
109,177,3652506310163,-10.5117,-0.1472,0.0739,0.0510,0.1010,-0.0190,1.1651,5073.8281,4562.5000,5073.8281,5306.2500,12.0556,0.0000,1.3428,-2.9907,-1.3428,-19.4599,7.3263,13.8034,0.0258,-0.0179,-0.0073,0.0000,0.0000,0.0000,0.0000,0.0000,0.0000,0.0000,0.0000,0.0000,0.0000,0.0000,0.0000,0.0000,0.0000,1.0000,0.0000,0.0000,0.0000,-0.1472,0.0739,0.0000,0.0000,0.0000,0.0000,0.0000,0.0000,-0.0000,-0.0636,0.0265,0.0213,0.0000,0.0000,-0.5712,0.5251,0.4702,0.5251,0.5525,4
110,178,3652511266571,-10.5117,-0.1472,0.0739,0.0510,0.1010,-0.0190,1.1651,5073.8281,4562.5000,5073.8281,5306.2500,12.0552,0.0000,-0.3662,-6.6528,-1.5869,-11.2183,17.3303,3.9264,0.0251,-0.0204,-0.0075,0.0000,0.0000,0.0000,0.0000,0.0000,0.0000,0.0000,0.0000,0.0000,0.0000,0.0000,0.0000,0.0000,0.0000,1.0000,0.0000,0.0000,0.0000,-0.1472,0.0739,0.0000,0.0000,0.0000,0.0000,0.0000,0.0000,-0.0000,-0.0544,0.0412,0.0223,0.0000,0.0000,-0.5712,0.5251,0.4702,0.5251,0.5525,4
111,179,3652516721669,-10.5117,-0.1472,0.0739,0.0510,0.1010,-0.0190,1.1651,5073.8281,4562.5000,5073.8281,5306.2500,12.0559,0.0000,-2.1973,-4.7607,0.4272,2.5057,16.8533,-12.9035,0.0233,-0.0219,-0.0074,0.0000,0.0000,0.0000,0.0000,0.0000,0.0000,0.0000,0.0000,0.0000,0.0000,0.0000,0.0000,0.0000,0.0000,1.0000,0.0000,0.0000,0.0000,-0.1472,0.0739,0.0000,0.0000,0.0000,0.0000,0.0000,0.0000,-0.0000,-0.0411,0.0455,0.0216,0.0000,0.0000,-0.5712,0.5251,0.4702,0.5251,0.5525,4
112,180,3652521255710,-10.5117,-0.1472,0.0739,0.0810,0.0910,0.0110,1.1651,5073.8281,4562.5000,5073.8281,5306.2500,12.0561,0.0000,-2.8687,2.2583,0.9766,12.1388,6.4273,-25.1960,0.0214,-0.0214,-0.0073,0.0000,0.0000,0.0000,0.0000,0.0000,0.0000,0.0000,0.0000,0.0000,0.0000,0.0000,0.0000,0.0000,0.0000,1.0000,0.0000,0.0000,0.0000,-0.1472,0.0739,0.0000,0.0000,0.0000,0.0000,0.0000,0.0000,-0.0000,-0.0315,0.0367,0.0204,0.0000,0.0000,-0.5712,0.5251,0.4702,0.5251,0.5525,4
113,181,3652526193745,-10.5117,-0.1472,0.0739,0.0810,0.0910,0.0110,1.1651,5073.8281,4562.5000,5073.8281,5306.2500,12.0561,0.0000,-1.5869,4.8218,1.8921,11.7611,-4.9361,-25.6758,0.0206,-0.0198,-0.0071,0.0000,0.0000,0.0000,0.0000,0.0000,0.0000,0.0000,0.0000,0.0000,0.0000,0.0000,0.0000,0.0000,0.0000,1.0000,0.0000,0.0000,0.0000,-0.1472,0.0739,0.0000,0.0000,0.0000,0.0000,0.0000,0.0000,-0.0000,-0.0313,0.0234,0.0188,0.0000,0.0000,-0.5712,0.5251,0.4702,0.5251,0.5525,4
114,182,3652531183024,-10.5117,-0.1472,0.0739,0.0810,0.0910,0.0110,1.1651,5097.0703,4562.5000,5073.8281,5306.2500,12.0561,0.0000,-0.1831,3.5400,0.8545,2.9528,-13.7655,-15.7654,0.0210,-0.0183,-0.0071,0.0000,0.0000,0.0000,0.0000,0.0000,0.0000,0.0000,0.0000,0.0000,0.0000,0.0000,0.0000,0.0000,0.0000,1.0000,0.0000,0.0000,0.0000,-0.1472,0.0739,0.0000,0.0000,0.0000,0.0000,0.0000,0.0000,-0.0000,-0.0385,0.0151,0.0184,0.0000,0.0000,-0.5712,0.5251,0.4702,0.5251,0.5525,4
115,183,3652556471126,-10.5400,-0.1105,0.0978,0.0810,0.0910,0.0110,1.1651,5097.0703,4980.8594,4980.8594,4957.6172,12.0559,0.0000,1.9531,-1.0986,-0.9766,-4.3348,-16.6879,-11.3186,0.0225,-0.0180,-0.0072,0.0000,0.0000,0.0000,0.0000,0.0000,0.0000,0.0000,0.0000,0.0000,0.0000,0.0000,0.0000,0.0000,0.0000,1.0000,0.0000,0.0000,0.0000,-0.1105,0.0978,0.0000,0.0000,0.0000,0.0000,0.0000,0.0000,-0.0000,0.1723,0.1620,0.0195,0.0000,0.0000,-0.5726,0.5278,0.5141,0.5141,0.5114,4
116,184,3652560234843,-10.5400,-0.1105,0.0978,0.0810,0.0910,0.0110,1.1651,5097.0703,4980.8594,4980.8594,4957.6172,12.0552,0.0000,-0.1221,2.2583,1.0376,-3.2445,12.1641,-3.5803,0.0246,-0.0187,-0.0074,0.0000,0.0000,0.0000,0.0000,0.0000,0.0000,0.0000,0.0000,0.0000,0.0000,0.0000,0.0000,0.0000,0.0000,1.0000,0.0000,0.0000,0.0000,-0.1105,0.0978,0.0000,0.0000,0.0000,0.0000,0.0000,0.0000,-0.0000,0.0936,0.1250,0.0213,0.0000,0.0000,-0.5726,0.5278,0.5141,0.5141,0.5114,4
117,185,3652567023615,-10.5400,-0.1105,0.0978,0.0810,0.0910,0.0110,1.1651,5097.0703,4980.8594,4980.8594,4957.6172,12.0547,0.0000,-0.3052,-4.1504,-0.2441,-4.9421,-3.2316,-2.8643,0.0219,-0.0219,-0.0071,0.0000,0.0000,0.0000,0.0000,0.0000,0.0000,0.0000,0.0000,0.0000,0.0000,0.0000,0.0000,0.0000,0.0000,1.0000,0.0000,0.0000,0.0000,-0.1105,0.0978,0.0000,0.0000,0.0000,0.0000,0.0000,0.0000,-0.0000,0.0691,0.1154,0.0191,0.0000,0.0000,-0.5726,0.5278,0.5141,0.5141,0.5114,4
118,186,3652597126351,-10.5400,-0.1105,0.0978,0.0810,0.0910,0.0110,1.1651,5004.1016,100.0000,4980.8594,5143.5547,12.0544,0.0000,-0.2441,-4.6997,-1.5869,11.9499,-4.5070,-39.8897,0.0222,-0.0228,-0.0073,0.0000,0.0000,0.0000,0.0000,0.0000,0.0000,0.0000,0.0000,0.0000,0.0000,0.0000,0.0000,0.0000,0.0000,1.0000,0.0000,0.0000,0.0000,-0.1105,0.0978,0.0000,0.0000,0.0000,0.0000,0.0000,0.0000,-0.0000,0.0341,0.0948,0.0205,0.0000,0.0000,-0.5726,0.5168,0.0106,0.5141,0.5332,4
119,187,3652602130794,-10.5400,-0.1105,0.0978,0.0810,0.0910,0.0110,1.1651,5004.1016,100.0000,4980.8594,5143.5547,12.0561,0.0000,-1.3428,5.5542,0.8545,-0.7508,-0.1702,-6.9387,0.0218,-0.0168,-0.0075,0.0000,0.0000,0.0000,0.0000,0.0000,0.0000,0.0000,0.0000,0.0000,0.0000,0.0000,0.0000,0.0000,0.0000,1.0000,0.0000,0.0000,0.0000,-0.1105,0.0978,0.0000,0.0000,0.0000,0.0000,0.0000,0.0000,-0.0000,0.0139,0.0391,0.0221,0.0000,0.0000,-0.5726,0.5168,0.0106,0.5141,0.5332,4
120,188,3652607092243,-10.5400,-0.1105,0.0978,0.0810,0.0910,0.0110,1.1651,5004.1016,100.0000,4980.8594,5143.5547,12.0576,0.0000,1.8311,-1.7700,-0.9766,2.9863,10.3996,-22.2745,0.0258,-0.0215,-0.0075,0.0000,0.0000,0.0000,0.0000,0.0000,0.0000,0.0000,0.0000,0.0000,0.0000,0.0000,0.0000,0.0000,0.0000,1.0000,0.0000,0.0000,0.0000,-0.1105,0.0978,0.0000,0.0000,0.0000,0.0000,0.0000,0.0000,-0.0000,-0.0258,0.0656,0.0221,0.0000,0.0000,-0.5726,0.5168,0.0106,0.5141,0.5332,4
121,189,3652611210501,-10.5400,-0.1105,0.0978,0.0810,0.0910,0.0110,1.1651,5004.1016,100.0000,4980.8594,5143.5547,12.0593,0.0000,-2.6855,0.6104,0.4883,6.6540,19.0301,-40.8206,0.0245,-0.0211,-0.0074,0.0000,0.0000,0.0000,0.0000,0.0000,0.0000,0.0000,0.0000,0.0000,0.0000,0.0000,0.0000,0.0000,0.0000,1.0000,0.0000,0.0000,0.0000,-0.1105,0.0978,0.0000,0.0000,0.0000,0.0000,0.0000,0.0000,-0.0000,-0.0217,0.0530,0.0214,0.0000,0.0000,-0.5726,0.5168,0.0106,0.5141,0.5332,4
122,190,3652616154660,-10.5400,-0.1105,0.0978,0.0810,0.0910,0.0110,1.1651,5004.1016,100.0000,4980.8594,5143.5547,12.0615,0.0000,-5.3101,2.0752,-0.0000,2.5918,16.6375,-37.2570,0.0221,-0.0202,-0.0074,0.0000,0.0000,0.0000,0.0000,0.0000,0.0000,0.0000,0.0000,0.0000,0.0000,0.0000,0.0000,0.0000,0.0000,1.0000,0.0000,0.0000,0.0000,-0.1105,0.0978,0.0000,0.0000,0.0000,0.0000,0.0000,0.0000,-0.0000,-0.0121,0.0411,0.0209,0.0000,0.0000,-0.5726,0.5168,0.0106,0.5141,0.5332,4
123,191,3652621698372,-10.5400,-0.1105,0.0978,0.0810,0.0910,0.0110,1.1651,5004.1016,100.0000,4980.8594,5143.5547,12.0631,0.0000,-4.3945,1.1597,1.7700,1.3748,0.9589,-23.2483,0.0200,-0.0198,-0.0072,0.0000,0.0000,0.0000,0.0000,0.0000,0.0000,0.0000,0.0000,0.0000,0.0000,0.0000,0.0000,0.0000,0.0000,1.0000,0.0000,0.0000,0.0000,-0.1105,0.0978,0.0000,0.0000,0.0000,0.0000,0.0000,0.0000,-0.0000,-0.0073,0.0358,0.0193,0.0000,0.0000,-0.5726,0.5168,0.0106,0.5141,0.5332,4
124,192,3652626244829,-10.5400,-0.1105,0.0978,0.0810,0.0910,0.0110,1.1651,5004.1016,100.0000,4980.8594,5143.5547,12.0653,0.0000,-0.0610,-0.9766,0.6104,1.8506,-16.9372,-13.0945,0.0199,-0.0197,-0.0072,0.0000,0.0000,0.0000,0.0000,0.0000,0.0000,0.0000,0.0000,0.0000,0.0000,0.0000,0.0000,0.0000,0.0000,1.0000,0.0000,0.0000,0.0000,-0.1105,0.0978,0.0000,0.0000,0.0000,0.0000,0.0000,0.0000,-0.0000,-0.0155,0.0342,0.0189,0.0000,0.0000,-0.5726,0.5168,0.0106,0.5141,0.5332,4
125,193,3652631164574,-10.5400,-0.1105,0.0978,0.0810,0.0910,0.0110,1.1651,5004.1016,100.0000,4980.8594,5143.5547,12.0682,0.0000,4.0283,-0.9766,0.7935,6.0563,-22.4966,-13.0229,0.0219,-0.0196,-0.0071,0.0000,0.0000,0.0000,0.0000,0.0000,0.0000,0.0000,0.0000,0.0000,0.0000,0.0000,0.0000,0.0000,0.0000,1.0000,0.0000,0.0000,0.0000,-0.1105,0.0978,0.0000,0.0000,0.0000,0.0000,0.0000,0.0000,-0.0000,-0.0339,0.0329,0.0188,0.0000,0.0000,-0.5726,0.5168,0.0106,0.5141,0.5332,4
126,194,3652636498687,-10.5400,-0.1105,0.0978,0.0810,0.0910,0.0110,1.1651,5004.1016,100.0000,4980.8594,5143.5547,12.0699,0.0000,4.4556,0.9766,-1.0376,2.6587,-10.1599,-10.6336,0.0244,-0.0189,-0.0073,0.0000,0.0000,0.0000,0.0000,0.0000,0.0000,0.0000,0.0000,0.0000,0.0000,0.0000,0.0000,0.0000,0.0000,1.0000,0.0000,0.0000,0.0000,-0.1105,0.0978,0.0000,0.0000,0.0000,0.0000,0.0000,0.0000,-0.0000,-0.0500,0.0285,0.0201,0.0000,0.0000,-0.5726,0.5168,0.0106,0.5141,0.5332,4
127,195,3652641176378,-10.5400,-0.1105,0.0978,0.0810,0.0910,0.0110,1.1651,5004.1016,100.0000,4980.8594,5143.5547,12.0718,0.0000,1.8921,1.6479,-0.2441,-7.2398,7.9040,0.5609,0.0255,-0.0184,-0.0073,0.0000,0.0000,0.0000,0.0000,0.0000,0.0000,0.0000,0.0000,0.0000,0.0000,0.0000,0.0000,0.0000,0.0000,1.0000,0.0000,0.0000,0.0000,-0.1105,0.0978,0.0000,0.0000,0.0000,0.0000,0.0000,0.0000,-0.0000,-0.0528,0.0271,0.0205,0.0000,0.0000,-0.5726,0.5168,0.0106,0.5141,0.5332,4
128,196,3652646243439,-10.5400,-0.1105,0.0978,0.0810,0.0910,0.0110,1.1651,5004.1016,100.0000,4980.8594,5143.5547,12.0738,0.0000,-1.5869,0.6104,-0.7935,-17.0188,20.5644,11.5621,0.0246,-0.0191,-0.0074,0.0000,0.0000,0.0000,0.0000,0.0000,0.0000,0.0000,0.0000,0.0000,0.0000,0.0000,0.0000,0.0000,0.0000,1.0000,0.0000,0.0000,0.0000,-0.1105,0.0978,0.0000,0.0000,0.0000,0.0000,0.0000,0.0000,-0.0000,-0.0426,0.0325,0.0209,0.0000,0.0000,-0.5726,0.5168,0.0106,0.5141,0.5332,4
