loop_index, counter, last_step_ns, T_ref, theta_ref, phi_ref, uwind, vwind, wwind, rho, rpm1, rpm2, rpm3, rpm4,v_batt,alt,gyro_roll,gyro_pitch,gyro_yaw,accel_X,accel_Y,accel_Z,roll,pitch,yaw,X,Y,Z,Xdot,Ydot,Zdot,x0,y0,z0,e.xbee_time,xbee_time_received_ns,xbee_x,xbee_y,xbee_z,xbee_qw,xbee_qx,xbee_qy,xbee_qz,sp_roll,sp_pitch,sp_yaw,sp_X,sp_Y,sp_Z,sp_Xdot,sp_Ydot,sp_Zdot,u_roll,u_pitch,u_yaw,u_X,u_Y,u_Z,mot_1,mot_2,mot_3,mot_4,flight mode
1,344,3660479032740,-10.4994,-0.1306,0.1114,0.0610,0.0710,-0.0190,1.1651,5213.2812,4980.8594,3075.0000,4980.8594,12.0274,0.0000,-2.8687,0.3662,-0.5493,2.4005,-4.0251,-19.9711,0.0205,-0.0212,-0.0102,0.0000,0.0000,0.0000,0.0000,0.0000,0.0000,0.0000,0.0000,0.0000,0.0000,0.0000,0.0000,0.0000,0.0000,1.0000,0.0000,0.0000,0.0000,-0.1306,0.1114,0.0000,0.0000,0.0000,0.0000,0.0000,0.0000,-0.0000,-0.0000,0.0000,0.0000,0.0000,0.0000,-0.5710,0.5415,0.5142,0.3084,0.5142,4
2,345,3660556773366,-10.4331,-0.2051,-0.0115,-0.0390,0.6910,0.3110,1.1651,23.4375,23.4375,23.4375,23.4375,12.0298,0.0000,1.6479,-1.8921,-0.9766,-8.1053,-23.2997,7.9746,0.0206,-0.0212,-0.0105,0.0000,0.0000,0.0000,0.0000,0.0000,0.0000,0.0000,0.0000,0.0000,0.0000,0.0000,0.0000,0.0000,0.0000,1.0000,0.0000,0.0000,0.0000,-0.2051,-0.0115,0.0000,0.0000,0.0000,0.0000,0.0000,0.0000,-0.0000,-0.0020,-0.0020,0.0020,0.0000,0.0000,-0.5593,0.0025,0.0025,0.0025,0.0025,4
3,346,3660560531126,-10.4331,-0.2051,-0.0115,-0.0390,0.6910,0.3110,1.1651,23.4375,23.4375,23.4375,23.4375,12.0414,0.0000,-0.0610,-1.2207,-0.4272,3.1823,17.6036,-14.3953,0.0247,-0.0236,-0.0109,0.0000,0.0000,0.0000,0.0000,0.0000,0.0000,0.0000,0.0000,0.0000,0.0000,0.0000,0.0000,0.0000,0.0000,1.0000,0.0000,0.0000,0.0000,-0.2051,-0.0115,0.0000,0.0000,0.0000,0.0000,0.0000,0.0000,-0.0000,-0.0040,0.0040,0.0040,0.0000,0.0000,-0.5593,0.0025,0.0025,0.0025,0.0025,4
4,347,3660564515733,-10.4331,-0.2051,-0.0115,-0.0390,0.6910,0.3110,1.1651,23.4375,23.4375,23.4375,23.4375,12.0527,0.0000,-3.6011,0.3662,0.9766,-6.5440,-0.1750,-1.8355,0.0190,-0.0226,-0.0104,0.0000,0.0000,0.0000,0.0000,0.0000,0.0000,0.0000,0.0000,0.0000,0.0000,0.0000,0.0000,0.0000,0.0000,1.0000,0.0000,0.0000,0.0000,-0.2051,-0.0115,0.0000,0.0000,0.0000,0.0000,0.0000,0.0000,-0.0000,0.0060,-0.0022,0.0041,0.0000,0.0000,-0.5593,0.0025,0.0025,0.0025,0.0025,4
5,348,3660596731258,-10.4331,-0.2051,-0.0115,-0.0390,0.6910,0.3110,1.1651,23.4375,23.4375,23.4375,23.4375,12.0631,0.0000,-1.0986,-4.6997,-0.1221,2.2236,-15.4556,-7.9245,0.0189,-0.0236,-0.0104,0.0000,0.0000,0.0000,0.0000,0.0000,0.0000,0.0000,0.0000,0.0000,0.0000,0.0000,0.0000,0.0000,0.0000,1.0000,0.0000,0.0000,0.0000,-0.2051,-0.0115,0.0000,0.0000,0.0000,0.0000,0.0000,0.0000,-0.0000,-0.0080,0.0057,0.0080,0.0000,0.0000,-0.5593,0.0025,0.0025,0.0025,0.0025,4
6,349,3660601641963,-10.4331,-0.2051,-0.0115,-0.0390,0.6910,0.3110,1.1651,23.4375,23.4375,23.4375,23.4375,12.0740,0.0000,3.2349,3.4180,-0.6714,5.7311,0.1127,-25.0600,0.0240,-0.0209,-0.0109,0.0000,0.0000,0.0000,0.0000,0.0000,0.0000,0.0000,0.0000,0.0000,0.0000,0.0000,0.0000,0.0000,0.0000,1.0000,0.0000,0.0000,0.0000,-0.2051,-0.0115,0.0000,0.0000,0.0000,0.0000,0.0000,0.0000,-0.0000,-0.0100,-0.0100,0.0100,0.0000,0.0000,-0.5593,0.0025,0.0025,0.0025,0.0025,4
7,350,3660603130410,-10.4331,-0.2051,-0.0115,-0.0390,0.6910,0.3110,1.1651,23.4375,23.4375,23.4375,23.4375,12.0844,0.0000,-1.4038,-4.3945,0.9766,-13.6356,6.4512,15.3334,0.0212,-0.0231,-0.0107,0.0000,0.0000,0.0000,0.0000,0.0000,0.0000,0.0000,0.0000,0.0000,0.0000,0.0000,0.0000,0.0000,0.0000,1.0000,0.0000,0.0000,0.0000,-0.2051,-0.0115,0.0000,0.0000,0.0000,0.0000,0.0000,0.0000,-0.0000,-0.0093,0.0077,0.0116,0.0000,0.0000,-0.5593,0.0025,0.0025,0.0025,0.0025,4
8,351,3660609517397,-10.4331,-0.2051,-0.0115,-0.0390,0.6910,0.3110,1.1651,23.4375,23.4375,23.4375,23.4375,12.0958,0.0000,0.4883,-0.3662,-0.2441,20.0911,-12.0466,-40.1881,0.0210,-0.0246,-0.0107,0.0000,0.0000,0.0000,0.0000,0.0000,0.0000,0.0000,0.0000,0.0000,0.0000,0.0000,0.0000,0.0000,0.0000,1.0000,0.0000,0.0000,0.0000,-0.2051,-0.0115,0.0000,0.0000,0.0000,0.0000,0.0000,0.0000,-0.0000,-0.0140,0.0140,0.0140,0.0000,0.0000,-0.5593,0.0025,0.0025,0.0025,0.0025,4
9,352,3660613749891,-10.4331,-0.2051,-0.0115,-0.0390,0.6910,0.3110,1.1651,23.4375,23.4375,23.4375,23.4375,12.1062,0.0000,2.3804,4.4556,-0.3052,15.3618,-10.6034,-38.6461,0.0223,-0.0222,-0.0107,0.0000,0.0000,0.0000,0.0000,0.0000,0.0000,0.0000,0.0000,0.0000,0.0000,0.0000,0.0000,0.0000,0.0000,1.0000,0.0000,0.0000,0.0000,-0.2051,-0.0115,0.0000,0.0000,0.0000,0.0000,0.0000,0.0000,-0.0000,-0.0160,-0.0039,0.0160,0.0000,0.0000,-0.5593,0.0025,0.0025,0.0025,0.0025,4
10,353,3660619031385,-10.4331,-0.2051,-0.0115,-0.0390,0.6910,0.3110,1.1651,23.4375,23.4375,23.4375,23.4375,12.1163,0.0000,0.8545,4.0894,-0.6714,-3.8231,2.6634,-12.7221,0.0233,-0.0203,-0.0108,0.0000,0.0000,0.0000,0.0000,0.0000,0.0000,0.0000,0.0000,0.0000,0.0000,0.0000,0.0000,0.0000,0.0000,1.0000,0.0000,0.0000,0.0000,-0.2051,-0.0115,0.0000,0.0000,0.0000,0.0000,0.0000,0.0000,-0.0000,-0.0180,-0.0134,0.0180,0.0000,0.0000,-0.5593,0.0025,0.0025,0.0025,0.0025,4
11,354,3660623779109,-10.4331,-0.2051,-0.0115,-0.0390,0.6910,0.3110,1.1651,23.4375,23.4375,23.4375,23.4375,12.1258,0.0000,1.2817,-2.1973,-0.5493,-15.9141,8.7023,6.5998,0.0232,-0.0208,-0.0109,0.0000,0.0000,0.0000,0.0000,0.0000,0.0000,0.0000,0.0000,0.0000,0.0000,0.0000,0.0000,0.0000,0.0000,1.0000,0.0000,0.0000,0.0000,-0.2051,-0.0115,0.0000,0.0000,0.0000,0.0000,0.0000,0.0000,-0.0000,-0.0200,-0.0052,0.0200,0.0000,0.0000,-0.5593,0.0025,0.0025,0.0025,0.0025,4
12,355,3660628707853,-10.4331,-0.2051,-0.0115,-0.0390,0.6910,0.3110,1.1651,23.4375,23.4375,23.4375,23.4375,12.1364,0.0000,0.9155,-4.5776,0.7935,-13.4802,9.6181,4.9958,0.0224,-0.0228,-0.0108,0.0000,0.0000,0.0000,0.0000,0.0000,0.0000,0.0000,0.0000,0.0000,0.0000,0.0000,0.0000,0.0000,0.0000,1.0000,0.0000,0.0000,0.0000,-0.2051,-0.0115,0.0000,0.0000,0.0000,0.0000,0.0000,0.0000,-0.0000,-0.0220,0.0090,0.0209,0.0000,0.0000,-0.5593,0.0025,0.0025,0.0025,0.0025,4
13,356,3660633716338,-10.4331,-0.2051,-0.0115,-0.0390,0.6910,0.3110,1.1651,23.4375,23.4375,23.4375,23.4375,12.1465,0.0000,-1.7090,-0.1831,1.8921,2.2834,7.8705,-9.0392,0.0214,-0.0241,-0.0106,0.0000,0.0000,0.0000,0.0000,0.0000,0.0000,0.0000,0.0000,0.0000,0.0000,0.0000,0.0000,0.0000,0.0000,1.0000,0.0000,0.0000,0.0000,-0.2051,-0.0115,0.0000,0.0000,0.0000,0.0000,0.0000,0.0000,-0.0000,-0.0240,0.0151,0.0207,0.0000,0.0000,-0.5593,0.0025,0.0025,0.0025,0.0025,4
14,357,3660639350290,-10.4331,-0.2051,-0.0115,-0.0390,0.6910,0.3110,1.1651,23.4375,23.4375,23.4375,23.4375,12.1569,0.0000,-1.6479,2.9907,0.9155,12.3923,-6.7629,-16.7369,0.0205,-0.0236,-0.0105,0.0000,0.0000,0.0000,0.0000,0.0000,0.0000,0.0000,0.0000,0.0000,0.0000,0.0000,0.0000,0.0000,0.0000,1.0000,0.0000,0.0000,0.0000,-0.2051,-0.0115,0.0000,0.0000,0.0000,0.0000,0.0000,0.0000,-0.0000,-0.0260,0.0084,0.0212,0.0000,0.0000,-0.5593,0.0025,0.0025,0.0025,0.0025,4
15,358,3660643757055,-10.4331,-0.2051,-0.0115,-0.0390,0.6910,0.3110,1.1651,23.4375,23.4375,23.4375,23.4375,12.1669,0.0000,0.1221,2.5024,0.6104,2.6898,-14.5470,-11.5549,0.0211,-0.0221,-0.0105,0.0000,0.0000,0.0000,0.0000,0.0000,0.0000,0.0000,0.0000,0.0000,0.0000,0.0000,0.0000,0.0000,0.0000,1.0000,0.0000,0.0000,0.0000,-0.2051,-0.0115,0.0000,0.0000,0.0000,0.0000,0.0000,0.0000,-0.0000,-0.0280,-0.0020,0.0221,0.0000,0.0000,-0.5593,0.0025,0.0025,0.0025,0.0025,4
16,359,3660648732544,-10.4331,-0.2051,-0.0115,-0.0390,0.6910,0.3110,1.1651,23.4375,23.4375,23.4375,23.4375,12.1770,0.0000,2.3804,-3.4180,-2.0142,-3.0748,-10.5171,-11.4738,0.0227,-0.0221,-0.0107,0.0000,0.0000,0.0000,0.0000,0.0000,0.0000,0.0000,0.0000,0.0000,0.0000,0.0000,0.0000,0.0000,0.0000,1.0000,0.0000,0.0000,0.0000,-0.2051,-0.0115,0.0000,0.0000,0.0000,0.0000,0.0000,0.0000,-0.0000,-0.0300,-0.0004,0.0249,0.0000,0.0000,-0.5593,0.0025,0.0025,0.0025,0.0025,4
17,360,3660654081280,-10.4331,-0.2051,-0.0115,-0.0390,0.6910,0.3110,1.1651,23.4375,23.4375,23.4375,23.4375,12.1869,0.0000,2.4414,-2.8687,-0.9155,-1.7430,4.7731,-13.6626,0.0239,-0.0227,-0.0108,0.0000,0.0000,0.0000,0.0000,0.0000,0.0000,0.0000,0.0000,0.0000,0.0000,0.0000,0.0000,0.0000,0.0000,1.0000,0.0000,0.0000,0.0000,-0.2051,-0.0115,0.0000,0.0000,0.0000,0.0000,0.0000,0.0000,-0.0000,-0.0320,0.0038,0.0265,0.0000,0.0000,-0.5593,0.0025,0.0025,0.0025,0.0025,4
18,361,3660658697228,-10.4331,-0.2051,-0.0115,-0.0390,0.6910,0.3110,1.1651,23.4375,23.4375,23.4375,23.4375,12.1971,0.0000,-2.0752,3.1738,1.7090,-0.8847,18.6920,-8.8076,0.0232,-0.0225,-0.0106,0.0000,0.0000,0.0000,0.0000,0.0000,0.0000,0.0000,0.0000,0.0000,0.0000,0.0000,0.0000,0.0000,0.0000,1.0000,0.0000,0.0000,0.0000,-0.2051,-0.0115,0.0000,0.0000,0.0000,0.0000,0.0000,0.0000,-0.0000,-0.0340,0.0027,0.0256,0.0000,0.0000,-0.5593,0.0025,0.0025,0.0025,0.0025,4
19,362,3660663675925,-10.4331,-0.2051,-0.0115,-0.0390,0.6910,0.3110,1.1651,23.4375,23.4375,23.4375,23.4375,12.2070,0.0000,-2.6245,0.6104,0.4883,-5.4800,7.0985,-7.0151,0.0212,-0.0225,-0.0106,0.0000,0.0000,0.0000,0.0000,0.0000,0.0000,0.0000,0.0000,0.0000,0.0000,0.0000,0.0000,0.0000,0.0000,1.0000,0.0000,0.0000,0.0000,-0.2051,-0.0115,0.0000,0.0000,0.0000,0.0000,0.0000,0.0000,-0.0000,-0.0306,0.0028,0.0255,0.0000,0.0000,-0.5593,0.0025,0.0025,0.0025,0.0025,4
20,363,3660668991956,-10.4331,-0.2051,-0.0115,-0.0390,0.6910,0.3110,1.1651,23.4375,23.4375,23.4375,23.4375,12.2167,0.0000,-0.8545,-3.2959,0.5493,-1.8817,-11.5408,-15.0112,0.0204,-0.0233,-0.0105,0.0000,0.0000,0.0000,0.0000,0.0000,0.0000,0.0000,0.0000,0.0000,0.0000,0.0000,0.0000,0.0000,0.0000,1.0000,0.0000,0.0000,0.0000,-0.2051,-0.0115,0.0000,0.0000,0.0000,0.0000,0.0000,0.0000,-0.0000,-0.0358,0.0076,0.0256,0.0000,0.0000,-0.5593,0.0025,0.0025,0.0025,0.0025,4
21,364,3660673683479,-10.4331,-0.2051,-0.0115,-0.0390,0.6910,0.3110,1.1651,23.4375,23.4375,23.4375,23.4375,12.2273,0.0000,1.2817,-2.0142,-1.4038,10.7210,-15.6115,-19.2049,0.0216,-0.0236,-0.0107,0.0000,0.0000,0.0000,0.0000,0.0000,0.0000,0.0000,0.0000,0.0000,0.0000,0.0000,0.0000,0.0000,0.0000,1.0000,0.0000,0.0000,0.0000,-0.2051,-0.0115,0.0000,0.0000,0.0000,0.0000,0.0000,0.0000,-0.0000,-0.0400,0.0082,0.0274,0.0000,0.0000,-0.5593,0.0025,0.0025,0.0025,0.0025,4
22,365,3660678769496,-10.4331,-0.2051,-0.0115,-0.0390,0.6910,0.3110,1.1651,23.4375,23.4375,23.4375,23.4375,12.2365,0.0000,-0.1221,6.2256,-0.2441,4.3969,-0.2877,-3.7116,0.0231,-0.0220,-0.0107,0.0000,0.0000,0.0000,0.0000,0.0000,0.0000,0.0000,0.0000,0.0000,0.0000,0.0000,0.0000,0.0000,0.0000,1.0000,0.0000,0.0000,0.0000,-0.2051,-0.0115,0.0000,0.0000,0.0000,0.0000,0.0000,0.0000,-0.0000,-0.0420,-0.0031,0.0280,0.0000,0.0000,-0.5593,0.0025,0.0025,0.0025,0.0025,4
23,366,3660683655704,-10.4331,-0.2051,-0.0115,-0.0390,0.6910,0.3110,1.1651,23.4375,23.4375,23.4375,23.4375,12.2365,0.0000,-0.4883,-0.5493,0.6714,-11.7921,9.3280,3.2295,0.0231,-0.0216,-0.0107,0.0000,0.0000,0.0000,0.0000,0.0000,0.0000,0.0000,0.0000,0.0000,0.0000,0.0000,0.0000,0.0000,0.0000,1.0000,0.0000,0.0000,0.0000,-0.2051,-0.0115,0.0000,0.0000,0.0000,0.0000,0.0000,0.0000,-0.0000,-0.0440,-0.0036,0.0278,0.0000,0.0000,-0.5593,0.0025,0.0025,0.0025,0.0025,4
24,367,3660689423889,-10.4331,-0.2051,-0.0115,-0.0390,0.6910,0.3110,1.1651,23.4375,23.4375,23.4375,23.4375,12.2360,0.0000,0.3662,-8.6060,-1.4648,-6.5823,4.4686,-16.5483,0.0222,-0.0235,-0.0108,0.0000,0.0000,0.0000,0.0000,0.0000,0.0000,0.0000,0.0000,0.0000,0.0000,0.0000,0.0000,0.0000,0.0000,1.0000,0.0000,0.0000,0.0000,-0.2051,-0.0115,0.0000,0.0000,0.0000,0.0000,0.0000,0.0000,-0.0000,-0.0446,0.0097,0.0290,0.0000,0.0000,-0.5593,0.0025,0.0025,0.0025,0.0025,4
25,368,3660693741957,-10.4331,-0.2051,-0.0115,-0.0390,0.6910,0.3110,1.1651,23.4375,23.4375,23.4375,23.4375,12.2360,0.0000,-2.1362,1.6479,0.5493,9.2314,2.0210,-25.7856,0.0216,-0.0240,-0.0107,0.0000,0.0000,0.0000,0.0000,0.0000,0.0000,0.0000,0.0000,0.0000,0.0000,0.0000,0.0000,0.0000,0.0000,1.0000,0.0000,0.0000,0.0000,-0.2051,-0.0115,0.0000,0.0000,0.0000,0.0000,0.0000,0.0000,-0.0000,-0.0462,0.0104,0.0286,0.0000,0.0000,-0.5593,0.0025,0.0025,0.0025,0.0025,4
26,369,3660698702406,-10.4331,-0.2051,-0.0115,-0.0390,0.6910,0.3110,1.1651,23.4375,23.4375,23.4375,23.4375,12.2345,0.0000,-1.8311,7.5684,0.7324,7.0150,-5.0320,-7.2752,0.0212,-0.0223,-0.0106,0.0000,0.0000,0.0000,0.0000,0.0000,0.0000,0.0000,0.0000,0.0000,0.0000,0.0000,0.0000,0.0000,0.0000,1.0000,0.0000,0.0000,0.0000,-0.2051,-0.0115,0.0000,0.0000,0.0000,0.0000,0.0000,0.0000,-0.0000,-0.0486,-0.0015,0.0280,0.0000,0.0000,-0.5593,0.0025,0.0025,0.0025,0.0025,4
27,370,3660704253034,-10.4331,-0.2051,-0.0115,-0.0390,0.6910,0.3110,1.1651,23.4375,23.4375,23.4375,23.4375,12.2345,0.0000,1.1597,-1.2207,0.9766,-9.4753,-8.0359,2.7998,0.0218,-0.0217,-0.0106,0.0000,0.0000,0.0000,0.0000,0.0000,0.0000,0.0000,0.0000,0.0000,0.0000,0.0000,0.0000,0.0000,0.0000,1.0000,0.0000,0.0000,0.0000,-0.2051,-0.0115,0.0000,0.0000,0.0000,0.0000,0.0000,0.0000,-0.0000,-0.0520,-0.0036,0.0276,0.0000,0.0000,-0.5593,0.0025,0.0025,0.0025,0.0025,4
28,371,3660708717667,-10.4331,-0.2051,-0.0115,-0.0390,0.6910,0.3110,1.1651,23.4375,23.4375,23.4375,23.4375,12.2343,0.0000,3.0518,-8.1177,-0.4883,-2.4507,-4.7563,-13.4764,0.0228,-0.0234,-0.0107,0.0000,0.0000,0.0000,0.0000,0.0000,0.0000,0.0000,0.0000,0.0000,0.0000,0.0000,0.0000,0.0000,0.0000,1.0000,0.0000,0.0000,0.0000,-0.2051,-0.0115,0.0000,0.0000,0.0000,0.0000,0.0000,0.0000,-0.0000,-0.0540,0.0081,0.0285,0.0000,0.0000,-0.5593,0.0025,0.0025,0.0025,0.0025,4
29,372,3660713761814,-10.4331,-0.2051,-0.0115,-0.0390,0.6910,0.3110,1.1651,23.4375,23.4375,23.4375,23.4375,12.2341,0.0000,-2.5024,1.9531,-0.9766,6.4436,14.8036,-17.6797,0.0230,-0.0234,-0.0108,0.0000,0.0000,0.0000,0.0000,0.0000,0.0000,0.0000,0.0000,0.0000,0.0000,0.0000,0.0000,0.0000,0.0000,1.0000,0.0000,0.0000,0.0000,-0.2051,-0.0115,0.0000,0.0000,0.0000,0.0000,0.0000,0.0000,-0.0000,-0.0560,0.0067,0.0294,0.0000,0.0000,-0.5593,0.0025,0.0025,0.0025,0.0025,4
30,373,3660718739511,-10.4331,-0.2051,-0.0115,-0.0390,0.6910,0.3110,1.1651,23.4375,23.4375,23.4375,23.4375,12.2343,0.0000,-1.5869,6.2256,1.2207,0.3084,4.8546,-10.5453,0.0214,-0.0222,-0.0106,0.0000,0.0000,0.0000,0.0000,0.0000,0.0000,0.0000,0.0000,0.0000,0.0000,0.0000,0.0000,0.0000,0.0000,1.0000,0.0000,0.0000,0.0000,-0.2051,-0.0115,0.0000,0.0000,0.0000,0.0000,0.0000,0.0000,-0.0000,-0.0484,-0.0016,0.0281,0.0000,0.0000,-0.5593,0.0025,0.0025,0.0025,0.0025,4
31,374,3660756581322,-10.4334,-0.2046,0.0185,0.0710,0.7810,0.3510,1.1651,23.4375,23.4375,23.4375,23.4375,12.2343,0.0000,1.2817,-0.9155,1.0986,-6.4675,-12.5333,-7.6762,0.0211,-0.0222,-0.0105,0.0000,0.0000,0.0000,0.0000,0.0000,0.0000,0.0000,0.0000,0.0000,0.0000,0.0000,0.0000,0.0000,0.0000,1.0000,0.0000,0.0000,0.0000,-0.2046,0.0185,0.0000,0.0000,0.0000,0.0000,0.0000,0.0000,-0.0000,-0.0475,0.0600,0.0274,0.0000,0.0000,-0.5579,0.0025,0.0025,0.0025,0.0025,4
32,375,3660814740831,-10.4334,-0.2046,0.0185,0.0710,0.7810,0.3510,1.1651,23.4375,23.4375,23.4375,23.4375,12.2341,0.0000,-1.8311,13.6108,-2.5024,1.9367,8.4410,-5.6736,0.0212,-0.0211,-0.0108,0.0000,0.0000,0.0000,0.0000,0.0000,0.0000,0.0000,0.0000,0.0000,0.0000,0.0000,0.0000,0.0000,0.0000,1.0000,0.0000,0.0000,0.0000,-0.2046,0.0185,0.0000,0.0000,0.0000,0.0000,0.0000,0.0000,-0.0000,-0.0529,0.0379,0.0302,0.0000,0.0000,-0.5579,0.0025,0.0025,0.0025,0.0025,4
33,376,3660818664237,-10.4334,-0.2046,0.0185,0.0710,0.7810,0.3510,1.1651,23.4375,23.4375,23.4375,23.4375,12.2341,0.0000,2.8687,-5.1270,4.6997,-1.8793,-15.2471,-10.2063,0.0207,-0.0213,-0.0104,0.0000,0.0000,0.0000,0.0000,0.0000,0.0000,0.0000,0.0000,0.0000,0.0000,0.0000,0.0000,0.0000,0.0000,1.0000,0.0000,0.0000,0.0000,-0.2046,0.0185,0.0000,0.0000,0.0000,0.0000,0.0000,0.0000,-0.0000,-0.0521,0.0309,0.0266,0.0000,0.0000,-0.5579,0.0025,0.0025,0.0025,0.0025,4
34,377,3660824221114,-10.4334,-0.2046,0.0185,0.0710,0.7810,0.3510,1.1651,23.4375,23.4375,23.4375,23.4375,12.2338,0.0000,-3.4790,-6.7749,-6.8359,2.5296,6.9571,-14.6340,0.0218,-0.0221,-0.0110,0.0000,0.0000,0.0000,0.0000,0.0000,0.0000,0.0000,0.0000,0.0000,0.0000,0.0000,0.0000,0.0000,0.0000,1.0000,0.0000,0.0000,0.0000,-0.2046,0.0185,0.0000,0.0000,0.0000,0.0000,0.0000,0.0000,-0.0000,-0.0620,0.0290,0.0323,0.0000,0.0000,-0.5579,0.0025,0.0025,0.0025,0.0025,4
35,378,3660828717994,-10.4334,-0.2046,0.0185,0.0710,0.7810,0.3510,1.1651,23.4375,23.4375,23.4375,23.4375,12.2341,0.0000,0.3662,9.0332,5.4321,-3.6247,5.6002,-7.6452,0.0211,-0.0210,-0.0105,0.0000,0.0000,0.0000,0.0000,0.0000,0.0000,0.0000,0.0000,0.0000,0.0000,0.0000,0.0000,0.0000,0.0000,1.0000,0.0000,0.0000,0.0000,-0.2046,0.0185,0.0000,0.0000,0.0000,0.0000,0.0000,0.0000,-0.0000,-0.0579,0.0170,0.0277,0.0000,0.0000,-0.5579,0.0025,0.0025,0.0025,0.0025,4
36,379,3660833677776,-10.4334,-0.2046,0.0185,0.0710,0.7810,0.3510,1.1651,23.4375,23.4375,23.4375,23.4375,12.2336,0.0000,1.9531,-1.8921,-2.6855,2.2905,-10.0352,-11.0585,0.0208,-0.0215,-0.0108,0.0000,0.0000,0.0000,0.0000,0.0000,0.0000,0.0000,0.0000,0.0000,0.0000,0.0000,0.0000,0.0000,0.0000,1.0000,0.0000,0.0000,0.0000,-0.2046,0.0185,0.0000,0.0000,0.0000,0.0000,0.0000,0.0000,-0.0000,-0.0568,0.0180,0.0298,0.0000,0.0000,-0.5579,0.0025,0.0025,0.0025,0.0025,4
37,380,3660838779458,-10.4334,-0.2046,0.0185,0.0710,0.7810,0.3510,1.1651,23.4375,23.4375,23.4375,23.4375,12.2341,0.0000,-3.4790,-2.3193,0.3052,1.6976,3.2987,-10.5477,0.0214,-0.0215,-0.0108,0.0000,0.0000,0.0000,0.0000,0.0000,0.0000,0.0000,0.0000,0.0000,0.0000,0.0000,0.0000,0.0000,0.0000,1.0000,0.0000,0.0000,0.0000,-0.2046,0.0185,0.0000,0.0000,0.0000,0.0000,0.0000,0.0000,-0.0000,-0.0621,0.0155,0.0297,0.0000,0.0000,-0.5579,0.0025,0.0025,0.0025,0.0025,4
38,381,3660844146192,-10.4334,-0.2046,0.0185,0.0710,0.7810,0.3510,1.1651,23.4375,23.4375,23.4375,23.4375,12.2341,0.0000,2.5024,-1.1597,-0.3052,-5.7431,4.5837,-13.4334,0.0213,-0.0214,-0.0108,0.0000,0.0000,0.0000,0.0000,0.0000,0.0000,0.0000,0.0000,0.0000,0.0000,0.0000,0.0000,0.0000,0.0000,1.0000,0.0000,0.0000,0.0000,-0.2046,0.0185,0.0000,0.0000,0.0000,0.0000,0.0000,0.0000,-0.0000,-0.0613,0.0135,0.0299,0.0000,0.0000,-0.5579,0.0025,0.0025,0.0025,0.0025,4
39,382,3660848676692,-10.4334,-0.2046,0.0185,0.0710,0.7810,0.3510,1.1651,23.4375,23.4375,23.4375,23.4375,12.2343,0.0000,-1.4038,7.8735,1.4648,5.2696,-6.7869,-5.3108,0.0207,-0.0212,-0.0107,0.0000,0.0000,0.0000,0.0000,0.0000,0.0000,0.0000,0.0000,0.0000,0.0000,0.0000,0.0000,0.0000,0.0000,1.0000,0.0000,0.0000,0.0000,-0.2046,0.0185,0.0000,0.0000,0.0000,0.0000,0.0000,0.0000,-0.0000,-0.0578,0.0117,0.0286,0.0000,0.0000,-0.5579,0.0025,0.0025,0.0025,0.0025,4
40,383,3660853632350,-10.4334,-0.2046,0.0185,0.0710,0.7810,0.3510,1.1651,23.4375,23.4375,23.4375,23.4375,12.2341,0.0000,0.3662,-8.9722,-2.0752,-0.8488,-0.3548,-11.5740,0.0214,-0.0215,-0.0109,0.0000,0.0000,0.0000,0.0000,0.0000,0.0000,0.0000,0.0000,0.0000,0.0000,0.0000,0.0000,0.0000,0.0000,1.0000,0.0000,0.0000,0.0000,-0.2046,0.0185,0.0000,0.0000,0.0000,0.0000,0.0000,0.0000,-0.0000,-0.0631,0.0129,0.0304,0.0000,0.0000,-0.5579,0.0025,0.0025,0.0025,0.0025,4
41,384,3660859040870,-10.4334,-0.2046,0.0185,0.0710,0.7810,0.3510,1.1651,23.4375,23.4375,23.4375,23.4375,12.2333,0.0000,-1.0986,2.5024,1.5259,-2.6946,7.7074,-13.2878,0.0213,-0.0213,-0.0107,0.0000,0.0000,0.0000,0.0000,0.0000,0.0000,0.0000,0.0000,0.0000,0.0000,0.0000,0.0000,0.0000,0.0000,1.0000,0.0000,0.0000,0.0000,-0.2046,0.0185,0.0000,0.0000,0.0000,0.0000,0.0000,0.0000,-0.0000,-0.0621,0.0113,0.0292,0.0000,0.0000,-0.5579,0.0025,0.0025,0.0025,0.0025,4
42,385,3660863653486,-10.4334,-0.2046,0.0185,0.0710,0.7810,0.3510,1.1651,23.4375,23.4375,23.4375,23.4375,12.2333,0.0000,2.2583,7.5684,-0.5493,2.1734,-10.5003,-7.4232,0.0208,-0.0209,-0.0108,0.0000,0.0000,0.0000,0.0000,0.0000,0.0000,0.0000,0.0000,0.0000,0.0000,0.0000,0.0000,0.0000,0.0000,1.0000,0.0000,0.0000,0.0000,-0.2046,0.0185,0.0000,0.0000,0.0000,0.0000,0.0000,0.0000,-0.0000,-0.0585,0.0086,0.0294,0.0000,0.0000,-0.5579,0.0025,0.0025,0.0025,0.0025,4
43,386,3660868624683,-10.4334,-0.2046,0.0185,0.0710,0.7810,0.3510,1.1651,23.4375,23.4375,23.4375,23.4375,12.2333,0.0000,-1.7700,-14.0381,0.4272,-0.2080,5.6170,-13.5528,0.0216,-0.0219,-0.0108,0.0000,0.0000,0.0000,0.0000,0.0000,0.0000,0.0000,0.0000,0.0000,0.0000,0.0000,0.0000,0.0000,0.0000,1.0000,0.0000,0.0000,0.0000,-0.2046,0.0185,0.0000,0.0000,0.0000,0.0000,0.0000,0.0000,-0.0000,-0.0645,0.0152,0.0295,0.0000,0.0000,-0.5579,0.0025,0.0025,0.0025,0.0025,4
44,387,3660873639376,-10.4334,-0.2046,0.0185,0.0710,0.7810,0.3510,1.1651,23.4375,23.4375,23.4375,23.4375,12.2333,0.0000,0.0000,11.2915,-1.0986,-1.9773,2.6299,-9.6072,0.0211,-0.0209,-0.0108,0.0000,0.0000,0.0000,0.0000,0.0000,0.0000,0.0000,0.0000,0.0000,0.0000,0.0000,0.0000,0.0000,0.0000,1.0000,0.0000,0.0000,0.0000,-0.2046,0.0185,0.0000,0.0000,0.0000,0.0000,0.0000,0.0000,-0.0000,-0.0602,0.0079,0.0300,0.0000,0.0000,-0.5579,0.0025,0.0025,0.0025,0.0025,4
45,388,3660878989195,-10.4334,-0.2046,0.0185,0.0710,0.7810,0.3510,1.1651,23.4375,23.4375,23.4375,23.4375,12.2338,0.0000,2.6855,-3.9062,2.1973,1.8458,-9.1362,-9.3017,0.0210,-0.0214,-0.0107,0.0000,0.0000,0.0000,0.0000,0.0000,0.0000,0.0000,0.0000,0.0000,0.0000,0.0000,0.0000,0.0000,0.0000,1.0000,0.0000,0.0000,0.0000,-0.2046,0.0185,0.0000,0.0000,0.0000,0.0000,0.0000,0.0000,-0.0000,-0.0604,0.0119,0.0284,0.0000,0.0000,-0.5579,0.0025,0.0025,0.0025,0.0025,4
46,389,3660883584562,-10.4334,-0.2046,0.0185,0.0710,0.7810,0.3510,1.1651,23.4375,23.4375,23.4375,23.4375,12.2350,0.0000,-3.9673,-1.4038,-2.6855,-0.5953,7.1393,-12.5264,0.0216,-0.0213,-0.0109,0.0000,0.0000,0.0000,0.0000,0.0000,0.0000,0.0000,0.0000,0.0000,0.0000,0.0000,0.0000,0.0000,0.0000,1.0000,0.0000,0.0000,0.0000,-0.2046,0.0185,0.0000,0.0000,0.0000,0.0000,0.0000,0.0000,-0.0000,-0.0639,0.0110,0.0306,0.0000,0.0000,-0.5579,0.0025,0.0025,0.0025,0.0025,4
47,390,3660888742737,-10.4334,-0.2046,0.0185,0.0710,0.7810,0.3510,1.1651,23.4375,23.4375,23.4375,23.4375,12.2353,0.0000,4.0283,0.1831,2.5024,-0.9755,-1.6590,-12.3593,0.0212,-0.0213,-0.0107,0.0000,0.0000,0.0000,0.0000,0.0000,0.0000,0.0000,0.0000,0.0000,0.0000,0.0000,0.0000,0.0000,0.0000,1.0000,0.0000,0.0000,0.0000,-0.2046,0.0185,0.0000,0.0000,0.0000,0.0000,0.0000,0.0000,-0.0000,-0.0610,0.0111,0.0286,0.0000,0.0000,-0.5579,0.0025,0.0025,0.0025,0.0025,4
48,391,3660894168089,-10.4334,-0.2046,0.0185,0.0710,0.7810,0.3510,1.1651,23.4375,23.4375,23.4375,23.4375,12.2348,0.0000,-2.0752,3.2959,-2.2583,1.8195,-3.2100,-6.3014,0.0212,-0.0211,-0.0109,0.0000,0.0000,0.0000,0.0000,0.0000,0.0000,0.0000,0.0000,0.0000,0.0000,0.0000,0.0000,0.0000,0.0000,1.0000,0.0000,0.0000,0.0000,-0.2046,0.0185,0.0000,0.0000,0.0000,0.0000,0.0000,0.0000,-0.0000,-0.0609,0.0096,0.0303,0.0000,0.0000,-0.5579,0.0025,0.0025,0.0025,0.0025,4
49,392,3660898733669,-10.4334,-0.2046,0.0185,0.0710,0.7810,0.3510,1.1651,23.4375,23.4375,23.4375,23.4375,12.2353,0.0000,0.2441,-6.8970,2.7466,-1.9869,2.5172,-13.9800,0.0215,-0.0215,-0.0107,0.0000,0.0000,0.0000,0.0000,0.0000,0.0000,0.0000,0.0000,0.0000,0.0000,0.0000,0.0000,0.0000,0.0000,1.0000,0.0000,0.0000,0.0000,-0.2046,0.0185,0.0000,0.0000,0.0000,0.0000,0.0000,0.0000,-0.0000,-0.0630,0.0125,0.0284,0.0000,0.0000,-0.5579,0.0025,0.0025,0.0025,0.0025,4
50,393,3660903596004,-10.4334,-0.2046,0.0185,0.0710,0.7810,0.3510,1.1651,23.4375,23.4375,23.4375,23.4375,12.2348,0.0000,1.4038,5.6763,-3.4790,0.8129,0.2541,-9.1633,0.0213,-0.0211,-0.0110,0.0000,0.0000,0.0000,0.0000,0.0000,0.0000,0.0000,0.0000,0.0000,0.0000,0.0000,0.0000,0.0000,0.0000,1.0000,0.0000,0.0000,0.0000,-0.2046,0.0185,0.0000,0.0000,0.0000,0.0000,0.0000,0.0000,-0.0000,-0.0617,0.0099,0.0310,0.0000,0.0000,-0.5579,0.0025,0.0025,0.0025,0.0025,4
51,394,3660908574826,-10.4334,-0.2046,0.0185,0.0710,0.7810,0.3510,1.1651,23.4375,23.4375,23.4375,23.4375,12.2353,0.0000,-1.0376,-2.5024,3.3569,2.3981,-4.9409,-7.4089,0.0212,-0.0213,-0.0107,0.0000,0.0000,0.0000,0.0000,0.0000,0.0000,0.0000,0.0000,0.0000,0.0000,0.0000,0.0000,0.0000,0.0000,1.0000,0.0000,0.0000,0.0000,-0.2046,0.0185,0.0000,0.0000,0.0000,0.0000,0.0000,0.0000,-0.0000,-0.0609,0.0109,0.0284,0.0000,0.0000,-0.5579,0.0025,0.0025,0.0025,0.0025,4
52,395,3660913996011,-10.4334,-0.2046,0.0185,0.0710,0.7810,0.3510,1.1651,23.4375,23.4375,23.4375,23.4375,12.2358,0.0000,-0.5493,-2.3804,-2.1362,-6.9720,8.2349,-14.3524,0.0216,-0.0212,-0.0109,0.0000,0.0000,0.0000,0.0000,0.0000,0.0000,0.0000,0.0000,0.0000,0.0000,0.0000,0.0000,0.0000,0.0000,1.0000,0.0000,0.0000,0.0000,-0.2046,0.0185,0.0000,0.0000,0.0000,0.0000,0.0000,0.0000,-0.0000,-0.0636,0.0106,0.0302,0.0000,0.0000,-0.5579,0.0025,0.0025,0.0025,0.0025,4
53,396,3660918627416,-10.4334,-0.2046,0.0185,0.0710,0.7810,0.3510,1.1651,23.4375,23.4375,23.4375,23.4375,12.2358,0.0000,1.5259,3.9062,0.6714,9.0880,-10.4428,-8.0319,0.0210,-0.0215,-0.0108,0.0000,0.0000,0.0000,0.0000,0.0000,0.0000,0.0000,0.0000,0.0000,0.0000,0.0000,0.0000,0.0000,0.0000,1.0000,0.0000,0.0000,0.0000,-0.2046,0.0185,0.0000,0.0000,0.0000,0.0000,0.0000,0.0000,-0.0000,-0.0589,0.0125,0.0295,0.0000,0.0000,-0.5579,0.0025,0.0025,0.0025,0.0025,4
54,397,3660923648441,-10.4334,-0.2046,0.0185,0.0910,0.0610,-0.0090,1.1651,23.4375,23.4375,23.4375,23.4375,12.2360,0.0000,-2.5024,-4.5166,1.2817,-7.4191,8.1725,-11.9201,0.0217,-0.0210,-0.0107,0.0000,0.0000,0.0000,0.0000,0.0000,0.0000,0.0000,0.0000,0.0000,0.0000,0.0000,0.0000,0.0000,0.0000,1.0000,0.0000,0.0000,0.0000,-0.2046,0.0185,0.0000,0.0000,0.0000,0.0000,0.0000,0.0000,-0.0000,-0.0643,0.0090,0.0288,0.0000,0.0000,-0.5579,0.0025,0.0025,0.0025,0.0025,4
55,398,3660963389484,-10.5430,-0.0814,0.1207,0.0910,0.0610,-0.0090,1.1651,5004.1016,100.0000,100.0000,100.0000,12.2355,0.0000,3.2349,2.4414,-1.8921,3.9283,-5.2789,-11.3783,0.0212,-0.0215,-0.0109,0.0000,0.0000,0.0000,0.0000,0.0000,0.0000,0.0000,0.0000,0.0000,0.0000,0.0000,0.0000,0.0000,0.0000,1.0000,0.0000,0.0000,0.0000,-0.0814,0.1207,0.0000,0.0000,0.0000,0.0000,0.0000,0.0000,-0.0000,0.1080,0.1080,0.0301,0.0000,0.0000,-0.5730,0.5169,0.0106,0.0106,0.0106,4
56,399,3661019751790,-10.5430,-0.0814,0.1207,0.0910,0.0610,-0.0090,1.1651,100.0000,100.0000,100.0000,5097.0703,12.2355,0.0000,3.6621,3.6011,-1.4038,-2.8070,-3.9388,-11.6814,0.0214,-0.0215,-0.0110,0.0000,0.0000,0.0000,0.0000,0.0000,0.0000,0.0000,0.0000,0.0000,0.0000,0.0000,0.0000,0.0000,0.0000,1.0000,0.0000,0.0000,0.0000,-0.0814,0.1207,0.0000,0.0000,0.0000,0.0000,0.0000,0.0000,-0.0000,0.0644,0.0862,0.0314,0.0000,0.0000,-0.5730,0.0106,0.0106,0.0106,0.5279,4
57,400,3661023563835,-10.5430,-0.0814,0.1207,0.0910,0.0610,-0.0090,1.1651,100.0000,100.0000,100.0000,5097.0703,12.2348,0.0000,-4.0283,-1.6479,-0.2441,1.4585,4.2217,-9.6168,0.0214,-0.0219,-0.0111,0.0000,0.0000,0.0000,0.0000,0.0000,0.0000,0.0000,0.0000,0.0000,0.0000,0.0000,0.0000,0.0000,0.0000,1.0000,0.0000,0.0000,0.0000,-0.0814,0.1207,0.0000,0.0000,0.0000,0.0000,0.0000,0.0000,-0.0000,0.0353,0.0736,0.0315,0.0000,0.0000,-0.5730,0.0106,0.0106,0.0106,0.5279,4
58,401,3661028700429,-10.5430,-0.0814,0.1207,0.0910,0.0610,-0.0090,1.1651,100.0000,100.0000,100.0000,5097.0703,12.2280,0.0000,4.0283,0.3052,2.6855,-2.8620,-5.6649,-12.0729,0.0213,-0.0217,-0.0108,0.0000,0.0000,0.0000,0.0000,0.0000,0.0000,0.0000,0.0000,0.0000,0.0000,0.0000,0.0000,0.0000,0.0000,1.0000,0.0000,0.0000,0.0000,-0.0814,0.1207,0.0000,0.0000,0.0000,0.0000,0.0000,0.0000,-0.0000,0.0159,0.0616,0.0293,0.0000,0.0000,-0.5730,0.0106,0.0106,0.0106,0.5279,4
59,402,3661033925513,-10.5430,-0.0814,0.1207,0.0910,0.0610,-0.0090,1.1651,100.0000,100.0000,100.0000,5097.0703,12.2225,0.0000,-3.3569,0.3662,-5.0659,1.7765,6.1683,-8.7670,0.0215,-0.0219,-0.0113,0.0000,0.0000,0.0000,0.0000,0.0000,0.0000,0.0000,0.0000,0.0000,0.0000,0.0000,0.0000,0.0000,0.0000,1.0000,0.0000,0.0000,0.0000,-0.0814,0.1207,0.0000,0.0000,0.0000,0.0000,0.0000,0.0000,-0.0000,0.0006,0.0556,0.0332,0.0000,0.0000,-0.5730,0.0106,0.0106,0.0106,0.5279,4
60,403,3661038758852,-10.5430,-0.0814,0.1207,0.0910,0.0610,-0.0090,1.1651,100.0000,100.0000,100.0000,5097.0703,12.2169,0.0000,2.6855,-3.3569,7.6904,-3.6964,-5.3988,-11.6409,0.0212,-0.0220,-0.0106,0.0000,0.0000,0.0000,0.0000,0.0000,0.0000,0.0000,0.0000,0.0000,0.0000,0.0000,0.0000,0.0000,0.0000,1.0000,0.0000,0.0000,0.0000,-0.0814,0.1207,0.0000,0.0000,0.0000,0.0000,0.0000,0.0000,-0.0000,-0.0061,0.0510,0.0271,0.0000,0.0000,-0.5730,0.0106,0.0106,0.0106,0.5279,4
61,404,3661043671265,-10.5430,-0.0814,0.1207,0.0910,0.0610,-0.0090,1.1651,100.0000,100.0000,100.0000,5097.0703,12.2116,0.0000,-1.8921,4.8218,-10.3760,2.4388,3.5840,-9.1871,0.0215,-0.0219,-0.0115,0.0000,0.0000,0.0000,0.0000,0.0000,0.0000,0.0000,0.0000,0.0000,0.0000,0.0000,0.0000,0.0000,0.0000,1.0000,0.0000,0.0000,0.0000,-0.0814,0.1207,0.0000,0.0000,0.0000,0.0000,0.0000,0.0000,-0.0000,-0.0151,0.0465,0.0351,0.0000,0.0000,-0.5730,0.0106,0.0106,0.0106,0.5279,4
62,405,3661048904682,-10.5430,-0.0814,0.1207,0.0910,0.0610,-0.0090,1.1651,100.0000,100.0000,100.0000,5097.0703,12.2067,0.0000,0.4883,-7.9346,10.2539,-3.6390,0.6689,-12.0586,0.0212,-0.0223,-0.0107,0.0000,0.0000,0.0000,0.0000,0.0000,0.0000,0.0000,0.0000,0.0000,0.0000,0.0000,0.0000,0.0000,0.0000,1.0000,0.0000,0.0000,0.0000,-0.0814,0.1207,0.0000,0.0000,0.0000,0.0000,0.0000,0.0000,-0.0000,-0.0172,0.0469,0.0271,0.0000,0.0000,-0.5730,0.0106,0.0106,0.0106,0.5279,4
63,406,3661053628284,-10.5430,-0.0814,0.1207,0.0910,0.0610,-0.0090,1.1651,100.0000,100.0000,100.0000,5097.0703,12.2019,0.0000,0.7324,8.9111,-9.8267,4.4256,-4.9097,-7.1965,0.0212,-0.0219,-0.0115,0.0000,0.0000,0.0000,0.0000,0.0000,0.0000,0.0000,0.0000,0.0000,0.0000,0.0000,0.0000,0.0000,0.0000,1.0000,0.0000,0.0000,0.0000,-0.0814,0.1207,0.0000,0.0000,0.0000,0.0000,0.0000,0.0000,-0.0000,-0.0206,0.0416,0.0345,0.0000,0.0000,-0.5730,0.0106,0.0106,0.0106,0.5279,4
64,407,3661058530240,-10.5430,-0.0814,0.1207,0.0910,0.0610,-0.0090,1.1651,100.0000,100.0000,100.0000,5097.0703,12.1973,0.0000,-2.1362,-8.9111,6.8359,-4.2344,8.4650,-13.4095,0.0215,-0.0222,-0.0109,0.0000,0.0000,0.0000,0.0000,0.0000,0.0000,0.0000,0.0000,0.0000,0.0000,0.0000,0.0000,0.0000,0.0000,1.0000,0.0000,0.0000,0.0000,-0.0814,0.1207,0.0000,0.0000,0.0000,0.0000,0.0000,0.0000,-0.0000,-0.0245,0.0428,0.0293,0.0000,0.0000,-0.5730,0.0106,0.0106,0.0106,0.5279,4
65,408,3661063578053,-10.5430,-0.0814,0.1207,0.0910,0.0610,-0.0090,1.1651,100.0000,100.0000,100.0000,5097.0703,12.1925,0.0000,2.1362,4.4556,-6.2866,3.5673,-7.2136,-8.2968,0.0208,-0.0222,-0.0115,0.0000,0.0000,0.0000,0.0000,0.0000,0.0000,0.0000,0.0000,0.0000,0.0000,0.0000,0.0000,0.0000,0.0000,1.0000,0.0000,0.0000,0.0000,-0.0814,0.1207,0.0000,0.0000,0.0000,0.0000,0.0000,0.0000,-0.0000,-0.0218,0.0415,0.0338,0.0000,0.0000,-0.5730,0.0106,0.0106,0.0106,0.5279,4
66,409,3661069022403,-10.5430,-0.0814,0.1207,0.0910,0.0610,-0.0090,1.1651,100.0000,100.0000,100.0000,5097.0703,12.1886,0.0000,-1.7090,1.4648,5.8594,-1.7167,2.9343,-8.7718,0.0213,-0.0217,-0.0110,0.0000,0.0000,0.0000,0.0000,0.0000,0.0000,0.0000,0.0000,0.0000,0.0000,0.0000,0.0000,0.0000,0.0000,1.0000,0.0000,0.0000,0.0000,-0.0814,0.1207,0.0000,0.0000,0.0000,0.0000,0.0000,0.0000,-0.0000,-0.0269,0.0378,0.0292,0.0000,0.0000,-0.5730,0.0106,0.0106,0.0106,0.5279,4
67,410,3661073596773,-10.5430,-0.0814,0.1207,0.0910,0.0610,-0.0090,1.1651,100.0000,100.0000,100.0000,5097.0703,12.1845,0.0000,0.6104,-8.1177,-6.9580,-3.7801,1.4120,-15.4265,0.0211,-0.0225,-0.0116,0.0000,0.0000,0.0000,0.0000,0.0000,0.0000,0.0000,0.0000,0.0000,0.0000,0.0000,0.0000,0.0000,0.0000,1.0000,0.0000,0.0000,0.0000,-0.0814,0.1207,0.0000,0.0000,0.0000,0.0000,0.0000,0.0000,-0.0000,-0.0259,0.0432,0.0346,0.0000,0.0000,-0.5730,0.0106,0.0106,0.0106,0.5279,4
68,411,3661078546639,-10.5430,-0.0814,0.1207,0.0910,0.0610,-0.0090,1.1651,100.0000,100.0000,100.0000,5097.0703,12.1804,0.0000,-1.0376,9.8877,7.3242,8.5620,0.2661,-7.1129,0.0208,-0.0220,-0.0109,0.0000,0.0000,0.0000,0.0000,0.0000,0.0000,0.0000,0.0000,0.0000,0.0000,0.0000,0.0000,0.0000,0.0000,1.0000,0.0000,0.0000,0.0000,-0.0814,0.1207,0.0000,0.0000,0.0000,0.0000,0.0000,0.0000,-0.0000,-0.0250,0.0387,0.0286,0.0000,0.0000,-0.5730,0.0106,0.0106,0.0106,0.5279,4
69,412,3661083857005,-10.5430,-0.0814,0.1207,0.0910,0.0610,-0.0090,1.1651,100.0000,100.0000,100.0000,5097.0703,12.1763,0.0000,3.2959,-5.1270,-6.0425,-9.0521,-8.6520,-10.2565,0.0211,-0.0216,-0.0115,0.0000,0.0000,0.0000,0.0000,0.0000,0.0000,0.0000,0.0000,0.0000,0.0000,0.0000,0.0000,0.0000,0.0000,1.0000,0.0000,0.0000,0.0000,-0.0814,0.1207,0.0000,0.0000,0.0000,0.0000,0.0000,0.0000,-0.0000,-0.0275,0.0364,0.0333,0.0000,0.0000,-0.5730,0.0106,0.0106,0.0106,0.5279,4
70,413,3661088741880,-10.5430,-0.0814,0.1207,0.0910,0.0610,-0.0090,1.1651,100.0000,100.0000,100.0000,5097.0703,12.1729,0.0000,-4.7607,-3.1738,5.2490,3.7179,13.9237,-13.3212,0.0215,-0.0227,-0.0110,0.0000,0.0000,0.0000,0.0000,0.0000,0.0000,0.0000,0.0000,0.0000,0.0000,0.0000,0.0000,0.0000,0.0000,1.0000,0.0000,0.0000,0.0000,-0.0814,0.1207,0.0000,0.0000,0.0000,0.0000,0.0000,0.0000,-0.0000,-0.0301,0.0440,0.0294,0.0000,0.0000,-0.5730,0.0106,0.0106,0.0106,0.5279,4
71,414,3661093698746,-10.5430,-0.0814,0.1207,0.0910,0.0610,-0.0090,1.1651,100.0000,100.0000,100.0000,5097.0703,12.1681,0.0000,3.5400,5.2490,-4.2725,0.3156,-8.9181,-11.3879,0.0205,-0.0219,-0.0114,0.0000,0.0000,0.0000,0.0000,0.0000,0.0000,0.0000,0.0000,0.0000,0.0000,0.0000,0.0000,0.0000,0.0000,1.0000,0.0000,0.0000,0.0000,-0.0814,0.1207,0.0000,0.0000,0.0000,0.0000,0.0000,0.0000,-0.0000,-0.0232,0.0374,0.0324,0.0000,0.0000,-0.5730,0.0106,0.0106,0.0106,0.5279,4
72,415,3661098644280,-10.5430,-0.0814,0.1207,0.0910,0.0610,-0.0090,1.1651,100.0000,100.0000,100.0000,5097.0703,12.1649,0.0000,-1.0986,2.0142,4.5166,1.5780,-0.4603,-6.6379,0.0212,-0.0216,-0.0110,0.0000,0.0000,0.0000,0.0000,0.0000,0.0000,0.0000,0.0000,0.0000,0.0000,0.0000,0.0000,0.0000,0.0000,1.0000,0.0000,0.0000,0.0000,-0.0814,0.1207,0.0000,0.0000,0.0000,0.0000,0.0000,0.0000,-0.0000,-0.0291,0.0365,0.0290,0.0000,0.0000,-0.5730,0.0106,0.0106,0.0106,0.5279,4
73,416,3661103914566,-10.5430,-0.0814,0.1207,0.0910,0.0610,-0.0090,1.1651,100.0000,100.0000,100.0000,5097.0703,12.1613,0.0000,-0.4883,-8.0566,-2.0142,-7.2709,0.3308,-12.8749,0.0212,-0.0222,-0.0112,0.0000,0.0000,0.0000,0.0000,0.0000,0.0000,0.0000,0.0000,0.0000,0.0000,0.0000,0.0000,0.0000,0.0000,1.0000,0.0000,0.0000,0.0000,-0.0814,0.1207,0.0000,0.0000,0.0000,0.0000,0.0000,0.0000,-0.0000,-0.0288,0.0404,0.0308,0.0000,0.0000,-0.5730,0.0106,0.0106,0.0106,0.5279,4
74,417,3661108537431,-10.5430,-0.0814,0.1207,0.0910,0.0610,-0.0090,1.1651,100.0000,100.0000,100.0000,5097.0703,12.1562,0.0000,-0.2441,3.5400,0.1831,7.9571,10.2222,-15.4981,0.0211,-0.0225,-0.0112,0.0000,0.0000,0.0000,0.0000,0.0000,0.0000,0.0000,0.0000,0.0000,0.0000,0.0000,0.0000,0.0000,0.0000,1.0000,0.0000,0.0000,0.0000,-0.0814,0.1207,0.0000,0.0000,0.0000,0.0000,0.0000,0.0000,-0.0000,-0.0281,0.0422,0.0306,0.0000,0.0000,-0.5730,0.0106,0.0106,0.0106,0.5279,4
75,418,3661113600576,-10.5430,-0.0814,0.1207,0.0910,0.0610,-0.0090,1.1651,100.0000,100.0000,100.0000,5097.0703,12.1538,0.0000,0.6714,4.2725,-0.0000,-2.2475,-12.3966,-6.5950,0.0202,-0.0213,-0.0111,0.0000,0.0000,0.0000,0.0000,0.0000,0.0000,0.0000,0.0000,0.0000,0.0000,0.0000,0.0000,0.0000,0.0000,1.0000,0.0000,0.0000,0.0000,-0.0814,0.1207,0.0000,0.0000,0.0000,0.0000,0.0000,0.0000,-0.0000,-0.0224,0.0342,0.0304,0.0000,0.0000,-0.5730,0.0106,0.0106,0.0106,0.5279,4
76,419,3661118902734,-10.5430,-0.0814,0.1207,0.0910,0.0610,-0.0090,1.1651,100.0000,100.0000,100.0000,5097.0703,12.1516,0.0000,-0.0610,-3.0518,4.0283,0.3539,0.7432,-7.1320,0.0214,-0.0218,-0.0108,0.0000,0.0000,0.0000,0.0000,0.0000,0.0000,0.0000,0.0000,0.0000,0.0000,0.0000,0.0000,0.0000,0.0000,1.0000,0.0000,0.0000,0.0000,-0.0814,0.1207,0.0000,0.0000,0.0000,0.0000,0.0000,0.0000,-0.0000,-0.0312,0.0385,0.0278,0.0000,0.0000,-0.5730,0.0106,0.0106,0.0106,0.5279,4
77,420,3661123576342,-10.5430,-0.0814,0.1207,0.1110,0.0610,0.0010,1.1651,100.0000,100.0000,100.0000,5097.0703,12.1490,0.0000,1.2817,-3.9062,-8.6060,-6.0037,3.8381,-15.1520,0.0214,-0.0221,-0.0116,0.0000,0.0000,0.0000,0.0000,0.0000,0.0000,0.0000,0.0000,0.0000,0.0000,0.0000,0.0000,0.0000,0.0000,1.0000,0.0000,0.0000,0.0000,-0.0814,0.1207,0.0000,0.0000,0.0000,0.0000,0.0000,0.0000,-0.0000,-0.0306,0.0403,0.0345,0.0000,0.0000,-0.5730,0.0106,0.0106,0.0106,0.5279,4
78,421,3661128528417,-10.5430,-0.0814,0.1207,0.1110,0.0610,0.0010,1.1651,100.0000,100.0000,100.0000,5097.0703,12.1526,0.0000,-2.9907,1.2817,8.5449,6.3169,8.5249,-14.4669,0.0207,-0.0225,-0.0108,0.0000,0.0000,0.0000,0.0000,0.0000,0.0000,0.0000,0.0000,0.0000,0.0000,0.0000,0.0000,0.0000,0.0000,1.0000,0.0000,0.0000,0.0000,-0.0814,0.1207,0.0000,0.0000,0.0000,0.0000,0.0000,0.0000,-0.0000,-0.0258,0.0426,0.0277,0.0000,0.0000,-0.5730,0.0106,0.0106,0.0106,0.5279,4
79,422,3661133522987,-10.5430,-0.0814,0.1207,0.1110,0.0610,0.0010,1.1651,100.0000,100.0000,100.0000,5097.0703,12.1560,0.0000,0.1831,6.8970,-6.1646,0.8392,-12.5117,-6.3945,0.0199,-0.0213,-0.0113,0.0000,0.0000,0.0000,0.0000,0.0000,0.0000,0.0000,0.0000,0.0000,0.0000,0.0000,0.0000,0.0000,0.0000,1.0000,0.0000,0.0000,0.0000,-0.0814,0.1207,0.0000,0.0000,0.0000,0.0000,0.0000,0.0000,-0.0000,-0.0215,0.0340,0.0323,0.0000,0.0000,-0.5730,0.0106,0.0106,0.0106,0.5279,4
80,423,3661157750591,-10.5696,-0.0615,0.1114,0.1110,0.0610,0.0010,1.1651,100.0000,100.0000,100.0000,100.0000,12.1591,0.0000,3.7231,-4.0283,4.3945,-1.4250,-6.6023,-7.0604,0.0214,-0.0215,-0.0110,0.0000,0.0000,0.0000,0.0000,0.0000,0.0000,0.0000,0.0000,0.0000,0.0000,0.0000,0.0000,0.0000,0.0000,1.0000,0.0000,0.0000,0.0000,-0.0615,0.1114,0.0000,0.0000,0.0000,0.0000,0.0000,0.0000,-0.0000,0.0870,-0.0191,0.0292,0.0000,0.0000,-0.5740,0.0106,0.0106,0.0106,0.0106,4
81,424,3661161430027,-10.5696,-0.0615,0.1114,0.1110,0.0610,0.0010,1.1651,100.0000,100.0000,100.0000,100.0000,12.1661,0.0000,-1.2207,5.3101,-5.1270,4.7938,-7.5348,-11.6218,0.0198,-0.0217,-0.0114,0.0000,0.0000,0.0000,0.0000,0.0000,0.0000,0.0000,0.0000,0.0000,0.0000,0.0000,0.0000,0.0000,0.0000,1.0000,0.0000,0.0000,0.0000,-0.0615,0.1114,0.0000,0.0000,0.0000,0.0000,0.0000,0.0000,-0.0000,0.0623,-0.0005,0.0330,0.0000,0.0000,-0.5740,0.0106,0.0106,0.0106,0.0106,4
82,425,3661163656802,-10.5696,-0.0615,0.1114,0.1110,0.0610,0.0010,1.1651,100.0000,100.0000,100.0000,100.0000,12.1724,0.0000,1.7090,-2.4414,-4.8218,-5.5303,5.9742,-6.4613,0.0224,-0.0219,-0.0114,0.0000,0.0000,0.0000,0.0000,0.0000,0.0000,0.0000,0.0000,0.0000,0.0000,0.0000,0.0000,0.0000,0.0000,1.0000,0.0000,0.0000,0.0000,-0.0615,0.1114,0.0000,0.0000,0.0000,0.0000,0.0000,0.0000,-0.0000,0.0204,0.0120,0.0320,0.0000,0.0000,-0.5740,0.0106,0.0106,0.0106,0.0106,4
83,426,3661201158196,-10.5696,-0.0615,0.1114,0.1110,0.0610,0.0010,1.1651,100.0000,100.0000,100.0000,100.0000,12.1782,0.0000,-0.3052,-3.3569,-0.3662,-4.2152,12.2024,-14.4144,0.0218,-0.0227,-0.0114,0.0000,0.0000,0.0000,0.0000,0.0000,0.0000,0.0000,0.0000,0.0000,0.0000,0.0000,0.0000,0.0000,0.0000,1.0000,0.0000,0.0000,0.0000,-0.0615,0.1114,0.0000,0.0000,0.0000,0.0000,0.0000,0.0000,-0.0000,0.0104,0.0245,0.0321,0.0000,0.0000,-0.5740,0.0106,0.0106,0.0106,0.0106,4
84,427,3661259937339,-10.5696,-0.0615,0.1114,0.1110,0.0610,0.0010,1.1651,100.0000,100.0000,100.0000,100.0000,12.1843,0.0000,-0.7935,3.6621,1.8311,4.2846,5.0296,-12.8844,0.0215,-0.0210,-0.0107,0.0000,0.0000,0.0000,0.0000,0.0000,0.0000,0.0000,0.0000,0.0000,0.0000,0.0000,0.0000,0.0000,0.0000,1.0000,0.0000,0.0000,0.0000,-0.0615,0.1114,0.0000,0.0000,0.0000,0.0000,0.0000,0.0000,-0.0000,0.0014,0.0183,0.0261,0.0000,0.0000,-0.5740,0.0106,0.0106,0.0106,0.0106,4
85,428,3661263513453,-10.5696,-0.0615,0.1114,0.1110,0.0610,0.0010,1.1651,100.0000,100.0000,100.0000,100.0000,12.1898,0.0000,0.6714,4.5776,-2.4414,1.2505,-6.2930,-7.1535,0.0211,-0.0202,-0.0109,0.0000,0.0000,0.0000,0.0000,0.0000,0.0000,0.0000,0.0000,0.0000,0.0000,0.0000,0.0000,0.0000,0.0000,1.0000,0.0000,0.0000,0.0000,-0.0615,0.1114,0.0000,0.0000,0.0000,0.0000,0.0000,0.0000,-0.0000,-0.0035,0.0189,0.0282,0.0000,0.0000,-0.5740,0.0106,0.0106,0.0106,0.0106,4
86,429,3661268537269,-10.5696,-0.0615,0.1114,0.1110,0.0610,0.0010,1.1651,100.0000,100.0000,100.0000,100.0000,12.1949,0.0000,1.0376,-5.7373,4.5166,-4.2654,-4.8522,-8.4615,0.0218,-0.0205,-0.0105,0.0000,0.0000,0.0000,0.0000,0.0000,0.0000,0.0000,0.0000,0.0000,0.0000,0.0000,0.0000,0.0000,0.0000,1.0000,0.0000,0.0000,0.0000,-0.0615,0.1114,0.0000,0.0000,0.0000,0.0000,0.0000,0.0000,-0.0000,-0.0136,0.0265,0.0254,0.0000,0.0000,-0.5740,0.0106,0.0106,0.0106,0.0106,4
87,430,3661274086439,-10.5696,-0.0615,0.1114,0.1110,0.0610,0.0010,1.1651,100.0000,100.0000,100.0000,100.0000,12.2005,0.0000,-1.6479,-1.8311,-5.5542,-1.2552,9.9346,-15.6031,0.0221,-0.0211,-0.0110,0.0000,0.0000,0.0000,0.0000,0.0000,0.0000,0.0000,0.0000,0.0000,0.0000,0.0000,0.0000,0.0000,0.0000,1.0000,0.0000,0.0000,0.0000,-0.0615,0.1114,0.0000,0.0000,0.0000,0.0000,0.0000,0.0000,-0.0000,-0.0184,0.0327,0.0301,0.0000,0.0000,-0.5740,0.0106,0.0106,0.0106,0.0106,4
88,431,3661278513077,-10.5696,-0.0615,0.1114,0.1110,0.0610,0.0010,1.1651,100.0000,100.0000,100.0000,100.0000,12.2058,0.0000,0.0610,4.2725,2.8687,4.0479,-1.1987,-9.6693,0.0211,-0.0208,-0.0107,0.0000,0.0000,0.0000,0.0000,0.0000,0.0000,0.0000,0.0000,0.0000,0.0000,0.0000,0.0000,0.0000,0.0000,1.0000,0.0000,0.0000,0.0000,-0.0615,0.1114,0.0000,0.0000,0.0000,0.0000,0.0000,0.0000,-0.0000,-0.0139,0.0321,0.0278,0.0000,0.0000,-0.5740,0.0106,0.0106,0.0106,0.0106,4
89,432,3661283466943,-10.5696,-0.0615,0.1114,0.1110,0.0610,0.0010,1.1651,100.0000,100.0000,100.0000,100.0000,12.2109,0.0000,2.0142,1.0376,1.5869,-1.0138,-7.9999,-7.2180,0.0214,-0.0203,-0.0106,0.0000,0.0000,0.0000,0.0000,0.0000,0.0000,0.0000,0.0000,0.0000,0.0000,0.0000,0.0000,0.0000,0.0000,1.0000,0.0000,0.0000,0.0000,-0.0615,0.1114,0.0000,0.0000,0.0000,0.0000,0.0000,0.0000,-0.0000,-0.0182,0.0303,0.0269,0.0000,0.0000,-0.5740,0.0106,0.0106,0.0106,0.0106,4
90,433,3661288777267,-10.5696,-0.0615,0.1114,0.1110,0.0610,0.0010,1.1651,100.0000,100.0000,100.0000,100.0000,12.2155,0.0000,-2.1362,-5.9204,-4.1504,-3.4621,5.0704,-12.2973,0.0220,-0.0209,-0.0110,0.0000,0.0000,0.0000,0.0000,0.0000,0.0000,0.0000,0.0000,0.0000,0.0000,0.0000,0.0000,0.0000,0.0000,1.0000,0.0000,0.0000,0.0000,-0.0615,0.1114,0.0000,0.0000,0.0000,0.0000,0.0000,0.0000,-0.0000,-0.0231,0.0356,0.0306,0.0000,0.0000,-0.5740,0.0106,0.0106,0.0106,0.0106,4
91,434,3661294083383,-10.5696,-0.0615,0.1114,0.1110,0.0610,0.0010,1.1651,100.0000,100.0000,100.0000,100.0000,12.2213,0.0000,0.7324,0.0000,2.3193,1.1477,3.3515,-14.0731,0.0215,-0.0212,-0.0108,0.0000,0.0000,0.0000,0.0000,0.0000,0.0000,0.0000,0.0000,0.0000,0.0000,0.0000,0.0000,0.0000,0.0000,1.0000,0.0000,0.0000,0.0000,-0.0615,0.1114,0.0000,0.0000,0.0000,0.0000,0.0000,0.0000,-0.0000,-0.0203,0.0376,0.0287,0.0000,0.0000,-0.5740,0.0106,0.0106,0.0106,0.0106,4
92,435,3661298477900,-10.5696,-0.0615,0.1114,0.1110,0.0610,0.0010,1.1651,100.0000,100.0000,100.0000,100.0000,12.2256,0.0000,0.7324,7.0190,0.5493,3.2302,-6.2523,-6.5305,0.0212,-0.0204,-0.0107,0.0000,0.0000,0.0000,0.0000,0.0000,0.0000,0.0000,0.0000,0.0000,0.0000,0.0000,0.0000,0.0000,0.0000,1.0000,0.0000,0.0000,0.0000,-0.0615,0.1114,0.0000,0.0000,0.0000,0.0000,0.0000,0.0000,-0.0000,-0.0193,0.0326,0.0283,0.0000,0.0000,-0.5740,0.0106,0.0106,0.0106,0.0106,4
93,436,3661303550877,-10.5696,-0.0615,0.1114,0.1110,0.0610,0.0010,1.1651,100.0000,100.0000,100.0000,100.0000,12.2304,0.0000,-1.8921,-5.9204,-2.2583,-4.1459,0.0096,-10.5405,0.0217,-0.0206,-0.0110,0.0000,0.0000,0.0000,0.0000,0.0000,0.0000,0.0000,0.0000,0.0000,0.0000,0.0000,0.0000,0.0000,0.0000,1.0000,0.0000,0.0000,0.0000,-0.0615,0.1114,0.0000,0.0000,0.0000,0.0000,0.0000,0.0000,-0.0000,-0.0230,0.0347,0.0303,0.0000,0.0000,-0.5740,0.0106,0.0106,0.0106,0.0106,4
94,437,3661308822414,-10.5696,-0.0615,0.1114,0.1110,0.0610,0.0010,1.1651,100.0000,100.0000,100.0000,100.0000,12.2362,0.0000,1.5869,-4.0894,2.5024,-0.2152,4.4015,-14.9921,0.0218,-0.0214,-0.0108,0.0000,0.0000,0.0000,0.0000,0.0000,0.0000,0.0000,0.0000,0.0000,0.0000,0.0000,0.0000,0.0000,0.0000,1.0000,0.0000,0.0000,0.0000,-0.0615,0.1114,0.0000,0.0000,0.0000,0.0000,0.0000,0.0000,-0.0000,-0.0236,0.0395,0.0285,0.0000,0.0000,-0.5740,0.0106,0.0106,0.0106,0.0106,4
95,438,3661313659835,-10.5696,-0.0615,0.1114,0.1110,0.0610,0.0010,1.1651,100.0000,100.0000,100.0000,100.0000,12.2399,0.0000,-0.8545,8.6670,-1.5259,4.0168,-3.2124,-8.0462,0.0213,-0.0206,-0.0109,0.0000,0.0000,0.0000,0.0000,0.0000,0.0000,0.0000,0.0000,0.0000,0.0000,0.0000,0.0000,0.0000,0.0000,1.0000,0.0000,0.0000,0.0000,-0.0615,0.1114,0.0000,0.0000,0.0000,0.0000,0.0000,0.0000,-0.0000,-0.0202,0.0338,0.0296,0.0000,0.0000,-0.5740,0.0106,0.0106,0.0106,0.0106,4
96,439,3661318554209,-10.5696,-0.0615,0.1114,0.1110,0.0610,0.0010,1.1651,100.0000,100.0000,100.0000,100.0000,12.2433,0.0000,-0.3052,-4.0283,0.9155,-3.6558,-2.6658,-8.9771,0.0215,-0.0205,-0.0108,0.0000,0.0000,0.0000,0.0000,0.0000,0.0000,0.0000,0.0000,0.0000,0.0000,0.0000,0.0000,0.0000,0.0000,1.0000,0.0000,0.0000,0.0000,-0.0615,0.1114,0.0000,0.0000,0.0000,0.0000,0.0000,0.0000,-0.0000,-0.0226,0.0341,0.0291,0.0000,0.0000,-0.5740,0.0106,0.0106,0.0106,0.0106,4
97,440,3661352996260,-10.5425,-0.0965,0.1095,0.0810,0.0710,-0.0090,1.1651,5050.5859,4934.3750,4957.6172,4957.6172,12.2474,0.0000,0.4883,-5.1880,1.5869,-1.0831,3.9580,-14.2832,0.0218,-0.0213,-0.0107,0.0000,0.0000,0.0000,0.0000,0.0000,0.0000,0.0000,0.0000,0.0000,0.0000,0.0000,0.0000,0.0000,0.0000,1.0000,0.0000,0.0000,0.0000,-0.0965,0.1095,0.0000,0.0000,0.0000,0.0000,0.0000,0.0000,-0.0000,-0.1920,0.0282,0.0281,0.0000,0.0000,-0.5730,0.5224,0.5087,0.5114,0.5114,4
98,441,3661409582873,-10.5425,-0.0965,0.1095,0.0810,0.0710,-0.0090,1.1651,5166.7969,5073.8281,100.0000,100.0000,12.2500,0.0000,-2.2583,-8.9722,-0.2441,-5.5518,5.1615,-12.6076,0.0212,-0.0221,-0.0109,0.0000,0.0000,0.0000,0.0000,0.0000,0.0000,0.0000,0.0000,0.0000,0.0000,0.0000,0.0000,0.0000,0.0000,1.0000,0.0000,0.0000,0.0000,-0.0965,0.1095,0.0000,0.0000,0.0000,0.0000,0.0000,0.0000,-0.0000,-0.1377,0.0355,0.0298,0.0000,0.0000,-0.5730,0.5361,0.5251,0.0106,0.0106,4
99,442,3661413901273,-10.5425,-0.0965,0.1095,0.0810,0.0710,-0.0090,1.1651,5166.7969,5073.8281,100.0000,100.0000,12.0931,0.0000,2.0142,4.6997,-1.4648,3.8853,-2.6059,-10.3161,0.0208,-0.0222,-0.0110,0.0000,0.0000,0.0000,0.0000,0.0000,0.0000,0.0000,0.0000,0.0000,0.0000,0.0000,0.0000,0.0000,0.0000,1.0000,0.0000,0.0000,0.0000,-0.0965,0.1095,0.0000,0.0000,0.0000,0.0000,0.0000,0.0000,-0.0000,-0.1026,0.0363,0.0308,0.0000,0.0000,-0.5730,0.5361,0.5251,0.0106,0.0106,4
100,443,3661418465895,-10.5425,-0.0965,0.1095,0.0810,0.0710,-0.0090,1.1651,5166.7969,5073.8281,100.0000,100.0000,11.9892,0.0000,-0.1221,2.1973,1.8311,0.8225,-3.4282,-8.6286,0.0210,-0.0216,-0.0108,0.0000,0.0000,0.0000,0.0000,0.0000,0.0000,0.0000,0.0000,0.0000,0.0000,0.0000,0.0000,0.0000,0.0000,1.0000,0.0000,0.0000,0.0000,-0.0965,0.1095,0.0000,0.0000,0.0000,0.0000,0.0000,0.0000,-0.0000,-0.0819,0.0328,0.0294,0.0000,0.0000,-0.5730,0.5361,0.5251,0.0106,0.0106,4
101,444,3661423425094,-10.5425,-0.0965,0.1095,0.0810,0.0710,-0.0090,1.1651,5166.7969,5073.8281,100.0000,100.0000,11.9425,0.0000,-2.9297,-8.8501,-1.3428,-3.6725,6.3002,-13.8273,0.0211,-0.0223,-0.0110,0.0000,0.0000,0.0000,0.0000,0.0000,0.0000,0.0000,0.0000,0.0000,0.0000,0.0000,0.0000,0.0000,0.0000,1.0000,0.0000,0.0000,0.0000,-0.0965,0.1095,0.0000,0.0000,0.0000,0.0000,0.0000,0.0000,-0.0000,-0.0669,0.0380,0.0308,0.0000,0.0000,-0.5730,0.5361,0.5251,0.0106,0.0106,4
102,445,3661428466283,-10.5425,-0.0965,0.1095,0.0810,0.0710,-0.0090,1.1651,5166.7969,5073.8281,100.0000,100.0000,11.9220,0.0000,4.2725,9.2773,3.5400,4.6791,-9.0739,-8.2586,0.0208,-0.0218,-0.0106,0.0000,0.0000,0.0000,0.0000,0.0000,0.0000,0.0000,0.0000,0.0000,0.0000,0.0000,0.0000,0.0000,0.0000,1.0000,0.0000,0.0000,0.0000,-0.0965,0.1095,0.0000,0.0000,0.0000,0.0000,0.0000,0.0000,-0.0000,-0.0546,0.0347,0.0279,0.0000,0.0000,-0.5730,0.5361,0.5251,0.0106,0.0106,4
103,446,3661433816602,-10.5425,-0.0965,0.1095,0.0810,0.0710,-0.0090,1.1651,5166.7969,5073.8281,100.0000,100.0000,11.9041,0.0000,-3.8452,-3.9062,-0.1831,-3.3951,6.1659,-12.7460,0.0214,-0.0217,-0.0107,0.0000,0.0000,0.0000,0.0000,0.0000,0.0000,0.0000,0.0000,0.0000,0.0000,0.0000,0.0000,0.0000,0.0000,1.0000,0.0000,0.0000,0.0000,-0.0965,0.1095,0.0000,0.0000,0.0000,0.0000,0.0000,0.0000,-0.0000,-0.0510,0.0345,0.0286,0.0000,0.0000,-0.5730,0.5361,0.5251,0.0106,0.0106,4
104,447,3661444864073,-10.5425,-0.0965,0.1095,0.0810,0.0710,-0.0090,1.1651,5166.7969,5073.8281,100.0000,100.0000,11.8891,0.0000,0.6714,7.5073,1.8921,0.8607,-1.7932,-8.6214,0.0212,-0.0215,-0.0105,0.0000,0.0000,0.0000,0.0000,0.0000,0.0000,0.0000,0.0000,0.0000,0.0000,0.0000,0.0000,0.0000,0.0000,1.0000,0.0000,0.0000,0.0000,-0.0965,0.1095,0.0000,0.0000,0.0000,0.0000,0.0000,0.0000,-0.0000,-0.0441,0.0338,0.0272,0.0000,0.0000,-0.5730,0.5361,0.5251,0.0106,0.0106,4
105,448,3661448639456,-10.5425,-0.0965,0.1095,0.0810,0.0710,-0.0090,1.1651,5166.7969,5073.8281,100.0000,100.0000,11.8751,0.0000,-2.3804,-9.8877,-3.0518,-3.2445,2.0905,-13.5504,0.0211,-0.0222,-0.0108,0.0000,0.0000,0.0000,0.0000,0.0000,0.0000,0.0000,0.0000,0.0000,0.0000,0.0000,0.0000,0.0000,0.0000,1.0000,0.0000,0.0000,0.0000,-0.0965,0.1095,0.0000,0.0000,0.0000,0.0000,0.0000,0.0000,-0.0000,-0.0404,0.0393,0.0301,0.0000,0.0000,-0.5730,0.5361,0.5251,0.0106,0.0106,4
106,449,3661453546577,-10.5425,-0.0965,0.1095,0.0810,0.0710,-0.0090,1.1651,5166.7969,5073.8281,100.0000,100.0000,11.8615,0.0000,2.9907,7.8125,1.5869,2.4364,-0.5610,-8.7575,0.0212,-0.0218,-0.0106,0.0000,0.0000,0.0000,0.0000,0.0000,0.0000,0.0000,0.0000,0.0000,0.0000,0.0000,0.0000,0.0000,0.0000,1.0000,0.0000,0.0000,0.0000,-0.0965,0.1095,0.0000,0.0000,0.0000,0.0000,0.0000,0.0000,-0.0000,-0.0383,0.0361,0.0288,0.0000,0.0000,-0.5730,0.5361,0.5251,0.0106,0.0106,4
107,450,3661458438743,-10.5425,-0.0965,0.1095,0.0810,0.0710,-0.0090,1.1651,5166.7969,5073.8281,100.0000,100.0000,11.8480,0.0000,-2.0142,-4.5776,-1.7090,-1.9893,-3.6607,-10.1753,0.0210,-0.0220,-0.0108,0.0000,0.0000,0.0000,0.0000,0.0000,0.0000,0.0000,0.0000,0.0000,0.0000,0.0000,0.0000,0.0000,0.0000,1.0000,0.0000,0.0000,0.0000,-0.0965,0.1095,0.0000,0.0000,0.0000,0.0000,0.0000,0.0000,-0.0000,-0.0359,0.0372,0.0304,0.0000,0.0000,-0.5730,0.5361,0.5251,0.0106,0.0106,4
108,451,3661463772147,-10.5425,-0.0965,0.1095,0.0810,0.0710,-0.0090,1.1651,5166.7969,5073.8281,100.0000,100.0000,11.8347,0.0000,-0.3662,1.4038,-1.7090,-0.5738,9.2753,-11.7387,0.0213,-0.0220,-0.0110,0.0000,0.0000,0.0000,0.0000,0.0000,0.0000,0.0000,0.0000,0.0000,0.0000,0.0000,0.0000,0.0000,0.0000,1.0000,0.0000,0.0000,0.0000,-0.0965,0.1095,0.0000,0.0000,0.0000,0.0000,0.0000,0.0000,-0.0000,-0.0369,0.0374,0.0318,0.0000,0.0000,-0.5730,0.5361,0.5251,0.0106,0.0106,4
109,452,3661468551076,-10.5425,-0.0965,0.1095,0.0810,0.0710,-0.0090,1.1651,5166.7969,5073.8281,100.0000,100.0000,11.8226,0.0000,3.2349,1.0376,0.7935,2.0538,-14.8131,-8.5856,0.0207,-0.0219,-0.0109,0.0000,0.0000,0.0000,0.0000,0.0000,0.0000,0.0000,0.0000,0.0000,0.0000,0.0000,0.0000,0.0000,0.0000,1.0000,0.0000,0.0000,0.0000,-0.0965,0.1095,0.0000,0.0000,0.0000,0.0000,0.0000,0.0000,-0.0000,-0.0318,0.0369,0.0309,0.0000,0.0000,-0.5730,0.5361,0.5251,0.0106,0.0106,4
110,453,3661473612180,-10.5425,-0.0965,0.1095,0.0810,0.0710,-0.0090,1.1651,5166.7969,5073.8281,100.0000,100.0000,11.8112,0.0000,-4.8218,-4.9438,-2.0142,-2.1327,17.5125,-12.2042,0.0217,-0.0221,-0.0111,0.0000,0.0000,0.0000,0.0000,0.0000,0.0000,0.0000,0.0000,0.0000,0.0000,0.0000,0.0000,0.0000,0.0000,1.0000,0.0000,0.0000,0.0000,-0.0965,0.1095,0.0000,0.0000,0.0000,0.0000,0.0000,0.0000,-0.0000,-0.0384,0.0382,0.0327,0.0000,0.0000,-0.5730,0.5361,0.5251,0.0106,0.0106,4
111,454,3661478939710,-10.5425,-0.0965,0.1095,0.0810,0.0710,-0.0090,1.1651,5166.7969,5073.8281,100.0000,100.0000,11.7994,0.0000,5.4321,6.0425,-0.4883,-0.9229,-17.0331,-9.2062,0.0205,-0.0218,-0.0111,0.0000,0.0000,0.0000,0.0000,0.0000,0.0000,0.0000,0.0000,0.0000,0.0000,0.0000,0.0000,0.0000,0.0000,1.0000,0.0000,0.0000,0.0000,-0.0965,0.1095,0.0000,0.0000,0.0000,0.0000,0.0000,0.0000,-0.0000,-0.0292,0.0357,0.0325,0.0000,0.0000,-0.5730,0.5361,0.5251,0.0106,0.0106,4
112,455,3661483434756,-10.5425,-0.0965,0.1095,0.0810,0.0710,-0.0090,1.1651,5166.7969,5073.8281,100.0000,100.0000,11.7880,0.0000,-4.9438,-6.3477,1.3428,1.0711,11.8452,-11.9201,0.0217,-0.0224,-0.0110,0.0000,0.0000,0.0000,0.0000,0.0000,0.0000,0.0000,0.0000,0.0000,0.0000,0.0000,0.0000,0.0000,0.0000,1.0000,0.0000,0.0000,0.0000,-0.0965,0.1095,0.0000,0.0000,0.0000,0.0000,0.0000,0.0000,-0.0000,-0.0378,0.0400,0.0317,0.0000,0.0000,-0.5730,0.5361,0.5251,0.0106,0.0106,4
113,456,3661488639801,-10.5425,-0.0965,0.1095,0.0810,0.0710,-0.0090,1.1651,5166.7969,5073.8281,100.0000,100.0000,11.7771,0.0000,3.2349,5.7983,-4.0283,-1.1955,-2.9775,-8.2467,0.0208,-0.0218,-0.0113,0.0000,0.0000,0.0000,0.0000,0.0000,0.0000,0.0000,0.0000,0.0000,0.0000,0.0000,0.0000,0.0000,0.0000,1.0000,0.0000,0.0000,0.0000,-0.0965,0.1095,0.0000,0.0000,0.0000,0.0000,0.0000,0.0000,-0.0000,-0.0310,0.0351,0.0345,0.0000,0.0000,-0.5730,0.5361,0.5251,0.0106,0.0106,4
114,457,3661493735025,-10.5425,-0.0965,0.1095,0.0810,0.0710,-0.0090,1.1651,5166.7969,5073.8281,100.0000,100.0000,11.7665,0.0000,-0.6714,-1.7700,6.5918,-1.0257,-3.8645,-11.0895,0.0210,-0.0220,-0.0108,0.0000,0.0000,0.0000,0.0000,0.0000,0.0000,0.0000,0.0000,0.0000,0.0000,0.0000,0.0000,0.0000,0.0000,1.0000,0.0000,0.0000,0.0000,-0.0965,0.1095,0.0000,0.0000,0.0000,0.0000,0.0000,0.0000,-0.0000,-0.0330,0.0374,0.0292,0.0000,0.0000,-0.5730,0.5361,0.5251,0.0106,0.0106,4
115,458,3661498842415,-10.5425,-0.0965,0.1095,0.0810,0.0710,-0.0090,1.1651,5166.7969,5073.8281,100.0000,100.0000,11.7561,0.0000,-1.0986,-5.3711,-8.0566,3.1847,5.6122,-11.4404,0.0213,-0.0225,-0.0115,0.0000,0.0000,0.0000,0.0000,0.0000,0.0000,0.0000,0.0000,0.0000,0.0000,0.0000,0.0000,0.0000,0.0000,1.0000,0.0000,0.0000,0.0000,-0.0965,0.1095,0.0000,0.0000,0.0000,0.0000,0.0000,0.0000,-0.0000,-0.0348,0.0406,0.0357,0.0000,0.0000,-0.5730,0.5361,0.5251,0.0106,0.0106,4
116,459,3661503414452,-10.5425,-0.0965,0.1095,0.0810,0.0710,-0.0090,1.1651,5166.7969,5073.8281,100.0000,100.0000,11.7467,0.0000,0.6714,10.1929,9.0942,-2.3527,-5.3556,-4.1818,0.0208,-0.0213,-0.0107,0.0000,0.0000,0.0000,0.0000,0.0000,0.0000,0.0000,0.0000,0.0000,0.0000,0.0000,0.0000,0.0000,0.0000,1.0000,0.0000,0.0000,0.0000,-0.0965,0.1095,0.0000,0.0000,0.0000,0.0000,0.0000,0.0000,-0.0000,-0.0312,0.0321,0.0280,0.0000,0.0000,-0.5730,0.5361,0.5251,0.0106,0.0106,4
117,460,3661508414687,-10.5425,-0.0965,0.1095,0.0810,0.0710,-0.0090,1.1651,5166.7969,5073.8281,100.0000,100.0000,11.7370,0.0000,0.9766,-10.3149,-5.4932,-1.8888,1.9059,-19.1238,0.0214,-0.0224,-0.0112,0.0000,0.0000,0.0000,0.0000,0.0000,0.0000,0.0000,0.0000,0.0000,0.0000,0.0000,0.0000,0.0000,0.0000,1.0000,0.0000,0.0000,0.0000,-0.0965,0.1095,0.0000,0.0000,0.0000,0.0000,0.0000,0.0000,-0.0000,-0.0357,0.0406,0.0329,0.0000,0.0000,-0.5730,0.5361,0.5251,0.0106,0.0106,4
118,461,3661513993271,-10.5425,-0.0965,0.1095,0.0810,0.0710,-0.0090,1.1651,5166.7969,5073.8281,100.0000,100.0000,11.7288,0.0000,-2.1362,6.7749,3.1128,8.0073,-4.5981,-7.7598,0.0210,-0.0220,-0.0109,0.0000,0.0000,0.0000,0.0000,0.0000,0.0000,0.0000,0.0000,0.0000,0.0000,0.0000,0.0000,0.0000,0.0000,1.0000,0.0000,0.0000,0.0000,-0.0965,0.1095,0.0000,0.0000,0.0000,0.0000,0.0000,0.0000,-0.0000,-0.0324,0.0368,0.0302,0.0000,0.0000,-0.5730,0.5361,0.5251,0.0106,0.0106,4
119,462,3661518470361,-10.5425,-0.0965,0.1095,0.0810,0.0710,-0.0090,1.1651,5166.7969,5073.8281,100.0000,100.0000,11.8801,0.0000,-0.9766,-0.0610,0.9766,-10.3576,10.9319,-2.4871,0.0213,-0.0212,-0.0108,0.0000,0.0000,0.0000,0.0000,0.0000,0.0000,0.0000,0.0000,0.0000,0.0000,0.0000,0.0000,0.0000,0.0000,1.0000,0.0000,0.0000,0.0000,-0.0965,0.1095,0.0000,0.0000,0.0000,0.0000,0.0000,0.0000,-0.0000,-0.0347,0.0319,0.0297,0.0000,0.0000,-0.5730,0.5361,0.5251,0.0106,0.0106,4
120,463,3661523477637,-10.5425,-0.0965,0.1095,0.1010,0.0710,-0.0090,1.1651,5166.7969,5073.8281,100.0000,100.0000,11.9785,0.0000,4.1504,-4.2114,-1.0376,3.4262,-15.3621,-18.3313,0.0206,-0.0226,-0.0109,0.0000,0.0000,0.0000,0.0000,0.0000,0.0000,0.0000,0.0000,0.0000,0.0000,0.0000,0.0000,0.0000,0.0000,1.0000,0.0000,0.0000,0.0000,-0.0965,0.1095,0.0000,0.0000,0.0000,0.0000,0.0000,0.0000,-0.0000,-0.0299,0.0416,0.0305,0.0000,0.0000,-0.5730,0.5361,0.5251,0.0106,0.0106,4
121,464,3661528393842,-10.5425,-0.0965,0.1095,0.1010,0.0710,-0.0090,1.1651,5166.7969,5073.8281,100.0000,100.0000,12.0158,0.0000,-5.3711,2.1973,0.9766,6.7449,9.4503,-11.8485,0.0216,-0.0220,-0.0109,0.0000,0.0000,0.0000,0.0000,0.0000,0.0000,0.0000,0.0000,0.0000,0.0000,0.0000,0.0000,0.0000,0.0000,1.0000,0.0000,0.0000,0.0000,-0.0965,0.1095,0.0000,0.0000,0.0000,0.0000,0.0000,0.0000,-0.0000,-0.0367,0.0366,0.0300,0.0000,0.0000,-0.5730,0.5361,0.5251,0.0106,0.0106,4
122,465,3661555927843,-10.5464,-0.0828,0.1171,0.1010,0.0710,-0.0090,1.1651,5027.3438,100.0000,100.0000,100.0000,12.0276,0.0000,3.3569,2.0142,-0.9766,-11.2877,0.3404,-0.6134,0.0210,-0.0211,-0.0109,0.0000,0.0000,0.0000,0.0000,0.0000,0.0000,0.0000,0.0000,0.0000,0.0000,0.0000,0.0000,0.0000,0.0000,1.0000,0.0000,0.0000,0.0000,-0.0828,0.1171,0.0000,0.0000,0.0000,0.0000,0.0000,0.0000,-0.0000,0.0518,0.0774,0.0306,0.0000,0.0000,-0.5728,0.5197,0.0106,0.0106,0.0106,4
123,466,3661559727014,-10.5464,-0.0828,0.1171,0.1010,0.0710,-0.0090,1.1651,5027.3438,100.0000,100.0000,100.0000,12.0407,0.0000,-4.6997,10.0098,4.0894,0.8512,6.3457,-0.9762,0.0212,-0.0212,-0.0107,0.0000,0.0000,0.0000,0.0000,0.0000,0.0000,0.0000,0.0000,0.0000,0.0000,0.0000,0.0000,0.0000,0.0000,1.0000,0.0000,0.0000,0.0000,-0.0828,0.1171,0.0000,0.0000,0.0000,0.0000,0.0000,0.0000,-0.0000,0.0249,0.0658,0.0288,0.0000,0.0000,-0.5728,0.5197,0.0106,0.0106,0.0106,4
124,467,3661596635354,-10.5464,-0.0828,0.1171,0.1010,0.0710,-0.0090,1.1651,100.0000,100.0000,100.0000,100.0000,12.0503,0.0000,-0.7935,-1.8311,-1.4648,7.1585,5.7656,-16.5316,0.0217,-0.0223,-0.0110,0.0000,0.0000,0.0000,0.0000,0.0000,0.0000,0.0000,0.0000,0.0000,0.0000,0.0000,0.0000,0.0000,0.0000,1.0000,0.0000,0.0000,0.0000,-0.0828,0.1171,0.0000,0.0000,0.0000,0.0000,0.0000,0.0000,-0.0000,0.0051,0.0638,0.0314,0.0000,0.0000,-0.5728,0.0106,0.0106,0.0106,0.0106,4
125,468,3661654880477,-10.5464,-0.0828,0.1171,0.1010,0.0710,-0.0090,1.1651,100.0000,100.0000,100.0000,100.0000,12.0634,0.0000,-0.6104,-9.5215,-8.3008,3.6271,1.1771,-8.9795,0.0226,-0.0237,-0.0116,0.0000,0.0000,0.0000,0.0000,0.0000,0.0000,0.0000,0.0000,0.0000,0.0000,0.0000,0.0000,0.0000,0.0000,1.0000,0.0000,0.0000,0.0000,-0.0828,0.1171,0.0000,0.0000,0.0000,0.0000,0.0000,0.0000,-0.0000,-0.0108,0.0643,0.0365,0.0000,0.0000,-0.5728,0.0106,0.0106,0.0106,0.0106,4
126,469,3661658408305,-10.5464,-0.0828,0.1171,0.1010,0.0710,-0.0090,1.1651,100.0000,100.0000,100.0000,100.0000,12.0757,0.0000,0.7935,-0.0610,6.7749,-5.5159,-7.0122,-16.8061,0.0225,-0.0234,-0.0111,0.0000,0.0000,0.0000,0.0000,0.0000,0.0000,0.0000,0.0000,0.0000,0.0000,0.0000,0.0000,0.0000,0.0000,1.0000,0.0000,0.0000,0.0000,-0.0828,0.1171,0.0000,0.0000,0.0000,0.0000,0.0000,0.0000,-0.0000,-0.0161,0.0542,0.0308,0.0000,0.0000,-0.5728,0.0106,0.0106,0.0106,0.0106,4
127,470,3661663411749,-10.5464,-0.0828,0.1171,0.1010,0.0710,-0.0090,1.1651,100.0000,100.0000,100.0000,100.0000,12.0878,0.0000,-0.6714,5.7373,-4.0283,6.0443,7.1800,-6.9840,0.0231,-0.0234,-0.0114,0.0000,0.0000,0.0000,0.0000,0.0000,0.0000,0.0000,0.0000,0.0000,0.0000,0.0000,0.0000,0.0000,0.0000,1.0000,0.0000,0.0000,0.0000,-0.0828,0.1171,0.0000,0.0000,0.0000,0.0000,0.0000,0.0000,-0.0000,-0.0238,0.0492,0.0338,0.0000,0.0000,-0.5728,0.0106,0.0106,0.0106,0.0106,4
128,471,3661668749236,-10.5464,-0.0828,0.1171,0.1010,0.0710,-0.0090,1.1651,100.0000,100.0000,100.0000,100.0000,12.0999,0.0000,-1.1597,-1.4038,4.6387,-2.3120,-2.6491,-9.9605,0.0223,-0.0229,-0.0110,0.0000,0.0000,0.0000,0.0000,0.0000,0.0000,0.0000,0.0000,0.0000,0.0000,0.0000,0.0000,0.0000,0.0000,1.0000,0.0000,0.0000,0.0000,-0.0828,0.1171,0.0000,0.0000,0.0000,0.0000,0.0000,0.0000,-0.0000,-0.0206,0.0430,0.0299,0.0000,0.0000,-0.5728,0.0106,0.0106,0.0106,0.0106,4
129,472,3661673449216,-10.5464,-0.0828,0.1171,0.1010,0.0710,-0.0090,1.1651,100.0000,100.0000,100.0000,100.0000,12.1105,0.0000,0.9155,-7.2632,-5.7983,0.9349,-1.8124,-12.5479,0.0227,-0.0237,-0.0115,0.0000,0.0000,0.0000,0.0000,0.0000,0.0000,0.0000,0.0000,0.0000,0.0000,0.0000,0.0000,0.0000,0.0000,1.0000,0.0000,0.0000,0.0000,-0.0828,0.1171,0.0000,0.0000,0.0000,0.0000,0.0000,0.0000,-0.0000,-0.0252,0.0466,0.0345,0.0000,0.0000,-0.5728,0.0106,0.0106,0.0106,0.0106,4
