loop_index, counter, last_step_ns, T_ref, theta_ref, phi_ref, uwind, vwind, wwind, rho,v_batt,alt,gyro_roll,gyro_pitch,gyro_yaw,accel_X,accel_Y,accel_Z,roll,pitch,yaw,X,Y,Z,Xdot,Ydot,Zdot,x0,y0,z0,e.xbee_time,xbee_time_received_ns,xbee_x,xbee_y,xbee_z,xbee_qw,xbee_qx,xbee_qy,xbee_qz,sp_roll,sp_pitch,sp_yaw,sp_X,sp_Y,sp_Z,sp_Xdot,sp_Ydot,sp_Zdot,u_roll,u_pitch,u_yaw,u_X,u_Y,u_Z,mot_1,mot_2,mot_3,mot_4,flight mode
1,325,2897744868052,-0.0013,NAN,NAN,-0.0490,0.6210,0.3110,0.0000,12.2222,0.0000,-0.1831,-0.1221,-0.0000,-0.1267,-0.2829,-10.5811,0.0235,-0.0183,-0.0039,0.0000,0.0000,0.0000,0.0000,0.0000,0.0000,0.0000,0.0000,0.0000,0.0000,0.0000,0.0000,0.0000,0.0000,1.0000,0.0000,0.0000,0.0000,NAN,NAN,0.0000,0.0000,0.0000,0.0000,0.0000,0.0000,-0.0000,-0.0000,-0.0000,0.0000,0.0000,0.0000,-0.0500,0.0025,0.0025,0.0025,0.0025,4
2,326,2897748994131,-0.0013,NAN,NAN,-0.0490,0.6210,0.3110,0.0000,12.2222,0.0000,-0.1831,-0.1221,-0.0610,-0.1554,-0.2373,-10.5691,0.0235,-0.0183,-0.0039,0.0000,0.0000,0.0000,0.0000,0.0000,0.0000,0.0000,0.0000,0.0000,0.0000,0.0000,0.0000,0.0000,0.0000,1.0000,0.0000,0.0000,0.0000,NAN,NAN,0.0000,0.0000,0.0000,0.0000,0.0000,0.0000,-0.0000,-0.0005,-0.0005,0.0005,0.0000,0.0000,-0.0500,0.0025,0.0025,0.0025,0.0025,4
3,327,2897753375344,-0.0013,NAN,NAN,-0.0490,0.6210,0.3110,0.0000,12.2229,0.0000,0.0000,0.0000,-0.0000,-0.1458,-0.2781,-10.5620,0.0235,-0.0183,-0.0039,0.0000,0.0000,0.0000,0.0000,0.0000,0.0000,0.0000,0.0000,0.0000,0.0000,0.0000,0.0000,0.0000,0.0000,1.0000,0.0000,0.0000,0.0000,NAN,NAN,0.0000,0.0000,0.0000,0.0000,0.0000,0.0000,-0.0000,-0.0010,-0.0010,0.0010,0.0000,0.0000,-0.0500,0.0025,0.0025,0.0025,0.0025,4
4,328,2897757732810,-0.0013,NAN,NAN,-0.0490,0.6210,0.3110,0.0000,12.2220,0.0000,0.0000,-0.0610,-0.0000,-0.1506,-0.2373,-10.5930,0.0235,-0.0183,-0.0039,0.0000,0.0000,0.0000,0.0000,0.0000,0.0000,0.0000,0.0000,0.0000,0.0000,0.0000,0.0000,0.0000,0.0000,1.0000,0.0000,0.0000,0.0000,NAN,NAN,0.0000,0.0000,0.0000,0.0000,0.0000,0.0000,-0.0000,-0.0015,-0.0015,0.0015,0.0000,0.0000,-0.0500,0.0025,0.0025,0.0025,0.0025,4
5,329,2897762458894,-0.0013,NAN,NAN,-0.0490,0.6210,0.3110,0.0000,12.2213,0.0000,0.1221,0.0000,0.1221,-0.1626,-0.2901,-10.6145,0.0235,-0.0183,-0.0039,0.0000,0.0000,0.0000,0.0000,0.0000,0.0000,0.0000,0.0000,0.0000,0.0000,0.0000,0.0000,0.0000,0.0000,1.0000,0.0000,0.0000,0.0000,NAN,NAN,0.0000,0.0000,0.0000,0.0000,0.0000,0.0000,-0.0000,-0.0020,-0.0020,0.0019,0.0000,0.0000,-0.0500,0.0025,0.0025,0.0025,0.0025,4
6,330,2897767747195,-0.0013,NAN,NAN,-0.0490,0.6210,0.3110,0.0000,12.2213,0.0000,-0.1831,-0.1831,-0.0000,-0.1506,-0.2805,-10.6002,0.0235,-0.0183,-0.0039,0.0000,0.0000,0.0000,0.0000,0.0000,0.0000,0.0000,0.0000,0.0000,0.0000,0.0000,0.0000,0.0000,0.0000,1.0000,0.0000,0.0000,0.0000,NAN,NAN,0.0000,0.0000,0.0000,0.0000,0.0000,0.0000,-0.0000,-0.0025,-0.0024,0.0024,0.0000,0.0000,-0.0500,0.0025,0.0025,0.0025,0.0025,4
7,331,2897772375583,-0.0013,NAN,NAN,-0.0490,0.6210,0.3110,0.0000,12.2215,0.0000,-0.1831,-0.2441,-0.0000,-0.1530,-0.2493,-10.6073,0.0235,-0.0183,-0.0039,0.0000,0.0000,0.0000,0.0000,0.0000,0.0000,0.0000,0.0000,0.0000,0.0000,0.0000,0.0000,0.0000,0.0000,1.0000,0.0000,0.0000,0.0000,NAN,NAN,0.0000,0.0000,0.0000,0.0000,0.0000,0.0000,-0.0000,-0.0030,-0.0029,0.0028,0.0000,0.0000,-0.0500,0.0025,0.0025,0.0025,0.0025,4
8,332,2897777635972,-0.0013,NAN,NAN,-0.0490,0.6210,0.3110,0.0000,12.2222,0.0000,-0.0610,-0.1221,0.1831,-0.1482,-0.2469,-10.5739,0.0235,-0.0183,-0.0039,0.0000,0.0000,0.0000,0.0000,0.0000,0.0000,0.0000,0.0000,0.0000,0.0000,0.0000,0.0000,0.0000,0.0000,1.0000,0.0000,0.0000,0.0000,NAN,NAN,0.0000,0.0000,0.0000,0.0000,0.0000,0.0000,-0.0000,-0.0035,-0.0034,0.0033,0.0000,0.0000,-0.0500,0.0025,0.0025,0.0025,0.0025,4
9,333,2897782880279,-0.0013,NAN,NAN,-0.0490,0.6210,0.3110,0.0000,12.2222,0.0000,-0.0610,-0.2441,0.1831,-0.1626,-0.2733,-10.5787,0.0235,-0.0183,-0.0039,0.0000,0.0000,0.0000,0.0000,0.0000,0.0000,0.0000,0.0000,0.0000,0.0000,0.0000,0.0000,0.0000,0.0000,1.0000,0.0000,0.0000,0.0000,NAN,NAN,0.0000,0.0000,0.0000,0.0000,0.0000,0.0000,-0.0000,-0.0040,-0.0038,0.0037,0.0000,0.0000,-0.0500,0.0025,0.0025,0.0025,0.0025,4
10,334,2897787365728,-0.0013,NAN,NAN,-0.0490,0.6210,0.3110,0.0000,12.2217,0.0000,-0.1831,-0.1221,0.1221,-0.1411,-0.2853,-10.5763,0.0235,-0.0183,-0.0039,0.0000,0.0000,0.0000,0.0000,0.0000,0.0000,0.0000,0.0000,0.0000,0.0000,0.0000,0.0000,0.0000,0.0000,1.0000,0.0000,0.0000,0.0000,NAN,NAN,0.0000,0.0000,0.0000,0.0000,0.0000,0.0000,-0.0000,-0.0045,-0.0043,0.0041,0.0000,0.0000,-0.0500,0.0025,0.0025,0.0025,0.0025,4
11,335,2897792393813,-0.0013,NAN,NAN,-0.0490,0.6210,0.3110,0.0000,12.2222,0.0000,-0.1831,-0.2441,0.1221,-0.1482,-0.2805,-10.6264,0.0235,-0.0183,-0.0039,0.0000,0.0000,0.0000,0.0000,0.0000,0.0000,0.0000,0.0000,0.0000,0.0000,0.0000,0.0000,0.0000,0.0000,1.0000,0.0000,0.0000,0.0000,NAN,NAN,0.0000,0.0000,0.0000,0.0000,0.0000,0.0000,-0.0000,-0.0050,-0.0048,0.0045,0.0000,0.0000,-0.0500,0.0025,0.0025,0.0025,0.0025,4
12,336,2897797782018,-0.0013,NAN,NAN,-0.0490,0.6210,0.3110,0.0000,12.2225,0.0000,-0.0610,-0.1221,-0.0000,-0.1435,-0.2613,-10.5978,0.0235,-0.0183,-0.0039,0.0000,0.0000,0.0000,0.0000,0.0000,0.0000,0.0000,0.0000,0.0000,0.0000,0.0000,0.0000,0.0000,0.0000,1.0000,0.0000,0.0000,0.0000,NAN,NAN,0.0000,0.0000,0.0000,0.0000,0.0000,0.0000,-0.0000,-0.0055,-0.0052,0.0049,0.0000,0.0000,-0.0500,0.0025,0.0025,0.0025,0.0025,4
13,337,2897802616337,-0.0013,NAN,NAN,-0.0490,0.6210,0.3110,0.0000,12.2225,0.0000,-0.1831,-0.1221,0.1831,-0.1458,-0.2493,-10.6026,0.0235,-0.0183,-0.0038,0.0000,0.0000,0.0000,0.0000,0.0000,0.0000,0.0000,0.0000,0.0000,0.0000,0.0000,0.0000,0.0000,0.0000,1.0000,0.0000,0.0000,0.0000,NAN,NAN,0.0000,0.0000,0.0000,0.0000,0.0000,0.0000,-0.0000,-0.0060,-0.0056,0.0053,0.0000,0.0000,-0.0500,0.0025,0.0025,0.0025,0.0025,4
14,338,2897807535479,-0.0013,NAN,NAN,-0.0490,0.6210,0.3110,0.0000,12.2227,0.0000,-0.1831,-0.2441,0.1831,-0.1530,-0.2709,-10.5978,0.0235,-0.0183,-0.0038,0.0000,0.0000,0.0000,0.0000,0.0000,0.0000,0.0000,0.0000,0.0000,0.0000,0.0000,0.0000,0.0000,0.0000,1.0000,0.0000,0.0000,0.0000,NAN,NAN,0.0000,0.0000,0.0000,0.0000,0.0000,0.0000,-0.0000,-0.0065,-0.0061,0.0057,0.0000,0.0000,-0.0500,0.0025,0.0025,0.0025,0.0025,4
15,339,2897812478076,-0.0013,NAN,NAN,-0.0490,0.6210,0.3110,0.0000,12.2217,0.0000,0.0610,0.0000,0.1221,-0.1195,-0.2589,-10.5644,0.0235,-0.0183,-0.0038,0.0000,0.0000,0.0000,0.0000,0.0000,0.0000,0.0000,0.0000,0.0000,0.0000,0.0000,0.0000,0.0000,0.0000,1.0000,0.0000,0.0000,0.0000,NAN,NAN,0.0000,0.0000,0.0000,0.0000,0.0000,0.0000,-0.0000,-0.0070,-0.0065,0.0061,0.0000,0.0000,-0.0500,0.0025,0.0025,0.0025,0.0025,4
16,340,2897817948186,-0.0013,NAN,NAN,-0.0490,0.6210,0.3110,0.0000,12.2220,0.0000,0.0610,0.0000,-0.0000,-0.1554,-0.2565,-10.5572,0.0235,-0.0183,-0.0038,0.0000,0.0000,0.0000,0.0000,0.0000,0.0000,0.0000,0.0000,0.0000,0.0000,0.0000,0.0000,0.0000,0.0000,1.0000,0.0000,0.0000,0.0000,NAN,NAN,0.0000,0.0000,0.0000,0.0000,0.0000,0.0000,-0.0000,-0.0075,-0.0069,0.0064,0.0000,0.0000,-0.0500,0.0025,0.0025,0.0025,0.0025,4
17,341,2897822383142,-0.0013,NAN,NAN,-0.0490,0.6210,0.3110,0.0000,12.2225,0.0000,0.0000,0.0000,-0.0000,-0.1195,-0.2733,-10.5501,0.0235,-0.0183,-0.0038,0.0000,0.0000,0.0000,0.0000,0.0000,0.0000,0.0000,0.0000,0.0000,0.0000,0.0000,0.0000,0.0000,0.0000,1.0000,0.0000,0.0000,0.0000,NAN,NAN,0.0000,0.0000,0.0000,0.0000,0.0000,0.0000,-0.0000,-0.0080,-0.0074,0.0068,0.0000,0.0000,-0.0500,0.0025,0.0025,0.0025,0.0025,4
18,342,2897827346736,-0.0013,NAN,NAN,-0.0490,0.6210,0.3110,0.0000,12.2234,0.0000,-0.1831,-0.1221,-0.0000,-0.1889,-0.2829,-10.5644,0.0235,-0.0183,-0.0038,0.0000,0.0000,0.0000,0.0000,0.0000,0.0000,0.0000,0.0000,0.0000,0.0000,0.0000,0.0000,0.0000,0.0000,1.0000,0.0000,0.0000,0.0000,NAN,NAN,0.0000,0.0000,0.0000,0.0000,0.0000,0.0000,-0.0000,-0.0085,-0.0078,0.0071,0.0000,0.0000,-0.0500,0.0025,0.0025,0.0025,0.0025,4
19,343,2897832341701,-0.0013,NAN,NAN,-0.0490,0.6210,0.3110,0.0000,12.2234,0.0000,0.0000,0.0000,-0.0000,-0.1578,-0.2613,-10.5930,0.0235,-0.0183,-0.0038,0.0000,0.0000,0.0000,0.0000,0.0000,0.0000,0.0000,0.0000,0.0000,0.0000,0.0000,0.0000,0.0000,0.0000,1.0000,0.0000,0.0000,0.0000,NAN,NAN,0.0000,0.0000,0.0000,0.0000,0.0000,0.0000,-0.0000,-0.0090,-0.0082,0.0075,0.0000,0.0000,-0.0500,0.0025,0.0025,0.0025,0.0025,4
20,344,2897837826726,-0.0013,NAN,NAN,-0.0490,0.6210,0.3110,0.0000,12.2239,0.0000,0.0000,0.0000,-0.0000,-0.1148,-0.2613,-10.5405,0.0235,-0.0183,-0.0038,0.0000,0.0000,0.0000,0.0000,0.0000,0.0000,0.0000,0.0000,0.0000,0.0000,0.0000,0.0000,0.0000,0.0000,1.0000,0.0000,0.0000,0.0000,NAN,NAN,0.0000,0.0000,0.0000,0.0000,0.0000,0.0000,-0.0000,-0.0095,-0.0086,0.0078,0.0000,0.0000,-0.0500,0.0025,0.0025,0.0025,0.0025,4
21,345,2897842356253,-0.0013,NAN,NAN,-0.0490,0.6210,0.3110,0.0000,12.2242,0.0000,-0.2441,-0.1221,0.1221,-0.1315,-0.2493,-10.6002,0.0235,-0.0183,-0.0038,0.0000,0.0000,0.0000,0.0000,0.0000,0.0000,0.0000,0.0000,0.0000,0.0000,0.0000,0.0000,0.0000,0.0000,1.0000,0.0000,0.0000,0.0000,NAN,NAN,0.0000,0.0000,0.0000,0.0000,0.0000,0.0000,-0.0000,-0.0100,-0.0090,0.0081,0.0000,0.0000,-0.0500,0.0025,0.0025,0.0025,0.0025,4
22,346,2897847328304,-0.0013,NAN,NAN,-0.0490,0.6210,0.3110,0.0000,12.2239,0.0000,0.0000,0.0000,-0.0000,-0.1219,-0.2781,-10.5715,0.0235,-0.0183,-0.0038,0.0000,0.0000,0.0000,0.0000,0.0000,0.0000,0.0000,0.0000,0.0000,0.0000,0.0000,0.0000,0.0000,0.0000,1.0000,0.0000,0.0000,0.0000,NAN,NAN,0.0000,0.0000,0.0000,0.0000,0.0000,0.0000,-0.0000,-0.0105,-0.0094,0.0084,0.0000,0.0000,-0.0500,0.0025,0.0025,0.0025,0.0025,4
23,347,2897852909067,-0.0013,NAN,NAN,-0.0490,0.6210,0.3110,0.0000,12.2234,0.0000,0.0000,0.0000,-0.0610,-0.1745,-0.2445,-10.6097,0.0235,-0.0183,-0.0039,0.0000,0.0000,0.0000,0.0000,0.0000,0.0000,0.0000,0.0000,0.0000,0.0000,0.0000,0.0000,0.0000,0.0000,1.0000,0.0000,0.0000,0.0000,NAN,NAN,0.0000,0.0000,0.0000,0.0000,0.0000,0.0000,-0.0000,-0.0110,-0.0098,0.0087,0.0000,0.0000,-0.0500,0.0025,0.0025,0.0025,0.0025,4
24,348,2897857625693,-0.0013,NAN,NAN,-0.0490,0.6210,0.3110,0.0000,12.2237,0.0000,-0.0610,-0.2441,0.1221,-0.1458,-0.2661,-10.5405,0.0235,-0.0183,-0.0038,0.0000,0.0000,0.0000,0.0000,0.0000,0.0000,0.0000,0.0000,0.0000,0.0000,0.0000,0.0000,0.0000,0.0000,1.0000,0.0000,0.0000,0.0000,NAN,NAN,0.0000,0.0000,0.0000,0.0000,0.0000,0.0000,-0.0000,-0.0115,-0.0102,0.0090,0.0000,0.0000,-0.0500,0.0025,0.0025,0.0025,0.0025,4
25,349,2897862382481,-0.0013,NAN,NAN,-0.0490,0.6210,0.3110,0.0000,12.2237,0.0000,-0.0610,-0.1221,-0.0000,-0.1315,-0.2589,-10.6026,0.0235,-0.0183,-0.0039,0.0000,0.0000,0.0000,0.0000,0.0000,0.0000,0.0000,0.0000,0.0000,0.0000,0.0000,0.0000,0.0000,0.0000,1.0000,0.0000,0.0000,0.0000,NAN,NAN,0.0000,0.0000,0.0000,0.0000,0.0000,0.0000,-0.0000,-0.0120,-0.0106,0.0092,0.0000,0.0000,-0.0500,0.0025,0.0025,0.0025,0.0025,4
26,350,2897867768645,-0.0013,NAN,NAN,-0.0490,0.6210,0.3110,0.0000,12.2234,0.0000,-0.0610,-0.1831,-0.0000,-0.1411,-0.2349,-10.6384,0.0235,-0.0183,-0.0039,0.0000,0.0000,0.0000,0.0000,0.0000,0.0000,0.0000,0.0000,0.0000,0.0000,0.0000,0.0000,0.0000,0.0000,1.0000,0.0000,0.0000,0.0000,NAN,NAN,0.0000,0.0000,0.0000,0.0000,0.0000,0.0000,-0.0000,-0.0125,-0.0109,0.0094,0.0000,0.0000,-0.0500,0.0025,0.0025,0.0025,0.0025,4
27,351,2897872454400,-0.0013,NAN,NAN,-0.0490,0.6210,0.3110,0.0000,12.2234,0.0000,-0.2441,-0.1221,0.1221,-0.1698,-0.2086,-10.6073,0.0235,-0.0183,-0.0038,0.0000,0.0000,0.0000,0.0000,0.0000,0.0000,0.0000,0.0000,0.0000,0.0000,0.0000,0.0000,0.0000,0.0000,1.0000,0.0000,0.0000,0.0000,NAN,NAN,0.0000,0.0000,0.0000,0.0000,0.0000,0.0000,-0.0000,-0.0130,-0.0113,0.0096,0.0000,0.0000,-0.0500,0.0025,0.0025,0.0025,0.0025,4
28,352,2897877498651,-0.0013,NAN,NAN,-0.0490,0.6210,0.3110,0.0000,12.2229,0.0000,0.0000,0.0000,-0.0000,-0.1674,-0.2901,-10.6240,0.0235,-0.0183,-0.0038,0.0000,0.0000,0.0000,0.0000,0.0000,0.0000,0.0000,0.0000,0.0000,0.0000,0.0000,0.0000,0.0000,0.0000,1.0000,0.0000,0.0000,0.0000,NAN,NAN,0.0000,0.0000,0.0000,0.0000,0.0000,0.0000,-0.0000,-0.0135,-0.0117,0.0097,0.0000,0.0000,-0.0500,0.0025,0.0025,0.0025,0.0025,4
29,353,2897882386171,-0.0013,NAN,NAN,0.0710,0.6010,0.3510,0.0000,12.2229,0.0000,-0.0610,-0.1221,-0.0000,-0.1243,-0.2469,-10.5501,0.0235,-0.0183,-0.0039,0.0000,0.0000,0.0000,0.0000,0.0000,0.0000,0.0000,0.0000,0.0000,0.0000,0.0000,0.0000,0.0000,0.0000,1.0000,0.0000,0.0000,0.0000,NAN,NAN,0.0000,0.0000,0.0000,0.0000,0.0000,0.0000,-0.0000,-0.0140,-0.0120,0.0098,0.0000,0.0000,-0.0500,0.0025,0.0025,0.0025,0.0025,4
30,354,2897895018669,-0.0013,NAN,NAN,0.0710,0.6010,0.3510,0.0000,12.2229,0.0000,-0.1831,-0.1831,-0.0000,-0.1530,-0.2925,-10.5668,0.0235,-0.0183,-0.0039,0.0000,0.0000,0.0000,0.0000,0.0000,0.0000,0.0000,0.0000,0.0000,0.0000,0.0000,0.0000,0.0000,0.0000,1.0000,0.0000,0.0000,0.0000,NAN,NAN,0.0000,0.0000,0.0000,0.0000,0.0000,0.0000,-0.0000,-0.0145,-0.0124,0.0099,0.0000,0.0000,-0.0500,0.0025,0.0025,0.0025,0.0025,4
31,355,2897896561048,-0.0013,NAN,NAN,0.0710,0.6010,0.3510,0.0000,12.2229,0.0000,-0.0610,-0.1831,-0.0000,-0.1674,-0.2373,-10.5739,0.0235,-0.0183,-0.0039,0.0000,0.0000,0.0000,0.0000,0.0000,0.0000,0.0000,0.0000,0.0000,0.0000,0.0000,0.0000,0.0000,0.0000,1.0000,0.0000,0.0000,0.0000,NAN,NAN,0.0000,0.0000,0.0000,0.0000,0.0000,0.0000,-0.0000,-0.0150,-0.0128,0.0101,0.0000,0.0000,-0.0500,0.0025,0.0025,0.0025,0.0025,4
32,356,2897913399781,-0.0013,NAN,NAN,0.0710,0.6010,0.3510,0.0000,12.2232,0.0000,-0.0610,-0.1221,-0.0610,-0.1004,-0.2661,-10.6408,0.0235,-0.0183,-0.0039,0.0000,0.0000,0.0000,0.0000,0.0000,0.0000,0.0000,0.0000,0.0000,0.0000,0.0000,0.0000,0.0000,0.0000,1.0000,0.0000,0.0000,0.0000,NAN,NAN,0.0000,0.0000,0.0000,0.0000,0.0000,0.0000,-0.0000,-0.0155,-0.0131,0.0102,0.0000,0.0000,-0.0500,0.0025,0.0025,0.0025,0.0025,4
33,357,2897915713559,-0.0013,NAN,NAN,0.0710,0.6010,0.3510,0.0000,12.2222,0.0000,0.0000,0.0000,-0.0000,-0.1554,-0.2493,-10.6240,0.0235,-0.0183,-0.0039,0.0000,0.0000,0.0000,0.0000,0.0000,0.0000,0.0000,0.0000,0.0000,0.0000,0.0000,0.0000,0.0000,0.0000,1.0000,0.0000,0.0000,0.0000,NAN,NAN,0.0000,0.0000,0.0000,0.0000,0.0000,0.0000,-0.0000,-0.0160,-0.0134,0.0104,0.0000,0.0000,-0.0500,0.0025,0.0025,0.0025,0.0025,4
34,358,2897917650636,-0.0013,NAN,NAN,0.0710,0.6010,0.3510,0.0000,12.2225,0.0000,0.0000,-0.0610,-0.0610,-0.1554,-0.2709,-10.6073,0.0236,-0.0183,-0.0039,0.0000,0.0000,0.0000,0.0000,0.0000,0.0000,0.0000,0.0000,0.0000,0.0000,0.0000,0.0000,0.0000,0.0000,1.0000,0.0000,0.0000,0.0000,NAN,NAN,0.0000,0.0000,0.0000,0.0000,0.0000,0.0000,-0.0000,-0.0165,-0.0138,0.0105,0.0000,0.0000,-0.0500,0.0025,0.0025,0.0025,0.0025,4
35,359,2897922725174,-0.0013,NAN,NAN,0.0710,0.6010,0.3510,0.0000,12.2232,0.0000,-0.0610,-0.3052,-0.0000,-0.1650,-0.2253,-10.5477,0.0236,-0.0183,-0.0039,0.0000,0.0000,0.0000,0.0000,0.0000,0.0000,0.0000,0.0000,0.0000,0.0000,0.0000,0.0000,0.0000,0.0000,1.0000,0.0000,0.0000,0.0000,NAN,NAN,0.0000,0.0000,0.0000,0.0000,0.0000,0.0000,-0.0000,-0.0170,-0.0141,0.0105,0.0000,0.0000,-0.0500,0.0025,0.0025,0.0025,0.0025,4
36,360,2897927352646,-0.0013,NAN,NAN,0.0710,0.6010,0.3510,0.0000,12.2232,0.0000,0.0000,0.0000,-0.0000,-0.1578,-0.2421,-10.6217,0.0236,-0.0183,-0.0039,0.0000,0.0000,0.0000,0.0000,0.0000,0.0000,0.0000,0.0000,0.0000,0.0000,0.0000,0.0000,0.0000,0.0000,1.0000,0.0000,0.0000,0.0000,NAN,NAN,0.0000,0.0000,0.0000,0.0000,0.0000,0.0000,-0.0000,-0.0175,-0.0144,0.0105,0.0000,0.0000,-0.0500,0.0025,0.0025,0.0025,0.0025,4
37,361,2897932347403,-0.0013,NAN,NAN,0.0710,0.6010,0.3510,0.0000,12.2229,0.0000,-0.0610,-0.1831,-0.1221,-0.1148,-0.2829,-10.6503,0.0236,-0.0183,-0.0039,0.0000,0.0000,0.0000,0.0000,0.0000,0.0000,0.0000,0.0000,0.0000,0.0000,0.0000,0.0000,0.0000,0.0000,1.0000,0.0000,0.0000,0.0000,NAN,NAN,0.0000,0.0000,0.0000,0.0000,0.0000,0.0000,-0.0000,-0.0180,-0.0148,0.0107,0.0000,0.0000,-0.0500,0.0025,0.0025,0.0025,0.0025,4
38,362,2897937664867,-0.0013,NAN,NAN,0.0710,0.6010,0.3510,0.0000,12.2229,0.0000,-0.1831,-0.1831,-0.0000,-0.1339,-0.3045,-10.5668,0.0236,-0.0183,-0.0039,0.0000,0.0000,0.0000,0.0000,0.0000,0.0000,0.0000,0.0000,0.0000,0.0000,0.0000,0.0000,0.0000,0.0000,1.0000,0.0000,0.0000,0.0000,NAN,NAN,0.0000,0.0000,0.0000,0.0000,0.0000,0.0000,-0.0000,-0.0185,-0.0151,0.0107,0.0000,0.0000,-0.0500,0.0025,0.0025,0.0025,0.0025,4
39,363,2897942282173,-0.0013,NAN,NAN,0.0710,0.6010,0.3510,0.0000,12.2229,0.0000,-0.0610,-0.1221,-0.0000,-0.2128,-0.2469,-10.6121,0.0236,-0.0183,-0.0039,0.0000,0.0000,0.0000,0.0000,0.0000,0.0000,0.0000,0.0000,0.0000,0.0000,0.0000,0.0000,0.0000,0.0000,1.0000,0.0000,0.0000,0.0000,NAN,NAN,0.0000,0.0000,0.0000,0.0000,0.0000,0.0000,-0.0000,-0.0190,-0.0154,0.0108,0.0000,0.0000,-0.0500,0.0025,0.0025,0.0025,0.0025,4
40,364,2897947368043,-0.0013,NAN,NAN,0.0710,0.6010,0.3510,0.0000,12.2227,0.0000,-0.0610,-0.1221,0.1221,-0.1172,-0.2589,-10.5811,0.0236,-0.0183,-0.0039,0.0000,0.0000,0.0000,0.0000,0.0000,0.0000,0.0000,0.0000,0.0000,0.0000,0.0000,0.0000,0.0000,0.0000,1.0000,0.0000,0.0000,0.0000,NAN,NAN,0.0000,0.0000,0.0000,0.0000,0.0000,0.0000,-0.0000,-0.0195,-0.0157,0.0107,0.0000,0.0000,-0.0500,0.0025,0.0025,0.0025,0.0025,4
41,365,2897952671925,-0.0013,NAN,NAN,0.0710,0.6010,0.3510,0.0000,12.2225,0.0000,-0.0610,-0.1831,-0.1221,-0.1458,-0.2613,-10.5835,0.0236,-0.0183,-0.0039,0.0000,0.0000,0.0000,0.0000,0.0000,0.0000,0.0000,0.0000,0.0000,0.0000,0.0000,0.0000,0.0000,0.0000,1.0000,0.0000,0.0000,0.0000,NAN,NAN,0.0000,0.0000,0.0000,0.0000,0.0000,0.0000,-0.0000,-0.0200,-0.0160,0.0108,0.0000,0.0000,-0.0500,0.0025,0.0025,0.0025,0.0025,4
42,366,2897957925064,-0.0013,NAN,NAN,0.0710,0.6010,0.3510,0.0000,12.2225,0.0000,-0.0610,-0.1221,-0.0000,-0.1506,-0.2493,-10.5668,0.0236,-0.0183,-0.0039,0.0000,0.0000,0.0000,0.0000,0.0000,0.0000,0.0000,0.0000,0.0000,0.0000,0.0000,0.0000,0.0000,0.0000,1.0000,0.0000,0.0000,0.0000,NAN,NAN,0.0000,0.0000,0.0000,0.0000,0.0000,0.0000,-0.0000,-0.0205,-0.0163,0.0108,0.0000,0.0000,-0.0500,0.0025,0.0025,0.0025,0.0025,4
43,367,2897962334565,-0.0013,NAN,NAN,0.0710,0.6010,0.3510,0.0000,12.2222,0.0000,0.1221,-0.0610,-0.0000,-0.1482,-0.2925,-10.5906,0.0236,-0.0183,-0.0039,0.0000,0.0000,0.0000,0.0000,0.0000,0.0000,0.0000,0.0000,0.0000,0.0000,0.0000,0.0000,0.0000,0.0000,1.0000,0.0000,0.0000,0.0000,NAN,NAN,0.0000,0.0000,0.0000,0.0000,0.0000,0.0000,-0.0000,-0.0210,-0.0166,0.0108,0.0000,0.0000,-0.0500,0.0025,0.0025,0.0025,0.0025,4
44,368,2897967375982,-0.0013,NAN,NAN,0.0710,0.6010,0.3510,0.0000,12.2225,0.0000,0.0610,0.0000,-0.0000,-0.1650,-0.2973,-10.6336,0.0236,-0.0183,-0.0039,0.0000,0.0000,0.0000,0.0000,0.0000,0.0000,0.0000,0.0000,0.0000,0.0000,0.0000,0.0000,0.0000,0.0000,1.0000,0.0000,0.0000,0.0000,NAN,NAN,0.0000,0.0000,0.0000,0.0000,0.0000,0.0000,-0.0000,-0.0215,-0.0169,0.0108,0.0000,0.0000,-0.0500,0.0025,0.0025,0.0025,0.0025,4
45,369,2897972643536,-0.0013,NAN,NAN,0.0710,0.6010,0.3510,0.0000,12.2225,0.0000,0.0000,0.0000,-0.0000,-0.1315,-0.2781,-10.5739,0.0236,-0.0183,-0.0039,0.0000,0.0000,0.0000,0.0000,0.0000,0.0000,0.0000,0.0000,0.0000,0.0000,0.0000,0.0000,0.0000,0.0000,1.0000,0.0000,0.0000,0.0000,NAN,NAN,0.0000,0.0000,0.0000,0.0000,0.0000,0.0000,-0.0000,-0.0220,-0.0172,0.0108,0.0000,0.0000,-0.0500,0.0025,0.0025,0.0025,0.0025,4
46,370,2897977353955,-0.0013,NAN,NAN,0.0710,0.6010,0.3510,0.0000,12.2222,0.0000,-0.0610,-0.1831,-0.0000,-0.1721,-0.2469,-10.6360,0.0236,-0.0183,-0.0039,0.0000,0.0000,0.0000,0.0000,0.0000,0.0000,0.0000,0.0000,0.0000,0.0000,0.0000,0.0000,0.0000,0.0000,1.0000,0.0000,0.0000,0.0000,NAN,NAN,0.0000,0.0000,0.0000,0.0000,0.0000,0.0000,-0.0000,-0.0225,-0.0174,0.0108,0.0000,0.0000,-0.0500,0.0025,0.0025,0.0025,0.0025,4
47,371,2897982366543,-0.0013,NAN,NAN,0.0710,0.6010,0.3510,0.0000,12.2227,0.0000,-0.1831,-0.2441,-0.0610,-0.1315,-0.2397,-10.5739,0.0236,-0.0184,-0.0039,0.0000,0.0000,0.0000,0.0000,0.0000,0.0000,0.0000,0.0000,0.0000,0.0000,0.0000,0.0000,0.0000,0.0000,1.0000,0.0000,0.0000,0.0000,NAN,NAN,0.0000,0.0000,0.0000,0.0000,0.0000,0.0000,-0.0000,-0.0230,-0.0177,0.0109,0.0000,0.0000,-0.0500,0.0025,0.0025,0.0025,0.0025,4
48,372,2897987849110,-0.0013,NAN,NAN,0.0710,0.6010,0.3510,0.0000,12.2222,0.0000,-0.0610,-0.1831,0.1831,-0.1506,-0.2901,-10.6050,0.0236,-0.0184,-0.0039,0.0000,0.0000,0.0000,0.0000,0.0000,0.0000,0.0000,0.0000,0.0000,0.0000,0.0000,0.0000,0.0000,0.0000,1.0000,0.0000,0.0000,0.0000,NAN,NAN,0.0000,0.0000,0.0000,0.0000,0.0000,0.0000,-0.0000,-0.0235,-0.0180,0.0108,0.0000,0.0000,-0.0500,0.0025,0.0025,0.0025,0.0025,4
49,373,2897992345683,-0.0013,NAN,NAN,0.0710,0.6010,0.3510,0.0000,12.2222,0.0000,-0.2441,-0.1221,-0.0000,-0.1339,-0.2397,-10.6073,0.0236,-0.0184,-0.0039,0.0000,0.0000,0.0000,0.0000,0.0000,0.0000,0.0000,0.0000,0.0000,0.0000,0.0000,0.0000,0.0000,0.0000,1.0000,0.0000,0.0000,0.0000,NAN,NAN,0.0000,0.0000,0.0000,0.0000,0.0000,0.0000,-0.0000,-0.0240,-0.0182,0.0108,0.0000,0.0000,-0.0500,0.0025,0.0025,0.0025,0.0025,4
50,374,2897997307777,-0.0013,NAN,NAN,0.0710,0.6010,0.3510,0.0000,12.2220,0.0000,-0.1831,-0.1221,-0.0610,-0.1172,-0.2541,-10.5620,0.0236,-0.0184,-0.0039,0.0000,0.0000,0.0000,0.0000,0.0000,0.0000,0.0000,0.0000,0.0000,0.0000,0.0000,0.0000,0.0000,0.0000,1.0000,0.0000,0.0000,0.0000,NAN,NAN,0.0000,0.0000,0.0000,0.0000,0.0000,0.0000,-0.0000,-0.0245,-0.0185,0.0108,0.0000,0.0000,-0.0500,0.0025,0.0025,0.0025,0.0025,4
51,375,2898002377524,-0.0013,NAN,NAN,0.0710,0.6010,0.3510,0.0000,12.2227,0.0000,-0.0610,-0.1831,0.1831,-0.1530,-0.2973,-10.5835,0.0236,-0.0184,-0.0039,0.0000,0.0000,0.0000,0.0000,0.0000,0.0000,0.0000,0.0000,0.0000,0.0000,0.0000,0.0000,0.0000,0.0000,1.0000,0.0000,0.0000,0.0000,NAN,NAN,0.0000,0.0000,0.0000,0.0000,0.0000,0.0000,-0.0000,-0.0250,-0.0188,0.0107,0.0000,0.0000,-0.0500,0.0025,0.0025,0.0025,0.0025,4
52,376,2898007826220,-0.0013,NAN,NAN,0.0710,0.6010,0.3510,0.0000,12.2225,0.0000,0.0000,0.0000,-0.0000,-0.1698,-0.2757,-10.6026,0.0236,-0.0184,-0.0039,0.0000,0.0000,0.0000,0.0000,0.0000,0.0000,0.0000,0.0000,0.0000,0.0000,0.0000,0.0000,0.0000,0.0000,1.0000,0.0000,0.0000,0.0000,NAN,NAN,0.0000,0.0000,0.0000,0.0000,0.0000,0.0000,-0.0000,-0.0255,-0.0190,0.0108,0.0000,0.0000,-0.0500,0.0025,0.0025,0.0025,0.0025,4
53,377,2898012443319,-0.0013,NAN,NAN,0.0710,0.6010,0.3510,0.0000,12.2227,0.0000,-0.1221,-0.0610,-0.1221,-0.1841,-0.2901,-10.6336,0.0236,-0.0183,-0.0040,0.0000,0.0000,0.0000,0.0000,0.0000,0.0000,0.0000,0.0000,0.0000,0.0000,0.0000,0.0000,0.0000,0.0000,1.0000,0.0000,0.0000,0.0000,NAN,NAN,0.0000,0.0000,0.0000,0.0000,0.0000,0.0000,-0.0000,-0.0260,-0.0192,0.0109,0.0000,0.0000,-0.0500,0.0025,0.0025,0.0025,0.0025,4
54,378,2898017379250,-0.0013,NAN,NAN,0.0710,0.6010,0.3510,0.0000,12.2225,0.0000,-0.0610,-0.1221,0.1221,-0.1554,-0.2445,-10.6217,0.0236,-0.0184,-0.0040,0.0000,0.0000,0.0000,0.0000,0.0000,0.0000,0.0000,0.0000,0.0000,0.0000,0.0000,0.0000,0.0000,0.0000,1.0000,0.0000,0.0000,0.0000,NAN,NAN,0.0000,0.0000,0.0000,0.0000,0.0000,0.0000,-0.0000,-0.0265,-0.0195,0.0108,0.0000,0.0000,-0.0500,0.0025,0.0025,0.0025,0.0025,4
55,379,2898022747249,-0.0013,NAN,NAN,0.0710,0.6010,0.3510,0.0000,12.2220,0.0000,0.0000,0.0000,-0.0610,-0.1626,-0.2253,-10.5906,0.0236,-0.0183,-0.0040,0.0000,0.0000,0.0000,0.0000,0.0000,0.0000,0.0000,0.0000,0.0000,0.0000,0.0000,0.0000,0.0000,0.0000,1.0000,0.0000,0.0000,0.0000,NAN,NAN,0.0000,0.0000,0.0000,0.0000,0.0000,0.0000,-0.0000,-0.0270,-0.0197,0.0109,0.0000,0.0000,-0.0500,0.0025,0.0025,0.0025,0.0025,4
56,380,2898027308063,-0.0013,NAN,NAN,0.0710,0.6010,0.3510,0.0000,12.2225,0.0000,-0.1831,-0.1221,-0.0000,-0.1721,-0.2829,-10.6264,0.0236,-0.0183,-0.0040,0.0000,0.0000,0.0000,0.0000,0.0000,0.0000,0.0000,0.0000,0.0000,0.0000,0.0000,0.0000,0.0000,0.0000,1.0000,0.0000,0.0000,0.0000,NAN,NAN,0.0000,0.0000,0.0000,0.0000,0.0000,0.0000,-0.0000,-0.0275,-0.0199,0.0109,0.0000,0.0000,-0.0500,0.0025,0.0025,0.0025,0.0025,4
57,381,2898032337606,-0.0013,NAN,NAN,0.0710,0.6010,0.3510,0.0000,12.2217,0.0000,-0.1221,-0.0610,0.1831,-0.1865,-0.2493,-10.5859,0.0236,-0.0183,-0.0040,0.0000,0.0000,0.0000,0.0000,0.0000,0.0000,0.0000,0.0000,0.0000,0.0000,0.0000,0.0000,0.0000,0.0000,1.0000,0.0000,0.0000,0.0000,NAN,NAN,0.0000,0.0000,0.0000,0.0000,0.0000,0.0000,-0.0000,-0.0280,-0.0202,0.0108,0.0000,0.0000,-0.0500,0.0025,0.0025,0.0025,0.0025,4
58,382,2898037346070,-0.0013,NAN,NAN,0.0710,0.6010,0.3510,0.0000,12.2215,0.0000,0.0000,-0.0610,0.1831,-0.1578,-0.2373,-10.5930,0.0236,-0.0183,-0.0039,0.0000,0.0000,0.0000,0.0000,0.0000,0.0000,0.0000,0.0000,0.0000,0.0000,0.0000,0.0000,0.0000,0.0000,1.0000,0.0000,0.0000,0.0000,NAN,NAN,0.0000,0.0000,0.0000,0.0000,0.0000,0.0000,-0.0000,-0.0285,-0.0204,0.0107,0.0000,0.0000,-0.0500,0.0025,0.0025,0.0025,0.0025,4
59,383,2898042640328,-0.0013,NAN,NAN,0.0710,0.6010,0.3510,0.0000,12.2217,0.0000,0.0000,-0.1221,0.1221,-0.1458,-0.2661,-10.5811,0.0236,-0.0184,-0.0039,0.0000,0.0000,0.0000,0.0000,0.0000,0.0000,0.0000,0.0000,0.0000,0.0000,0.0000,0.0000,0.0000,0.0000,1.0000,0.0000,0.0000,0.0000,NAN,NAN,0.0000,0.0000,0.0000,0.0000,0.0000,0.0000,-0.0000,-0.0290,-0.0206,0.0107,0.0000,0.0000,-0.0500,0.0025,0.0025,0.0025,0.0025,4
60,384,2898050741258,-0.0013,NAN,NAN,0.0710,0.6010,0.3510,0.0000,12.2217,0.0000,-0.0610,-0.1221,-0.0000,-0.1602,-0.2206,-10.5954,0.0236,-0.0184,-0.0039,0.0000,0.0000,0.0000,0.0000,0.0000,0.0000,0.0000,0.0000,0.0000,0.0000,0.0000,0.0000,0.0000,0.0000,1.0000,0.0000,0.0000,0.0000,NAN,NAN,0.0000,0.0000,0.0000,0.0000,0.0000,0.0000,-0.0000,-0.0295,-0.0208,0.0107,0.0000,0.0000,-0.0500,0.0025,0.0025,0.0025,0.0025,4
61,385,2898052438784,-0.0013,NAN,NAN,0.0710,0.6010,0.3510,0.0000,12.2222,0.0000,-0.0610,-0.1221,-0.0000,-0.1411,-0.2301,-10.6002,0.0236,-0.0184,-0.0039,0.0000,0.0000,0.0000,0.0000,0.0000,0.0000,0.0000,0.0000,0.0000,0.0000,0.0000,0.0000,0.0000,0.0000,1.0000,0.0000,0.0000,0.0000,NAN,NAN,0.0000,0.0000,0.0000,0.0000,0.0000,0.0000,-0.0000,-0.0300,-0.0210,0.0108,0.0000,0.0000,-0.0500,0.0025,0.0025,0.0025,0.0025,4
62,386,2898057921642,-0.0013,NAN,NAN,0.0710,0.6010,0.3510,0.0000,12.2227,0.0000,-0.1221,-0.0610,-0.0610,-0.1913,-0.2469,-10.5715,0.0236,-0.0184,-0.0040,0.0000,0.0000,0.0000,0.0000,0.0000,0.0000,0.0000,0.0000,0.0000,0.0000,0.0000,0.0000,0.0000,0.0000,1.0000,0.0000,0.0000,0.0000,NAN,NAN,0.0000,0.0000,0.0000,0.0000,0.0000,0.0000,-0.0000,-0.0305,-0.0212,0.0109,0.0000,0.0000,-0.0500,0.0025,0.0025,0.0025,0.0025,4
63,387,2898062391968,-0.0013,NAN,NAN,0.0710,0.6010,0.3510,0.0000,12.2227,0.0000,-0.1831,-0.0610,-0.0000,-0.1626,-0.2805,-10.6050,0.0236,-0.0184,-0.0040,0.0000,0.0000,0.0000,0.0000,0.0000,0.0000,0.0000,0.0000,0.0000,0.0000,0.0000,0.0000,0.0000,0.0000,1.0000,0.0000,0.0000,0.0000,NAN,NAN,0.0000,0.0000,0.0000,0.0000,0.0000,0.0000,-0.0000,-0.0310,-0.0214,0.0109,0.0000,0.0000,-0.0500,0.0025,0.0025,0.0025,0.0025,4
64,388,2898067345814,-0.0013,NAN,NAN,0.0710,0.6010,0.3510,0.0000,12.2227,0.0000,-0.1831,-0.1831,-0.0000,-0.2008,-0.2637,-10.5596,0.0236,-0.0184,-0.0040,0.0000,0.0000,0.0000,0.0000,0.0000,0.0000,0.0000,0.0000,0.0000,0.0000,0.0000,0.0000,0.0000,0.0000,1.0000,0.0000,0.0000,0.0000,NAN,NAN,0.0000,0.0000,0.0000,0.0000,0.0000,0.0000,-0.0000,-0.0315,-0.0216,0.0109,0.0000,0.0000,-0.0500,0.0025,0.0025,0.0025,0.0025,4
65,389,2898072376149,-0.0013,NAN,NAN,0.0710,0.6010,0.3510,0.0000,12.2232,0.0000,-0.0610,-0.1221,-0.0610,-0.1674,-0.2493,-10.6050,0.0236,-0.0184,-0.0040,0.0000,0.0000,0.0000,0.0000,0.0000,0.0000,0.0000,0.0000,0.0000,0.0000,0.0000,0.0000,0.0000,0.0000,1.0000,0.0000,0.0000,0.0000,NAN,NAN,0.0000,0.0000,0.0000,0.0000,0.0000,0.0000,-0.0000,-0.0320,-0.0218,0.0110,0.0000,0.0000,-0.0500,0.0025,0.0025,0.0025,0.0025,4
66,390,2898077808723,-0.0013,NAN,NAN,0.0710,0.6010,0.3510,0.0000,12.2234,0.0000,-0.0610,-0.2441,-0.0000,-0.1530,-0.2445,-10.6479,0.0236,-0.0184,-0.0040,0.0000,0.0000,0.0000,0.0000,0.0000,0.0000,0.0000,0.0000,0.0000,0.0000,0.0000,0.0000,0.0000,0.0000,1.0000,0.0000,0.0000,0.0000,NAN,NAN,0.0000,0.0000,0.0000,0.0000,0.0000,0.0000,-0.0000,-0.0325,-0.0219,0.0109,0.0000,0.0000,-0.0500,0.0025,0.0025,0.0025,0.0025,4
67,391,2898082360705,-0.0013,NAN,NAN,-0.0390,0.6610,0.3210,0.0000,12.2227,0.0000,-0.0610,-0.2441,-0.0610,-0.1602,-0.2589,-10.6145,0.0236,-0.0184,-0.0040,0.0000,0.0000,0.0000,0.0000,0.0000,0.0000,0.0000,0.0000,0.0000,0.0000,0.0000,0.0000,0.0000,0.0000,1.0000,0.0000,0.0000,0.0000,NAN,NAN,0.0000,0.0000,0.0000,0.0000,0.0000,0.0000,-0.0000,-0.0330,-0.0221,0.0110,0.0000,0.0000,-0.0500,0.0025,0.0025,0.0025,0.0025,4
68,392,2898087265806,-0.0013,NAN,NAN,-0.0390,0.6610,0.3210,0.0000,12.2227,0.0000,-0.0610,-0.1221,-0.0000,-0.1554,-0.2709,-10.6217,0.0236,-0.0184,-0.0040,0.0000,0.0000,0.0000,0.0000,0.0000,0.0000,0.0000,0.0000,0.0000,0.0000,0.0000,0.0000,0.0000,0.0000,1.0000,0.0000,0.0000,0.0000,NAN,NAN,0.0000,0.0000,0.0000,0.0000,0.0000,0.0000,-0.0000,-0.0335,-0.0223,0.0110,0.0000,0.0000,-0.0500,0.0025,0.0025,0.0025,0.0025,4
69,393,2898095370360,-0.0013,NAN,NAN,-0.0390,0.6610,0.3210,0.0000,12.2225,0.0000,-0.1831,-0.1221,-0.0000,-0.1291,-0.2517,-10.6073,0.0236,-0.0184,-0.0040,0.0000,0.0000,0.0000,0.0000,0.0000,0.0000,0.0000,0.0000,0.0000,0.0000,0.0000,0.0000,0.0000,0.0000,1.0000,0.0000,0.0000,0.0000,NAN,NAN,0.0000,0.0000,0.0000,0.0000,0.0000,0.0000,-0.0000,-0.0340,-0.0224,0.0111,0.0000,0.0000,-0.0500,0.0025,0.0025,0.0025,0.0025,4
70,394,2898097671015,-0.0013,NAN,NAN,-0.0390,0.6610,0.3210,0.0000,12.2229,0.0000,-0.0610,-0.1221,-0.0000,-0.1219,-0.2997,-10.5811,0.0236,-0.0184,-0.0040,0.0000,0.0000,0.0000,0.0000,0.0000,0.0000,0.0000,0.0000,0.0000,0.0000,0.0000,0.0000,0.0000,0.0000,1.0000,0.0000,0.0000,0.0000,NAN,NAN,0.0000,0.0000,0.0000,0.0000,0.0000,0.0000,-0.0000,-0.0345,-0.0226,0.0111,0.0000,0.0000,-0.0500,0.0025,0.0025,0.0025,0.0025,4
71,395,2898102539955,-0.0013,NAN,NAN,-0.0390,0.6610,0.3210,0.0000,12.2229,0.0000,-0.0610,-0.1831,-0.1221,-0.1721,-0.2781,-10.5859,0.0236,-0.0184,-0.0040,0.0000,0.0000,0.0000,0.0000,0.0000,0.0000,0.0000,0.0000,0.0000,0.0000,0.0000,0.0000,0.0000,0.0000,1.0000,0.0000,0.0000,0.0000,NAN,NAN,0.0000,0.0000,0.0000,0.0000,0.0000,0.0000,-0.0000,-0.0350,-0.0227,0.0112,0.0000,0.0000,-0.0500,0.0025,0.0025,0.0025,0.0025,4
72,396,2898107292202,-0.0013,NAN,NAN,-0.0390,0.6610,0.3210,0.0000,12.2215,0.0000,-0.1221,-0.0610,-0.1221,-0.1674,-0.2110,-10.6073,0.0236,-0.0184,-0.0040,0.0000,0.0000,0.0000,0.0000,0.0000,0.0000,0.0000,0.0000,0.0000,0.0000,0.0000,0.0000,0.0000,0.0000,1.0000,0.0000,0.0000,0.0000,NAN,NAN,0.0000,0.0000,0.0000,0.0000,0.0000,0.0000,-0.0000,-0.0355,-0.0229,0.0113,0.0000,0.0000,-0.0500,0.0025,0.0025,0.0025,0.0025,4
73,397,2898115965472,-0.0013,NAN,NAN,-0.0390,0.6610,0.3210,0.0000,12.2220,0.0000,-0.0610,-0.1221,-0.0000,-0.1435,-0.2421,-10.6360,0.0236,-0.0184,-0.0040,0.0000,0.0000,0.0000,0.0000,0.0000,0.0000,0.0000,0.0000,0.0000,0.0000,0.0000,0.0000,0.0000,0.0000,1.0000,0.0000,0.0000,0.0000,NAN,NAN,0.0000,0.0000,0.0000,0.0000,0.0000,0.0000,-0.0000,-0.0360,-0.0230,0.0113,0.0000,0.0000,-0.0500,0.0025,0.0025,0.0025,0.0025,4
74,398,2898117753736,-0.0013,NAN,NAN,-0.0390,0.6610,0.3210,0.0000,12.2220,0.0000,0.0000,0.0000,-0.0000,-0.1554,-0.2349,-10.6718,0.0236,-0.0184,-0.0040,0.0000,0.0000,0.0000,0.0000,0.0000,0.0000,0.0000,0.0000,0.0000,0.0000,0.0000,0.0000,0.0000,0.0000,1.0000,0.0000,0.0000,0.0000,NAN,NAN,0.0000,0.0000,0.0000,0.0000,0.0000,0.0000,-0.0000,-0.0365,-0.0232,0.0113,0.0000,0.0000,-0.0500,0.0025,0.0025,0.0025,0.0025,4
75,399,2898122392956,-0.0013,NAN,NAN,-0.0390,0.6610,0.3210,0.0000,12.2220,0.0000,-0.1831,-0.1831,-0.0000,-0.1315,-0.2421,-10.6670,0.0236,-0.0184,-0.0040,0.0000,0.0000,0.0000,0.0000,0.0000,0.0000,0.0000,0.0000,0.0000,0.0000,0.0000,0.0000,0.0000,0.0000,1.0000,0.0000,0.0000,0.0000,NAN,NAN,0.0000,0.0000,0.0000,0.0000,0.0000,0.0000,-0.0000,-0.0370,-0.0233,0.0112,0.0000,0.0000,-0.0500,0.0025,0.0025,0.0025,0.0025,4
76,400,2898127627431,-0.0013,NAN,NAN,-0.0390,0.6610,0.3210,0.0000,12.2217,0.0000,-0.0610,-0.1831,-0.0000,-0.1650,-0.2469,-10.5906,0.0236,-0.0184,-0.0040,0.0000,0.0000,0.0000,0.0000,0.0000,0.0000,0.0000,0.0000,0.0000,0.0000,0.0000,0.0000,0.0000,0.0000,1.0000,0.0000,0.0000,0.0000,NAN,NAN,0.0000,0.0000,0.0000,0.0000,0.0000,0.0000,-0.0000,-0.0375,-0.0234,0.0113,0.0000,0.0000,-0.0500,0.0025,0.0025,0.0025,0.0025,4
77,401,2898132374929,-0.0013,NAN,NAN,-0.0390,0.6610,0.3210,0.0000,12.2220,0.0000,-0.0610,-0.1831,-0.0000,-0.1674,-0.2637,-10.5453,0.0236,-0.0184,-0.0041,0.0000,0.0000,0.0000,0.0000,0.0000,0.0000,0.0000,0.0000,0.0000,0.0000,0.0000,0.0000,0.0000,0.0000,1.0000,0.0000,0.0000,0.0000,NAN,NAN,0.0000,0.0000,0.0000,0.0000,0.0000,0.0000,-0.0000,-0.0380,-0.0236,0.0113,0.0000,0.0000,-0.0500,0.0025,0.0025,0.0025,0.0025,4
78,402,2898137398682,-0.0013,NAN,NAN,-0.0390,0.6610,0.3210,0.0000,12.2222,0.0000,-0.0610,-0.1831,-0.0000,-0.1411,-0.2493,-10.5477,0.0236,-0.0184,-0.0041,0.0000,0.0000,0.0000,0.0000,0.0000,0.0000,0.0000,0.0000,0.0000,0.0000,0.0000,0.0000,0.0000,0.0000,1.0000,0.0000,0.0000,0.0000,NAN,NAN,0.0000,0.0000,0.0000,0.0000,0.0000,0.0000,-0.0000,-0.0385,-0.0237,0.0113,0.0000,0.0000,-0.0500,0.0025,0.0025,0.0025,0.0025,4
79,403,2898142279537,-0.0013,NAN,NAN,-0.0390,0.6610,0.3210,0.0000,12.2217,0.0000,0.0000,0.0000,-0.0000,-0.1339,-0.2781,-10.5691,0.0236,-0.0184,-0.0041,0.0000,0.0000,0.0000,0.0000,0.0000,0.0000,0.0000,0.0000,0.0000,0.0000,0.0000,0.0000,0.0000,0.0000,1.0000,0.0000,0.0000,0.0000,NAN,NAN,0.0000,0.0000,0.0000,0.0000,0.0000,0.0000,-0.0000,-0.0390,-0.0238,0.0113,0.0000,0.0000,-0.0500,0.0025,0.0025,0.0025,0.0025,4
80,404,2898147614415,-0.0013,NAN,NAN,-0.0390,0.6610,0.3210,0.0000,12.2217,0.0000,-0.0610,-0.1221,-0.0000,-0.1435,-0.2901,-10.6145,0.0236,-0.0184,-0.0041,0.0000,0.0000,0.0000,0.0000,0.0000,0.0000,0.0000,0.0000,0.0000,0.0000,0.0000,0.0000,0.0000,0.0000,1.0000,0.0000,0.0000,0.0000,NAN,NAN,0.0000,0.0000,0.0000,0.0000,0.0000,0.0000,-0.0000,-0.0395,-0.0239,0.0113,0.0000,0.0000,-0.0500,0.0025,0.0025,0.0025,0.0025,4
81,405,2898152536223,-0.0013,NAN,NAN,-0.0390,0.6610,0.3210,0.0000,12.2215,0.0000,0.0000,0.0000,-0.0000,-0.1650,-0.2853,-10.5668,0.0236,-0.0184,-0.0041,0.0000,0.0000,0.0000,0.0000,0.0000,0.0000,0.0000,0.0000,0.0000,0.0000,0.0000,0.0000,0.0000,0.0000,1.0000,0.0000,0.0000,0.0000,NAN,NAN,0.0000,0.0000,0.0000,0.0000,0.0000,0.0000,-0.0000,-0.0400,-0.0240,0.0113,0.0000,0.0000,-0.0500,0.0025,0.0025,0.0025,0.0025,4
82,406,2898157465322,-0.0013,NAN,NAN,-0.0390,0.6610,0.3210,0.0000,12.2210,0.0000,0.0000,0.0000,-0.0000,-0.1028,-0.3093,-10.5930,0.0236,-0.0184,-0.0041,0.0000,0.0000,0.0000,0.0000,0.0000,0.0000,0.0000,0.0000,0.0000,0.0000,0.0000,0.0000,0.0000,0.0000,1.0000,0.0000,0.0000,0.0000,NAN,NAN,0.0000,0.0000,0.0000,0.0000,0.0000,0.0000,-0.0000,-0.0405,-0.0241,0.0113,0.0000,0.0000,-0.0500,0.0025,0.0025,0.0025,0.0025,4
83,407,2898162841236,-0.0013,NAN,NAN,-0.0390,0.6610,0.3210,0.0000,12.2210,0.0000,-0.0610,-0.1831,-0.0000,-0.1913,-0.2781,-10.5835,0.0236,-0.0184,-0.0041,0.0000,0.0000,0.0000,0.0000,0.0000,0.0000,0.0000,0.0000,0.0000,0.0000,0.0000,0.0000,0.0000,0.0000,1.0000,0.0000,0.0000,0.0000,NAN,NAN,0.0000,0.0000,0.0000,0.0000,0.0000,0.0000,-0.0000,-0.0410,-0.0242,0.0113,0.0000,0.0000,-0.0500,0.0025,0.0025,0.0025,0.0025,4
84,408,2898167340725,-0.0013,NAN,NAN,-0.0390,0.6610,0.3210,0.0000,12.2210,0.0000,0.0000,0.0000,-0.0000,-0.1650,-0.2613,-10.6169,0.0236,-0.0184,-0.0041,0.0000,0.0000,0.0000,0.0000,0.0000,0.0000,0.0000,0.0000,0.0000,0.0000,0.0000,0.0000,0.0000,0.0000,1.0000,0.0000,0.0000,0.0000,NAN,NAN,0.0000,0.0000,0.0000,0.0000,0.0000,0.0000,-0.0000,-0.0415,-0.0243,0.0113,0.0000,0.0000,-0.0500,0.0025,0.0025,0.0025,0.0025,4
85,409,2898172307110,-0.0013,NAN,NAN,-0.0390,0.6610,0.3210,0.0000,12.2203,0.0000,-0.1831,-0.2441,-0.0000,-0.1554,-0.2469,-10.6121,0.0236,-0.0184,-0.0041,0.0000,0.0000,0.0000,0.0000,0.0000,0.0000,0.0000,0.0000,0.0000,0.0000,0.0000,0.0000,0.0000,0.0000,1.0000,0.0000,0.0000,0.0000,NAN,NAN,0.0000,0.0000,0.0000,0.0000,0.0000,0.0000,-0.0000,-0.0420,-0.0244,0.0113,0.0000,0.0000,-0.0500,0.0025,0.0025,0.0025,0.0025,4
86,410,2898177647905,-0.0013,NAN,NAN,-0.0390,0.6610,0.3210,0.0000,12.2205,0.0000,-0.0610,-0.1831,0.1221,-0.1602,-0.2517,-10.6169,0.0236,-0.0184,-0.0041,0.0000,0.0000,0.0000,0.0000,0.0000,0.0000,0.0000,0.0000,0.0000,0.0000,0.0000,0.0000,0.0000,0.0000,1.0000,0.0000,0.0000,0.0000,NAN,NAN,0.0000,0.0000,0.0000,0.0000,0.0000,0.0000,-0.0000,-0.0425,-0.0244,0.0112,0.0000,0.0000,-0.0500,0.0025,0.0025,0.0025,0.0025,4
87,411,2898182504221,-0.0013,NAN,NAN,-0.0390,0.6610,0.3210,0.0000,12.2210,0.0000,0.0000,0.0000,-0.0000,-0.1554,-0.2565,-10.5930,0.0236,-0.0184,-0.0041,0.0000,0.0000,0.0000,0.0000,0.0000,0.0000,0.0000,0.0000,0.0000,0.0000,0.0000,0.0000,0.0000,0.0000,1.0000,0.0000,0.0000,0.0000,NAN,NAN,0.0000,0.0000,0.0000,0.0000,0.0000,0.0000,-0.0000,-0.0430,-0.0245,0.0112,0.0000,0.0000,-0.0500,0.0025,0.0025,0.0025,0.0025,4
88,412,2898187324626,-0.0013,NAN,NAN,-0.0390,0.6610,0.3210,0.0000,12.2215,0.0000,-0.2441,-0.1831,-0.0000,-0.1721,-0.2541,-10.5882,0.0236,-0.0184,-0.0041,0.0000,0.0000,0.0000,0.0000,0.0000,0.0000,0.0000,0.0000,0.0000,0.0000,0.0000,0.0000,0.0000,0.0000,1.0000,0.0000,0.0000,0.0000,NAN,NAN,0.0000,0.0000,0.0000,0.0000,0.0000,0.0000,-0.0000,-0.0435,-0.0246,0.0112,0.0000,0.0000,-0.0500,0.0025,0.0025,0.0025,0.0025,4
89,413,2898192309426,-0.0013,NAN,NAN,-0.0390,0.6610,0.3210,0.0000,12.2217,0.0000,-0.1831,-0.1831,-0.0000,-0.1124,-0.2541,-10.5715,0.0236,-0.0184,-0.0041,0.0000,0.0000,0.0000,0.0000,0.0000,0.0000,0.0000,0.0000,0.0000,0.0000,0.0000,0.0000,0.0000,0.0000,1.0000,0.0000,0.0000,0.0000,NAN,NAN,0.0000,0.0000,0.0000,0.0000,0.0000,0.0000,-0.0000,-0.0440,-0.0246,0.0112,0.0000,0.0000,-0.0500,0.0025,0.0025,0.0025,0.0025,4
90,414,2898197614308,-0.0013,NAN,NAN,-0.0390,0.6610,0.3210,0.0000,12.2217,0.0000,-0.1831,-0.2441,-0.0610,-0.1554,-0.2661,-10.5501,0.0236,-0.0184,-0.0041,0.0000,0.0000,0.0000,0.0000,0.0000,0.0000,0.0000,0.0000,0.0000,0.0000,0.0000,0.0000,0.0000,0.0000,1.0000,0.0000,0.0000,0.0000,NAN,NAN,0.0000,0.0000,0.0000,0.0000,0.0000,0.0000,-0.0000,-0.0445,-0.0247,0.0112,0.0000,0.0000,-0.0500,0.0025,0.0025,0.0025,0.0025,4
91,415,2898202207284,-0.0013,NAN,NAN,-0.0390,0.6610,0.3210,0.0000,12.2220,0.0000,-0.0610,-0.1831,-0.0000,-0.1602,-0.2517,-10.5357,0.0236,-0.0185,-0.0041,0.0000,0.0000,0.0000,0.0000,0.0000,0.0000,0.0000,0.0000,0.0000,0.0000,0.0000,0.0000,0.0000,0.0000,1.0000,0.0000,0.0000,0.0000,NAN,NAN,0.0000,0.0000,0.0000,0.0000,0.0000,0.0000,-0.0000,-0.0450,-0.0248,0.0113,0.0000,0.0000,-0.0500,0.0025,0.0025,0.0025,0.0025,4
92,416,2898207460215,-0.0013,NAN,NAN,-0.0390,0.6610,0.3210,0.0000,12.2232,0.0000,-0.0610,-0.1221,0.1221,-0.1172,-0.2397,-10.5930,0.0236,-0.0185,-0.0041,0.0000,0.0000,0.0000,0.0000,0.0000,0.0000,0.0000,0.0000,0.0000,0.0000,0.0000,0.0000,0.0000,0.0000,1.0000,0.0000,0.0000,0.0000,NAN,NAN,0.0000,0.0000,0.0000,0.0000,0.0000,0.0000,-0.0000,-0.0455,-0.0248,0.0112,0.0000,0.0000,-0.0500,0.0025,0.0025,0.0025,0.0025,4
93,417,2898212630615,-0.0013,NAN,NAN,-0.0390,0.6610,0.3210,0.0000,12.2234,0.0000,-0.0610,-0.3052,-0.0000,-0.1291,-0.2685,-10.6193,0.0236,-0.0185,-0.0041,0.0000,0.0000,0.0000,0.0000,0.0000,0.0000,0.0000,0.0000,0.0000,0.0000,0.0000,0.0000,0.0000,0.0000,1.0000,0.0000,0.0000,0.0000,NAN,NAN,0.0000,0.0000,0.0000,0.0000,0.0000,0.0000,-0.0000,-0.0460,-0.0248,0.0113,0.0000,0.0000,-0.0500,0.0025,0.0025,0.0025,0.0025,4
94,418,2898217311663,-0.0013,NAN,NAN,-0.0390,0.6610,0.3210,0.0000,12.2234,0.0000,-0.1831,-0.2441,-0.0000,-0.1482,-0.2661,-10.5811,0.0236,-0.0185,-0.0041,0.0000,0.0000,0.0000,0.0000,0.0000,0.0000,0.0000,0.0000,0.0000,0.0000,0.0000,0.0000,0.0000,0.0000,1.0000,0.0000,0.0000,0.0000,NAN,NAN,0.0000,0.0000,0.0000,0.0000,0.0000,0.0000,-0.0000,-0.0465,-0.0249,0.0112,0.0000,0.0000,-0.0500,0.0025,0.0025,0.0025,0.0025,4
95,419,2898222209891,-0.0013,NAN,NAN,-0.0390,0.6610,0.3210,0.0000,12.2234,0.0000,0.0000,0.0610,0.1221,-0.1243,-0.3021,-10.5930,0.0236,-0.0185,-0.0041,0.0000,0.0000,0.0000,0.0000,0.0000,0.0000,0.0000,0.0000,0.0000,0.0000,0.0000,0.0000,0.0000,0.0000,1.0000,0.0000,0.0000,0.0000,NAN,NAN,0.0000,0.0000,0.0000,0.0000,0.0000,0.0000,-0.0000,-0.0470,-0.0249,0.0112,0.0000,0.0000,-0.0500,0.0025,0.0025,0.0025,0.0025,4
96,420,2898227201148,-0.0013,NAN,NAN,-0.0390,0.6610,0.3210,0.0000,12.2229,0.0000,0.0610,-0.1221,0.1221,-0.1984,-0.2397,-10.5835,0.0236,-0.0185,-0.0041,0.0000,0.0000,0.0000,0.0000,0.0000,0.0000,0.0000,0.0000,0.0000,0.0000,0.0000,0.0000,0.0000,0.0000,1.0000,0.0000,0.0000,0.0000,NAN,NAN,0.0000,0.0000,0.0000,0.0000,0.0000,0.0000,-0.0000,-0.0475,-0.0249,0.0111,0.0000,0.0000,-0.0500,0.0025,0.0025,0.0025,0.0025,4
97,421,2898232649512,-0.0013,NAN,NAN,-0.0390,0.6610,0.3210,0.0000,12.2234,0.0000,-0.0610,-0.1221,-0.0000,-0.1650,-0.2925,-10.5668,0.0236,-0.0185,-0.0041,0.0000,0.0000,0.0000,0.0000,0.0000,0.0000,0.0000,0.0000,0.0000,0.0000,0.0000,0.0000,0.0000,0.0000,1.0000,0.0000,0.0000,0.0000,NAN,NAN,0.0000,0.0000,0.0000,0.0000,0.0000,0.0000,-0.0000,-0.0480,-0.0250,0.0112,0.0000,0.0000,-0.0500,0.0025,0.0025,0.0025,0.0025,4
98,422,2898237251112,-0.0013,NAN,NAN,-0.0390,0.6610,0.3210,0.0000,12.2237,0.0000,0.0000,0.0000,-0.0000,-0.1506,-0.2661,-10.6861,0.0236,-0.0185,-0.0041,0.0000,0.0000,0.0000,0.0000,0.0000,0.0000,0.0000,0.0000,0.0000,0.0000,0.0000,0.0000,0.0000,0.0000,1.0000,0.0000,0.0000,0.0000,NAN,NAN,0.0000,0.0000,0.0000,0.0000,0.0000,0.0000,-0.0000,-0.0485,-0.0250,0.0112,0.0000,0.0000,-0.0500,0.0025,0.0025,0.0025,0.0025,4
99,423,2898242214331,-0.0013,NAN,NAN,-0.0390,0.6610,0.3210,0.0000,12.2242,0.0000,-0.1831,-0.2441,-0.0000,-0.1411,-0.2637,-10.5835,0.0236,-0.0185,-0.0041,0.0000,0.0000,0.0000,0.0000,0.0000,0.0000,0.0000,0.0000,0.0000,0.0000,0.0000,0.0000,0.0000,0.0000,1.0000,0.0000,0.0000,0.0000,NAN,NAN,0.0000,0.0000,0.0000,0.0000,0.0000,0.0000,-0.0000,-0.0490,-0.0250,0.0113,0.0000,0.0000,-0.0500,0.0025,0.0025,0.0025,0.0025,4
100,424,2898247554250,-0.0013,NAN,NAN,-0.0390,0.6610,0.3210,0.0000,12.2239,0.0000,-0.2441,-0.2441,-0.0000,-0.1458,-0.2781,-10.5906,0.0236,-0.0185,-0.0041,0.0000,0.0000,0.0000,0.0000,0.0000,0.0000,0.0000,0.0000,0.0000,0.0000,0.0000,0.0000,0.0000,0.0000,1.0000,0.0000,0.0000,0.0000,NAN,NAN,0.0000,0.0000,0.0000,0.0000,0.0000,0.0000,-0.0000,-0.0495,-0.0250,0.0112,0.0000,0.0000,-0.0500,0.0025,0.0025,0.0025,0.0025,4
101,425,2898257019375,-0.0013,NAN,NAN,-0.0390,0.6610,0.3210,0.0000,12.2237,0.0000,-0.0610,-0.1221,0.1831,-0.1219,-0.2613,-10.5787,0.0236,-0.0185,-0.0041,0.0000,0.0000,0.0000,0.0000,0.0000,0.0000,0.0000,0.0000,0.0000,0.0000,0.0000,0.0000,0.0000,0.0000,1.0000,0.0000,0.0000,0.0000,NAN,NAN,0.0000,0.0000,0.0000,0.0000,0.0000,0.0000,-0.0000,-0.0500,-0.0250,0.0111,0.0000,0.0000,-0.0500,0.0025,0.0025,0.0025,0.0025,4
102,426,2898258604249,-0.0013,NAN,NAN,-0.0390,0.6610,0.3210,0.0000,12.2242,0.0000,-0.0610,-0.1221,0.2441,-0.1937,-0.2853,-10.6360,0.0236,-0.0185,-0.0041,0.0000,0.0000,0.0000,0.0000,0.0000,0.0000,0.0000,0.0000,0.0000,0.0000,0.0000,0.0000,0.0000,0.0000,1.0000,0.0000,0.0000,0.0000,NAN,NAN,0.0000,0.0000,0.0000,0.0000,0.0000,0.0000,-0.0000,-0.0505,-0.0250,0.0110,0.0000,0.0000,-0.0500,0.0025,0.0025,0.0025,0.0025,4
103,427,2898262403580,-0.0013,NAN,NAN,-0.0390,0.6610,0.3210,0.0000,12.2242,0.0000,0.0000,0.0000,-0.0000,-0.1698,-0.2613,-10.5930,0.0236,-0.0185,-0.0041,0.0000,0.0000,0.0000,0.0000,0.0000,0.0000,0.0000,0.0000,0.0000,0.0000,0.0000,0.0000,0.0000,0.0000,1.0000,0.0000,0.0000,0.0000,NAN,NAN,0.0000,0.0000,0.0000,0.0000,0.0000,0.0000,-0.0000,-0.0510,-0.0250,0.0111,0.0000,0.0000,-0.0500,0.0025,0.0025,0.0025,0.0025,4
104,428,2898267666843,-0.0013,NAN,NAN,-0.0390,0.6610,0.3210,0.0000,12.2242,0.0000,-0.0610,-0.2441,-0.0000,-0.1865,-0.2781,-10.6240,0.0236,-0.0185,-0.0041,0.0000,0.0000,0.0000,0.0000,0.0000,0.0000,0.0000,0.0000,0.0000,0.0000,0.0000,0.0000,0.0000,0.0000,1.0000,0.0000,0.0000,0.0000,NAN,NAN,0.0000,0.0000,0.0000,0.0000,0.0000,0.0000,-0.0000,-0.0515,-0.0250,0.0111,0.0000,0.0000,-0.0500,0.0025,0.0025,0.0025,0.0025,4
105,429,2898272518077,-0.0013,NAN,NAN,-0.0390,0.6610,0.3210,0.0000,12.2242,0.0000,-0.0610,-0.1831,-0.0610,-0.1458,-0.3021,-10.5763,0.0236,-0.0185,-0.0041,0.0000,0.0000,0.0000,0.0000,0.0000,0.0000,0.0000,0.0000,0.0000,0.0000,0.0000,0.0000,0.0000,0.0000,1.0000,0.0000,0.0000,0.0000,NAN,NAN,0.0000,0.0000,0.0000,0.0000,0.0000,0.0000,-0.0000,-0.0520,-0.0250,0.0112,0.0000,0.0000,-0.0500,0.0025,0.0025,0.0025,0.0025,4
106,430,2898277426678,-0.0013,NAN,NAN,-0.0390,0.6610,0.3210,0.0000,12.2244,0.0000,-0.0610,-0.1831,-0.0610,-0.1458,-0.2637,-10.5477,0.0237,-0.0185,-0.0041,0.0000,0.0000,0.0000,0.0000,0.0000,0.0000,0.0000,0.0000,0.0000,0.0000,0.0000,0.0000,0.0000,0.0000,1.0000,0.0000,0.0000,0.0000,NAN,NAN,0.0000,0.0000,0.0000,0.0000,0.0000,0.0000,-0.0000,-0.0525,-0.0249,0.0113,0.0000,0.0000,-0.0500,0.0025,0.0025,0.0025,0.0025,4
107,431,2898294228874,-0.0013,NAN,NAN,0.0510,0.6510,0.3610,0.0000,12.2242,0.0000,-0.0610,-0.1831,0.2441,-0.1578,-0.2733,-10.5930,0.0237,-0.0185,-0.0041,0.0000,0.0000,0.0000,0.0000,0.0000,0.0000,0.0000,0.0000,0.0000,0.0000,0.0000,0.0000,0.0000,0.0000,1.0000,0.0000,0.0000,0.0000,NAN,NAN,0.0000,0.0000,0.0000,0.0000,0.0000,0.0000,-0.0000,-0.0530,-0.0249,0.0111,0.0000,0.0000,-0.0500,0.0025,0.0025,0.0025,0.0025,4
108,432,2898296518947,-0.0013,NAN,NAN,0.0510,0.6510,0.3610,0.0000,12.2234,0.0000,-0.0610,-0.1831,-0.0000,-0.1267,-0.2949,-10.5835,0.0237,-0.0185,-0.0041,0.0000,0.0000,0.0000,0.0000,0.0000,0.0000,0.0000,0.0000,0.0000,0.0000,0.0000,0.0000,0.0000,0.0000,1.0000,0.0000,0.0000,0.0000,NAN,NAN,0.0000,0.0000,0.0000,0.0000,0.0000,0.0000,-0.0000,-0.0535,-0.0249,0.0111,0.0000,0.0000,-0.0500,0.0025,0.0025,0.0025,0.0025,4
109,433,2898303566224,-0.0013,NAN,NAN,0.0510,0.6510,0.3610,0.0000,12.2232,0.0000,-0.1831,-0.1831,-0.0000,-0.1602,-0.2637,-10.5357,0.0237,-0.0185,-0.0041,0.0000,0.0000,0.0000,0.0000,0.0000,0.0000,0.0000,0.0000,0.0000,0.0000,0.0000,0.0000,0.0000,0.0000,1.0000,0.0000,0.0000,0.0000,NAN,NAN,0.0000,0.0000,0.0000,0.0000,0.0000,0.0000,-0.0000,-0.0540,-0.0248,0.0111,0.0000,0.0000,-0.0500,0.0025,0.0025,0.0025,0.0025,4
110,434,2898307225657,-0.0013,NAN,NAN,0.0510,0.6510,0.3610,0.0000,12.2229,0.0000,0.0000,-0.1221,-0.0000,-0.1984,-0.3141,-10.5930,0.0237,-0.0185,-0.0041,0.0000,0.0000,0.0000,0.0000,0.0000,0.0000,0.0000,0.0000,0.0000,0.0000,0.0000,0.0000,0.0000,0.0000,1.0000,0.0000,0.0000,0.0000,NAN,NAN,0.0000,0.0000,0.0000,0.0000,0.0000,0.0000,-0.0000,-0.0545,-0.0248,0.0111,0.0000,0.0000,-0.0500,0.0025,0.0025,0.0025,0.0025,4
111,435,2898312248577,-0.0013,NAN,NAN,0.0510,0.6510,0.3610,0.0000,12.2213,0.0000,0.0610,-0.0610,0.1831,-0.1721,-0.2373,-10.5668,0.0237,-0.0186,-0.0041,0.0000,0.0000,0.0000,0.0000,0.0000,0.0000,0.0000,0.0000,0.0000,0.0000,0.0000,0.0000,0.0000,0.0000,1.0000,0.0000,0.0000,0.0000,NAN,NAN,0.0000,0.0000,0.0000,0.0000,0.0000,0.0000,-0.0000,-0.0550,-0.0248,0.0111,0.0000,0.0000,-0.0500,0.0025,0.0025,0.0025,0.0025,4
112,436,2898317881416,-0.0013,NAN,NAN,0.0510,0.6510,0.3610,0.0000,12.2215,0.0000,-0.0610,-0.1831,-0.0610,-0.1769,-0.2469,-10.6264,0.0237,-0.0186,-0.0041,0.0000,0.0000,0.0000,0.0000,0.0000,0.0000,0.0000,0.0000,0.0000,0.0000,0.0000,0.0000,0.0000,0.0000,1.0000,0.0000,0.0000,0.0000,NAN,NAN,0.0000,0.0000,0.0000,0.0000,0.0000,0.0000,-0.0000,-0.0555,-0.0247,0.0110,0.0000,0.0000,-0.0500,0.0025,0.0025,0.0025,0.0025,4
113,437,2898322352075,-0.0013,NAN,NAN,0.0510,0.6510,0.3610,0.0000,12.2217,0.0000,0.1221,-0.1221,-0.0610,-0.1817,-0.2637,-10.6766,0.0237,-0.0186,-0.0041,0.0000,0.0000,0.0000,0.0000,0.0000,0.0000,0.0000,0.0000,0.0000,0.0000,0.0000,0.0000,0.0000,0.0000,1.0000,0.0000,0.0000,0.0000,NAN,NAN,0.0000,0.0000,0.0000,0.0000,0.0000,0.0000,-0.0000,-0.0560,-0.0246,0.0108,0.0000,0.0000,-0.0500,0.0025,0.0025,0.0025,0.0025,4
114,438,2898327230139,-0.0013,NAN,NAN,0.0510,0.6510,0.3610,0.0000,12.2217,0.0000,-0.0610,-0.1221,-0.0000,-0.1793,-0.2613,-10.5668,0.0237,-0.0186,-0.0041,0.0000,0.0000,0.0000,0.0000,0.0000,0.0000,0.0000,0.0000,0.0000,0.0000,0.0000,0.0000,0.0000,0.0000,1.0000,0.0000,0.0000,0.0000,NAN,NAN,0.0000,0.0000,0.0000,0.0000,0.0000,0.0000,-0.0000,-0.0565,-0.0246,0.0107,0.0000,0.0000,-0.0500,0.0025,0.0025,0.0025,0.0025,4
115,439,2898332757658,-0.0013,NAN,NAN,0.0510,0.6510,0.3610,0.0000,12.2222,0.0000,-0.0610,-0.1831,-0.0000,-0.1650,-0.2493,-10.6050,0.0237,-0.0186,-0.0041,0.0000,0.0000,0.0000,0.0000,0.0000,0.0000,0.0000,0.0000,0.0000,0.0000,0.0000,0.0000,0.0000,0.0000,1.0000,0.0000,0.0000,0.0000,NAN,NAN,0.0000,0.0000,0.0000,0.0000,0.0000,0.0000,-0.0000,-0.0570,-0.0245,0.0105,0.0000,0.0000,-0.0500,0.0025,0.0025,0.0025,0.0025,4
116,440,2898337231275,-0.0013,NAN,NAN,0.0510,0.6510,0.3610,0.0000,12.2227,0.0000,-0.0610,-0.1831,-0.0000,-0.1339,-0.2517,-10.6240,0.0237,-0.0186,-0.0041,0.0000,0.0000,0.0000,0.0000,0.0000,0.0000,0.0000,0.0000,0.0000,0.0000,0.0000,0.0000,0.0000,0.0000,1.0000,0.0000,0.0000,0.0000,NAN,NAN,0.0000,0.0000,0.0000,0.0000,0.0000,0.0000,-0.0000,-0.0575,-0.0244,0.0104,0.0000,0.0000,-0.0500,0.0025,0.0025,0.0025,0.0025,4
117,441,2898342235072,-0.0013,NAN,NAN,0.0510,0.6510,0.3610,0.0000,12.2227,0.0000,0.0000,0.0000,0.1221,-0.1411,-0.2853,-10.6264,0.0237,-0.0186,-0.0041,0.0000,0.0000,0.0000,0.0000,0.0000,0.0000,0.0000,0.0000,0.0000,0.0000,0.0000,0.0000,0.0000,0.0000,1.0000,0.0000,0.0000,0.0000,NAN,NAN,0.0000,0.0000,0.0000,0.0000,0.0000,0.0000,-0.0000,-0.0580,-0.0244,0.0102,0.0000,0.0000,-0.0500,0.0025,0.0025,0.0025,0.0025,4
118,442,2898347197917,-0.0013,NAN,NAN,0.0510,0.6510,0.3610,0.0000,12.2222,0.0000,0.0000,-0.1221,-0.0000,-0.1769,-0.2685,-10.6431,0.0238,-0.0186,-0.0041,0.0000,0.0000,0.0000,0.0000,0.0000,0.0000,0.0000,0.0000,0.0000,0.0000,0.0000,0.0000,0.0000,0.0000,1.0000,0.0000,0.0000,0.0000,NAN,NAN,0.0000,0.0000,0.0000,0.0000,0.0000,0.0000,-0.0000,-0.0585,-0.0243,0.0101,0.0000,0.0000,-0.0500,0.0025,0.0025,0.0025,0.0025,4
119,443,2898352488467,-0.0013,NAN,NAN,0.0510,0.6510,0.3610,0.0000,12.2220,0.0000,0.0000,-0.1831,-0.0000,-0.1602,-0.2613,-10.5524,0.0238,-0.0186,-0.0041,0.0000,0.0000,0.0000,0.0000,0.0000,0.0000,0.0000,0.0000,0.0000,0.0000,0.0000,0.0000,0.0000,0.0000,1.0000,0.0000,0.0000,0.0000,NAN,NAN,0.0000,0.0000,0.0000,0.0000,0.0000,0.0000,-0.0000,-0.0590,-0.0242,0.0099,0.0000,0.0000,-0.0500,0.0025,0.0025,0.0025,0.0025,4
120,444,2898357417524,-0.0013,NAN,NAN,0.0510,0.6510,0.3610,0.0000,12.2213,0.0000,0.0000,-0.1221,-0.0000,-0.1267,-0.3188,-10.6384,0.0238,-0.0186,-0.0041,0.0000,0.0000,0.0000,0.0000,0.0000,0.0000,0.0000,0.0000,0.0000,0.0000,0.0000,0.0000,0.0000,0.0000,1.0000,0.0000,0.0000,0.0000,NAN,NAN,0.0000,0.0000,0.0000,0.0000,0.0000,0.0000,-0.0000,-0.0595,-0.0241,0.0098,0.0000,0.0000,-0.0500,0.0025,0.0025,0.0025,0.0025,4
121,445,2898362268717,-0.0013,NAN,NAN,0.0510,0.6510,0.3610,0.0000,12.2213,0.0000,-0.2441,-0.0610,-0.0000,-0.1506,-0.3141,-10.5763,0.0238,-0.0186,-0.0041,0.0000,0.0000,0.0000,0.0000,0.0000,0.0000,0.0000,0.0000,0.0000,0.0000,0.0000,0.0000,0.0000,0.0000,1.0000,0.0000,0.0000,0.0000,NAN,NAN,0.0000,0.0000,0.0000,0.0000,0.0000,0.0000,-0.0000,-0.0600,-0.0240,0.0096,0.0000,0.0000,-0.0500,0.0025,0.0025,0.0025,0.0025,4
122,446,2898367339297,-0.0013,NAN,NAN,0.0510,0.6510,0.3610,0.0000,12.2208,0.0000,-0.1831,-0.1831,-0.0000,-0.1435,-0.2637,-10.6097,0.0238,-0.0186,-0.0041,0.0000,0.0000,0.0000,0.0000,0.0000,0.0000,0.0000,0.0000,0.0000,0.0000,0.0000,0.0000,0.0000,0.0000,1.0000,0.0000,0.0000,0.0000,NAN,NAN,0.0000,0.0000,0.0000,0.0000,0.0000,0.0000,-0.0000,-0.0605,-0.0239,0.0094,0.0000,0.0000,-0.0500,0.0025,0.0025,0.0025,0.0025,4
123,447,2898372547567,-0.0013,NAN,NAN,0.0510,0.6510,0.3610,0.0000,12.2205,0.0000,-0.0610,-0.1221,-0.1831,-0.1530,-0.2877,-10.6097,0.0238,-0.0186,-0.0041,0.0000,0.0000,0.0000,0.0000,0.0000,0.0000,0.0000,0.0000,0.0000,0.0000,0.0000,0.0000,0.0000,0.0000,1.0000,0.0000,0.0000,0.0000,NAN,NAN,0.0000,0.0000,0.0000,0.0000,0.0000,0.0000,-0.0000,-0.0610,-0.0238,0.0093,0.0000,0.0000,-0.0500,0.0025,0.0025,0.0025,0.0025,4
124,448,2898377229032,-0.0013,NAN,NAN,0.0510,0.6510,0.3610,0.0000,12.2208,0.0000,-0.1831,-0.1221,-0.0000,-0.1721,-0.2829,-10.6002,0.0238,-0.0186,-0.0041,0.0000,0.0000,0.0000,0.0000,0.0000,0.0000,0.0000,0.0000,0.0000,0.0000,0.0000,0.0000,0.0000,0.0000,1.0000,0.0000,0.0000,0.0000,NAN,NAN,0.0000,0.0000,0.0000,0.0000,0.0000,0.0000,-0.0000,-0.0615,-0.0237,0.0091,0.0000,0.0000,-0.0500,0.0025,0.0025,0.0025,0.0025,4
125,449,2898382199291,-0.0013,NAN,NAN,0.0510,0.6510,0.3610,0.0000,12.2213,0.0000,0.0000,0.0000,-0.0610,-0.1721,-0.2469,-10.6312,0.0238,-0.0186,-0.0041,0.0000,0.0000,0.0000,0.0000,0.0000,0.0000,0.0000,0.0000,0.0000,0.0000,0.0000,0.0000,0.0000,0.0000,1.0000,0.0000,0.0000,0.0000,NAN,NAN,0.0000,0.0000,0.0000,0.0000,0.0000,0.0000,-0.0000,-0.0620,-0.0236,0.0090,0.0000,0.0000,-0.0500,0.0025,0.0025,0.0025,0.0025,4
126,450,2898387687941,-0.0013,NAN,NAN,0.0510,0.6510,0.3610,0.0000,12.2210,0.0000,-0.0610,-0.1831,-0.0610,-0.1602,-0.2637,-10.5835,0.0238,-0.0186,-0.0042,0.0000,0.0000,0.0000,0.0000,0.0000,0.0000,0.0000,0.0000,0.0000,0.0000,0.0000,0.0000,0.0000,0.0000,1.0000,0.0000,0.0000,0.0000,NAN,NAN,0.0000,0.0000,0.0000,0.0000,0.0000,0.0000,-0.0000,-0.0625,-0.0234,0.0088,0.0000,0.0000,-0.0500,0.0025,0.0025,0.0025,0.0025,4
127,451,2898392289166,-0.0013,NAN,NAN,0.0510,0.6510,0.3610,0.0000,12.2210,0.0000,-0.1221,-0.0610,0.1221,-0.1626,-0.2397,-10.5524,0.0238,-0.0186,-0.0041,0.0000,0.0000,0.0000,0.0000,0.0000,0.0000,0.0000,0.0000,0.0000,0.0000,0.0000,0.0000,0.0000,0.0000,1.0000,0.0000,0.0000,0.0000,NAN,NAN,0.0000,0.0000,0.0000,0.0000,0.0000,0.0000,-0.0000,-0.0630,-0.0233,0.0086,0.0000,0.0000,-0.0500,0.0025,0.0025,0.0025,0.0025,4
128,452,2898397174021,-0.0013,NAN,NAN,0.0510,0.6510,0.3610,0.0000,12.2222,0.0000,-0.0610,-0.1221,-0.0000,-0.1315,-0.2445,-10.5835,0.0238,-0.0186,-0.0042,0.0000,0.0000,0.0000,0.0000,0.0000,0.0000,0.0000,0.0000,0.0000,0.0000,0.0000,0.0000,0.0000,0.0000,1.0000,0.0000,0.0000,0.0000,NAN,NAN,0.0000,0.0000,0.0000,0.0000,0.0000,0.0000,-0.0000,-0.0635,-0.0232,0.0085,0.0000,0.0000,-0.0500,0.0025,0.0025,0.0025,0.0025,4
129,453,2898402555018,-0.0013,NAN,NAN,0.0510,0.6510,0.3610,0.0000,12.2225,0.0000,-0.0610,-0.1831,-0.0610,-0.1243,-0.2637,-10.5572,0.0238,-0.0186,-0.0042,0.0000,0.0000,0.0000,0.0000,0.0000,0.0000,0.0000,0.0000,0.0000,0.0000,0.0000,0.0000,0.0000,0.0000,1.0000,0.0000,0.0000,0.0000,NAN,NAN,0.0000,0.0000,0.0000,0.0000,0.0000,0.0000,-0.0000,-0.0640,-0.0230,0.0083,0.0000,0.0000,-0.0500,0.0025,0.0025,0.0025,0.0025,4
130,454,2898407346593,-0.0013,NAN,NAN,0.0510,0.6510,0.3610,0.0000,12.2225,0.0000,-0.1831,-0.2441,-0.0000,-0.1291,-0.2757,-10.6145,0.0238,-0.0186,-0.0042,0.0000,0.0000,0.0000,0.0000,0.0000,0.0000,0.0000,0.0000,0.0000,0.0000,0.0000,0.0000,0.0000,0.0000,1.0000,0.0000,0.0000,0.0000,NAN,NAN,0.0000,0.0000,0.0000,0.0000,0.0000,0.0000,-0.0000,-0.0645,-0.0229,0.0081,0.0000,0.0000,-0.0500,0.0025,0.0025,0.0025,0.0025,4
131,455,2898412348724,-0.0013,NAN,NAN,0.0510,0.6510,0.3610,0.0000,12.2237,0.0000,-0.0610,-0.1831,-0.0610,-0.1267,-0.3069,-10.5548,0.0238,-0.0186,-0.0042,0.0000,0.0000,0.0000,0.0000,0.0000,0.0000,0.0000,0.0000,0.0000,0.0000,0.0000,0.0000,0.0000,0.0000,1.0000,0.0000,0.0000,0.0000,NAN,NAN,0.0000,0.0000,0.0000,0.0000,0.0000,0.0000,-0.0000,-0.0650,-0.0228,0.0080,0.0000,0.0000,-0.0500,0.0025,0.0025,0.0025,0.0025,4
132,456,2898417224163,-0.0013,NAN,NAN,0.0510,0.6510,0.3610,0.0000,12.2239,0.0000,-0.1831,-0.2441,0.1221,-0.1602,-0.2781,-10.5119,0.0238,-0.0186,-0.0042,0.0000,0.0000,0.0000,0.0000,0.0000,0.0000,0.0000,0.0000,0.0000,0.0000,0.0000,0.0000,0.0000,0.0000,1.0000,0.0000,0.0000,0.0000,NAN,NAN,0.0000,0.0000,0.0000,0.0000,0.0000,0.0000,-0.0000,-0.0655,-0.0226,0.0078,0.0000,0.0000,-0.0500,0.0025,0.0025,0.0025,0.0025,4
133,457,2898422515172,-0.0013,NAN,NAN,0.0510,0.6510,0.3610,0.0000,12.2239,0.0000,-0.0610,-0.2441,-0.0610,-0.1315,-0.2541,-10.5954,0.0238,-0.0186,-0.0042,0.0000,0.0000,0.0000,0.0000,0.0000,0.0000,0.0000,0.0000,0.0000,0.0000,0.0000,0.0000,0.0000,0.0000,1.0000,0.0000,0.0000,0.0000,NAN,NAN,0.0000,0.0000,0.0000,0.0000,0.0000,0.0000,-0.0000,-0.0660,-0.0224,0.0076,0.0000,0.0000,-0.0500,0.0025,0.0025,0.0025,0.0025,4
134,458,2898427214843,-0.0013,NAN,NAN,0.0510,0.6510,0.3610,0.0000,12.2242,0.0000,0.0000,0.0000,0.1831,-0.1291,-0.2613,-10.5763,0.0238,-0.0186,-0.0042,0.0000,0.0000,0.0000,0.0000,0.0000,0.0000,0.0000,0.0000,0.0000,0.0000,0.0000,0.0000,0.0000,0.0000,1.0000,0.0000,0.0000,0.0000,NAN,NAN,0.0000,0.0000,0.0000,0.0000,0.0000,0.0000,-0.0000,-0.0665,-0.0223,0.0075,0.0000,0.0000,-0.0500,0.0025,0.0025,0.0025,0.0025,4
135,459,2898432252761,-0.0013,NAN,NAN,0.0510,0.6510,0.3610,0.0000,12.2246,0.0000,0.0000,0.0000,-0.0000,-0.1482,-0.2685,-10.5477,0.0238,-0.0186,-0.0042,0.0000,0.0000,0.0000,0.0000,0.0000,0.0000,0.0000,0.0000,0.0000,0.0000,0.0000,0.0000,0.0000,0.0000,1.0000,0.0000,0.0000,0.0000,NAN,NAN,0.0000,0.0000,0.0000,0.0000,0.0000,0.0000,-0.0000,-0.0670,-0.0221,0.0073,0.0000,0.0000,-0.0500,0.0025,0.0025,0.0025,0.0025,4
136,460,2898437531021,-0.0013,NAN,NAN,0.0510,0.6510,0.3610,0.0000,12.2246,0.0000,-0.0610,-0.1831,-0.0000,-0.1411,-0.2901,-10.6050,0.0238,-0.0186,-0.0042,0.0000,0.0000,0.0000,0.0000,0.0000,0.0000,0.0000,0.0000,0.0000,0.0000,0.0000,0.0000,0.0000,0.0000,1.0000,0.0000,0.0000,0.0000,NAN,NAN,0.0000,0.0000,0.0000,0.0000,0.0000,0.0000,-0.0000,-0.0675,-0.0219,0.0071,0.0000,0.0000,-0.0500,0.0025,0.0025,0.0025,0.0025,4
137,461,2898442143829,-0.0013,NAN,NAN,0.0510,0.6510,0.3610,0.0000,12.2246,0.0000,-0.1831,-0.1831,-0.0000,-0.1339,-0.2565,-10.5835,0.0238,-0.0186,-0.0042,0.0000,0.0000,0.0000,0.0000,0.0000,0.0000,0.0000,0.0000,0.0000,0.0000,0.0000,0.0000,0.0000,0.0000,1.0000,0.0000,0.0000,0.0000,NAN,NAN,0.0000,0.0000,0.0000,0.0000,0.0000,0.0000,-0.0000,-0.0680,-0.0218,0.0070,0.0000,0.0000,-0.0500,0.0025,0.0025,0.0025,0.0025,4
138,462,2898447171498,-0.0013,NAN,NAN,0.0510,0.6510,0.3610,0.0000,12.2251,0.0000,-0.0610,-0.2441,0.1831,-0.1339,-0.2637,-10.5429,0.0238,-0.0186,-0.0042,0.0000,0.0000,0.0000,0.0000,0.0000,0.0000,0.0000,0.0000,0.0000,0.0000,0.0000,0.0000,0.0000,0.0000,1.0000,0.0000,0.0000,0.0000,NAN,NAN,0.0000,0.0000,0.0000,0.0000,0.0000,0.0000,-0.0000,-0.0685,-0.0216,0.0068,0.0000,0.0000,-0.0500,0.0025,0.0025,0.0025,0.0025,4
139,463,2898452206999,-0.0013,NAN,NAN,0.0510,0.6510,0.3610,0.0000,12.2251,0.0000,-0.1831,-0.1221,-0.0000,-0.1626,-0.2397,-10.5286,0.0238,-0.0186,-0.0042,0.0000,0.0000,0.0000,0.0000,0.0000,0.0000,0.0000,0.0000,0.0000,0.0000,0.0000,0.0000,0.0000,0.0000,1.0000,0.0000,0.0000,0.0000,NAN,NAN,0.0000,0.0000,0.0000,0.0000,0.0000,0.0000,-0.0000,-0.0690,-0.0214,0.0066,0.0000,0.0000,-0.0500,0.0025,0.0025,0.0025,0.0025,4
140,464,2898457828298,-0.0013,NAN,NAN,0.0510,0.6510,0.3610,0.0000,12.2258,0.0000,0.0000,0.0000,-0.0000,-0.1315,-0.2661,-10.6670,0.0238,-0.0186,-0.0042,0.0000,0.0000,0.0000,0.0000,0.0000,0.0000,0.0000,0.0000,0.0000,0.0000,0.0000,0.0000,0.0000,0.0000,1.0000,0.0000,0.0000,0.0000,NAN,NAN,0.0000,0.0000,0.0000,0.0000,0.0000,0.0000,-0.0000,-0.0695,-0.0212,0.0065,0.0000,0.0000,-0.0500,0.0025,0.0025,0.0025,0.0025,4
141,465,2898462263878,-0.0013,NAN,NAN,0.0510,0.6510,0.3610,0.0000,12.2266,0.0000,-0.3052,-0.0610,-0.0610,-0.1435,-0.2182,-10.6193,0.0238,-0.0186,-0.0042,0.0000,0.0000,0.0000,0.0000,0.0000,0.0000,0.0000,0.0000,0.0000,0.0000,0.0000,0.0000,0.0000,0.0000,1.0000,0.0000,0.0000,0.0000,NAN,NAN,0.0000,0.0000,0.0000,0.0000,0.0000,0.0000,-0.0000,-0.0700,-0.0210,0.0063,0.0000,0.0000,-0.0500,0.0025,0.0025,0.0025,0.0025,4
142,466,2898467160189,-0.0013,NAN,NAN,0.0510,0.6510,0.3610,0.0000,12.2268,0.0000,-0.1831,-0.1831,-0.0000,-0.1745,-0.2757,-10.5930,0.0238,-0.0186,-0.0042,0.0000,0.0000,0.0000,0.0000,0.0000,0.0000,0.0000,0.0000,0.0000,0.0000,0.0000,0.0000,0.0000,0.0000,1.0000,0.0000,0.0000,0.0000,NAN,NAN,0.0000,0.0000,0.0000,0.0000,0.0000,0.0000,-0.0000,-0.0705,-0.0208,0.0061,0.0000,0.0000,-0.0500,0.0025,0.0025,0.0025,0.0025,4
143,467,2898472644465,-0.0013,NAN,NAN,0.0510,0.6510,0.3610,0.0000,12.2271,0.0000,-0.1831,-0.1221,0.1831,-0.1506,-0.2589,-10.6193,0.0238,-0.0186,-0.0042,0.0000,0.0000,0.0000,0.0000,0.0000,0.0000,0.0000,0.0000,0.0000,0.0000,0.0000,0.0000,0.0000,0.0000,1.0000,0.0000,0.0000,0.0000,NAN,NAN,0.0000,0.0000,0.0000,0.0000,0.0000,0.0000,-0.0000,-0.0710,-0.0206,0.0060,0.0000,0.0000,-0.0500,0.0025,0.0025,0.0025,0.0025,4
144,468,2898477429208,-0.0013,NAN,NAN,0.0510,0.6510,0.3610,0.0000,12.2268,0.0000,-0.1831,-0.1831,-0.0000,-0.1458,-0.2397,-10.5978,0.0237,-0.0186,-0.0042,0.0000,0.0000,0.0000,0.0000,0.0000,0.0000,0.0000,0.0000,0.0000,0.0000,0.0000,0.0000,0.0000,0.0000,1.0000,0.0000,0.0000,0.0000,NAN,NAN,0.0000,0.0000,0.0000,0.0000,0.0000,0.0000,-0.0000,-0.0715,-0.0204,0.0058,0.0000,0.0000,-0.0500,0.0025,0.0025,0.0025,0.0025,4
