loop_index, counter, last_step_ns, T_ref, theta_ref, phi_ref, uwind, vwind, wwind, rho, rpm1, rpm2, rpm3, rpm4,v_batt,alt,gyro_roll,gyro_pitch,gyro_yaw,accel_X,accel_Y,accel_Z,roll,pitch,yaw,X,Y,Z,Xdot,Ydot,Zdot,x0,y0,z0,e.xbee_time,xbee_time_received_ns,xbee_x,xbee_y,xbee_z,xbee_qw,xbee_qx,xbee_qy,xbee_qz,sp_roll,sp_pitch,sp_yaw,sp_X,sp_Y,sp_Z,sp_Xdot,sp_Ydot,sp_Zdot,u_roll,u_pitch,u_yaw,u_X,u_Y,u_Z,mot_1,mot_2,mot_3,mot_4,flight_mode
1,66,3039182915403,-10.4405,-0.2013,0.0039,0.0010,0.0510,0.0210,1.1670,6528.1709,7193.1919,6528.1709,5686.3105,11.8356,0.0000,-1.4038,-3.9673,-1.2207,7.8351,0.7408,-37.8298,0.0188,-0.0162,-0.0035,0.0000,0.0000,0.0000,0.0000,0.0000,0.0000,0.0000,0.0000,-2.5800,0.0000,0.0000,0.0000,0.0000,-2.5800,1.0000,0.0000,0.0000,0.0000,-0.2013,0.0039,0.0000,0.0000,0.0000,-2.5800,0.0000,0.0000,0.0029,-0.0000,0.0000,0.0000,0.0000,0.0000,-0.5694,0.6788,0.7570,0.6788,0.5971,4
2,67,3039242013700,-10.4405,-0.2013,0.0039,0.0010,0.0510,0.0210,1.1670,6528.1709,7193.1919,6528.1709,5686.3105,11.8504,0.0000,2.2583,-1.7700,0.3662,-6.4412,-19.0876,31.6335,0.0252,-0.0156,-0.0035,0.0000,0.0000,0.0000,0.0000,0.0000,0.0000,0.0000,0.0000,-2.5800,0.0000,0.0000,0.0000,0.0000,-2.5800,1.0000,0.0000,0.0000,0.0000,-0.2013,0.0039,0.0000,0.0000,0.0000,-2.5800,0.0000,0.0000,-0.0000,-0.0020,-0.0019,0.0019,0.0000,0.0000,-0.5694,0.6788,0.7570,0.6788,0.5971,4
3,68,3039246467720,-10.4405,-0.2013,0.0039,0.0010,0.0510,0.0210,1.1670,6528.1709,7193.1919,6528.1709,5686.3105,11.8644,0.0000,3.4180,-2.1362,-0.2441,-5.9798,-18.1143,23.7663,0.0274,-0.0164,-0.0036,0.0000,0.0000,0.0000,0.0000,0.0000,0.0000,0.0000,0.0000,-2.5800,0.0000,0.0000,0.0000,0.0000,-2.5800,1.0000,0.0000,0.0000,0.0000,-0.2013,0.0039,0.0000,0.0000,0.0000,-2.5800,0.0000,0.0000,-0.0000,-0.0040,0.0040,0.0037,0.0000,0.0000,-0.5694,0.6788,0.7570,0.6788,0.5971,4
4,69,3039251151465,-10.4405,-0.2013,0.0039,0.0010,0.0510,0.0210,1.1670,6528.1709,7193.1919,6528.1709,5686.3105,11.8784,0.0000,2.9907,-0.6714,-0.1831,-5.4322,-11.2435,8.5164,0.0295,-0.0171,-0.0037,0.0000,0.0000,0.0000,0.0000,0.0000,0.0000,0.0000,0.0000,-2.5800,0.0000,0.0000,0.0000,0.0000,-2.5800,1.0000,0.0000,0.0000,0.0000,-0.2013,0.0039,0.0000,0.0000,0.0000,-2.5800,0.0000,0.0000,-0.0000,-0.0060,0.0060,0.0051,0.0000,0.0000,-0.5694,0.6788,0.7570,0.6788,0.5971,4
5,70,3039256064561,-10.4405,-0.2013,0.0039,0.0010,0.0510,0.0210,1.1670,6528.1709,7193.1919,6528.1709,5686.3105,11.8915,0.0000,2.0752,-0.2441,0.5493,-2.5368,-6.2978,-3.5589,0.0308,-0.0177,-0.0036,0.0000,0.0000,0.0000,0.0000,0.0000,0.0000,0.0000,0.0000,-2.5800,0.0000,0.0000,0.0000,0.0000,-2.5800,1.0000,0.0000,0.0000,0.0000,-0.2013,0.0039,0.0000,0.0000,0.0000,-2.5800,0.0000,0.0000,0.0029,-0.0080,0.0080,0.0057,0.0000,0.0000,-0.5694,0.6788,0.7570,0.6788,0.5971,4
6,71,3039260919287,-10.4405,-0.2013,0.0039,0.0010,0.0510,0.0210,1.1670,6528.1709,7193.1919,6528.1709,5686.3105,11.9065,0.0000,1.4038,-0.4883,-0.4272,-3.1393,1.4480,-12.9656,0.0315,-0.0180,-0.0037,0.0000,0.0000,0.0000,0.0000,0.0000,0.0000,0.0000,0.0000,-2.5800,0.0000,0.0000,0.0000,0.0000,-2.5800,1.0000,0.0000,0.0000,0.0000,-0.2013,0.0039,0.0000,0.0000,0.0000,-2.5800,0.0000,0.0000,0.0029,-0.0100,0.0091,0.0069,0.0000,0.0000,-0.5694,0.6788,0.7570,0.6788,0.5971,4
7,72,3039266300416,-10.4405,-0.2013,0.0039,0.0010,0.0510,0.0210,1.1670,6528.1709,7193.1919,6528.1709,5686.3105,11.9191,0.0000,-0.3052,0.4883,0.7935,-3.3617,5.6457,-17.2071,0.0313,-0.0182,-0.0036,0.0000,0.0000,0.0000,0.0000,0.0000,0.0000,0.0000,0.0000,-2.5800,0.0000,0.0000,0.0000,0.0000,-2.5800,1.0000,0.0000,0.0000,0.0000,-0.2013,0.0039,0.0000,0.0000,0.0000,-2.5800,0.0000,0.0000,0.0029,-0.0120,0.0096,0.0068,0.0000,0.0000,-0.5694,0.6788,0.7570,0.6788,0.5971,4
8,73,3039270935708,-10.4405,-0.2013,0.0039,0.0010,0.0510,0.0210,1.1670,6528.1709,7193.1919,6528.1709,5686.3105,11.9321,0.0000,-0.7935,1.0376,-0.1221,-2.9887,11.0541,-21.0548,0.0306,-0.0184,-0.0036,0.0000,0.0000,0.0000,0.0000,0.0000,0.0000,0.0000,0.0000,-2.5800,0.0000,0.0000,0.0000,0.0000,-2.5800,1.0000,0.0000,0.0000,0.0000,-0.2013,0.0039,0.0000,0.0000,0.0000,-2.5800,0.0000,0.0000,0.0029,-0.0140,0.0097,0.0074,0.0000,0.0000,-0.5694,0.6788,0.7570,0.6788,0.5971,4
9,74,3039275967499,-10.4405,-0.2013,0.0039,0.0010,0.0510,0.0210,1.1670,6528.1709,7193.1919,6528.1709,5686.3105,11.9432,0.0000,-1.7700,-1.4038,-0.2441,-0.4710,13.7847,-25.6806,0.0294,-0.0187,-0.0036,0.0000,0.0000,0.0000,0.0000,0.0000,0.0000,0.0000,0.0000,-2.5800,0.0000,0.0000,0.0000,0.0000,-2.5800,1.0000,0.0000,0.0000,0.0000,-0.2013,0.0039,0.0000,0.0000,0.0000,-2.5800,0.0000,0.0000,0.0029,-0.0160,0.0108,0.0079,0.0000,0.0000,-0.5694,0.6788,0.7570,0.6788,0.5971,4
10,75,3039281274135,-10.4405,-0.2013,0.0039,0.0010,0.0510,0.0210,1.1670,6528.1709,7193.1919,6528.1709,5686.3105,11.9534,0.0000,-2.1973,-0.7935,0.3662,-1.0927,15.4029,-30.5498,0.0278,-0.0188,-0.0036,0.0000,0.0000,0.0000,0.0000,0.0000,0.0000,0.0000,0.0000,-2.5800,0.0000,0.0000,0.0000,0.0000,-2.5800,1.0000,0.0000,0.0000,0.0000,-0.2013,0.0039,0.0000,0.0000,0.0000,-2.5800,0.0000,0.0000,0.0029,-0.0180,0.0098,0.0078,0.0000,0.0000,-0.5694,0.6788,0.7570,0.6788,0.5971,4
11,76,3039285888971,-10.4405,-0.2013,0.0039,0.0010,0.0510,0.0210,1.1670,6528.1709,7193.1919,6528.1709,5686.3105,11.9643,0.0000,-1.1597,-0.9155,-1.6479,2.0682,13.5449,-38.9612,0.0261,-0.0189,-0.0037,0.0000,0.0000,0.0000,0.0000,0.0000,0.0000,0.0000,0.0000,-2.5800,0.0000,0.0000,0.0000,0.0000,-2.5800,1.0000,0.0000,0.0000,0.0000,-0.2013,0.0039,0.0000,0.0000,0.0000,-2.5800,0.0000,0.0000,0.0029,-0.0200,0.0095,0.0092,0.0000,0.0000,-0.5694,0.6788,0.7570,0.6788,0.5971,4
12,77,3039290865477,-10.4405,-0.2013,0.0039,0.0010,0.0510,0.0210,1.1670,6528.1709,7193.1919,6528.1709,5686.3105,11.9749,0.0000,-1.7700,-0.9766,0.7935,5.3103,9.0068,-45.5777,0.0246,-0.0187,-0.0036,0.0000,0.0000,0.0000,0.0000,0.0000,0.0000,0.0000,0.0000,-2.5800,0.0000,0.0000,0.0000,0.0000,-2.5800,1.0000,0.0000,0.0000,0.0000,-0.2013,0.0039,0.0000,0.0000,0.0000,-2.5800,0.0000,0.0000,0.0029,-0.0220,0.0073,0.0086,0.0000,0.0000,-0.5694,0.6788,0.7570,0.6788,0.5971,4
13,78,3039295981384,-10.4405,-0.2013,0.0039,0.0010,0.0510,0.0210,1.1670,6528.1709,7193.1919,6528.1709,5686.3105,11.9838,0.0000,-1.0986,-0.3052,-1.3428,7.8064,3.5672,-50.5257,0.0235,-0.0182,-0.0037,0.0000,0.0000,0.0000,0.0000,0.0000,0.0000,0.0000,0.0000,-2.5800,0.0000,0.0000,0.0000,0.0000,-2.5800,1.0000,0.0000,0.0000,0.0000,-0.2013,0.0039,0.0000,0.0000,0.0000,-2.5800,0.0000,0.0000,0.0029,-0.0240,0.0035,0.0097,0.0000,0.0000,-0.5694,0.6788,0.7570,0.6788,0.5971,4
14,79,3039301602694,-10.4405,-0.2013,0.0039,0.0010,0.0510,0.0210,1.1670,6528.1709,7193.1919,6528.1709,5686.3105,11.9940,0.0000,-0.5493,-0.6104,0.5493,8.5381,-3.9436,-51.4399,0.0230,-0.0174,-0.0037,0.0000,0.0000,0.0000,0.0000,0.0000,0.0000,0.0000,0.0000,-2.5800,0.0000,0.0000,0.0000,0.0000,-2.5800,1.0000,0.0000,0.0000,0.0000,-0.2013,0.0039,0.0000,0.0000,0.0000,-2.5800,0.0000,0.0000,0.0029,-0.0260,-0.0005,0.0094,0.0000,0.0000,-0.5694,0.6788,0.7570,0.6788,0.5971,4
15,80,3039305986139,-10.4405,-0.2013,0.0039,0.0010,0.0510,0.0210,1.1670,6528.1709,7193.1919,6528.1709,5686.3105,12.0017,0.0000,0.1221,1.7700,-0.0000,11.6917,-8.5801,-44.8759,0.0233,-0.0163,-0.0037,0.0000,0.0000,0.0000,0.0000,0.0000,0.0000,0.0000,0.0000,-2.5800,0.0000,0.0000,0.0000,0.0000,-2.5800,1.0000,0.0000,0.0000,0.0000,-0.2013,0.0039,0.0000,0.0000,0.0000,-2.5800,0.0000,0.0000,0.0029,-0.0280,-0.0050,0.0095,0.0000,0.0000,-0.5694,0.6788,0.7570,0.6788,0.5971,4
16,81,3039310891193,-10.4405,-0.2013,0.0039,0.0010,0.0510,0.0210,1.1670,6528.1709,7193.1919,6528.1709,5686.3105,12.0095,0.0000,0.3662,1.4648,0.9155,8.7389,-13.1350,-30.9938,0.0241,-0.0150,-0.0036,0.0000,0.0000,0.0000,0.0000,0.0000,0.0000,0.0000,0.0000,-2.5800,0.0000,0.0000,0.0000,0.0000,-2.5800,1.0000,0.0000,0.0000,0.0000,-0.2013,0.0039,0.0000,0.0000,0.0000,-2.5800,0.0000,0.0000,0.0029,-0.0300,-0.0098,0.0091,0.0000,0.0000,-0.5694,0.6788,0.7570,0.6788,0.5971,4
17,82,3039316398267,-10.4405,-0.2013,0.0039,0.0010,0.0510,0.0210,1.1670,6528.1709,7193.1919,6528.1709,5686.3105,12.0189,0.0000,0.6714,2.3193,-0.0610,5.4322,-13.8326,-8.1584,0.0253,-0.0139,-0.0036,0.0000,0.0000,0.0000,0.0000,0.0000,0.0000,0.0000,0.0000,-2.5800,0.0000,0.0000,0.0000,0.0000,-2.5800,1.0000,0.0000,0.0000,0.0000,-0.2013,0.0039,0.0000,0.0000,0.0000,-2.5800,0.0000,0.0000,0.0029,-0.0320,-0.0117,0.0094,0.0000,0.0000,-0.5694,0.6788,0.7570,0.6788,0.5971,4
18,83,3039321292781,-10.4405,-0.2013,0.0039,0.0010,0.0510,0.0210,1.1670,6528.1709,7193.1919,6528.1709,5686.3105,12.0259,0.0000,1.1597,1.5259,1.3428,-1.7980,-13.5090,16.9374,0.0268,-0.0132,-0.0035,0.0000,0.0000,0.0000,0.0000,0.0000,0.0000,0.0000,0.0000,-2.5800,0.0000,0.0000,0.0000,0.0000,-2.5800,1.0000,0.0000,0.0000,0.0000,-0.2013,0.0039,0.0000,0.0000,0.0000,-2.5800,0.0000,0.0000,0.0029,-0.0340,-0.0106,0.0087,0.0000,0.0000,-0.5694,0.6788,0.7570,0.6788,0.5971,4
19,84,3039326056601,-10.4405,-0.2013,0.0039,0.0310,0.0610,0.0210,1.1670,6528.1709,7193.1919,6528.1709,5686.3105,12.0327,0.0000,1.5869,1.6479,-0.8545,-5.6116,-11.4089,39.6176,0.0282,-0.0132,-0.0036,0.0000,0.0000,0.0000,0.0000,0.0000,0.0000,0.0000,0.0000,-2.5800,0.0000,0.0000,0.0000,0.0000,-2.5800,1.0000,0.0000,0.0000,0.0000,-0.2013,0.0039,0.0000,0.0000,0.0000,-2.5800,0.0000,0.0000,0.0029,-0.0360,-0.0055,0.0096,0.0000,0.0000,-0.5694,0.6788,0.7570,0.6788,0.5971,4
20,85,3039348911471,-10.4665,-0.1686,0.0851,0.0310,0.0610,0.0210,1.1670,6597.2109,6596.6685,6446.5435,6358.7549,12.0397,0.0000,0.8545,1.3428,0.5493,-11.9380,-5.3437,55.1037,0.0295,-0.0137,-0.0036,0.0000,0.0000,0.0000,0.0000,0.0000,0.0000,0.0000,0.0000,-2.5800,0.0000,0.0000,0.0000,0.0000,-2.5800,1.0000,0.0000,0.0000,0.0000,-0.1686,0.0851,0.0000,0.0000,0.0000,-2.5800,0.0000,0.0000,0.0029,0.0380,0.0380,0.0094,0.0000,0.0000,-0.5703,0.6855,0.6854,0.6709,0.6625,4
21,86,3039351966558,-10.4665,-0.1686,0.0851,0.0310,0.0610,0.0210,1.1670,6597.2109,6596.6685,6446.5435,6358.7549,12.0419,0.0000,2.0142,-1.6479,-1.3428,-15.6201,15.9327,35.1135,0.0303,-0.0186,-0.0038,0.0000,0.0000,0.0000,0.0000,0.0000,0.0000,0.0000,0.0000,-2.5800,0.0000,0.0000,0.0000,0.0000,-2.5800,1.0000,0.0000,0.0000,0.0000,-0.1686,0.0851,0.0000,0.0000,0.0000,-2.5800,0.0000,0.0000,-0.0000,0.0042,0.0400,0.0115,0.0000,0.0000,-0.5703,0.6855,0.6854,0.6709,0.6625,4
22,87,3039356747293,-10.4665,-0.1686,0.0851,0.0310,0.0610,0.0210,1.1670,6597.2109,6596.6685,6446.5435,6358.7549,12.0428,0.0000,0.1221,-1.6479,-0.8545,-4.8417,19.7588,-21.0977,0.0272,-0.0216,-0.0038,0.0000,0.0000,0.0000,0.0000,0.0000,0.0000,0.0000,0.0000,-2.5800,0.0000,0.0000,0.0000,0.0000,-2.5800,1.0000,0.0000,0.0000,0.0000,-0.1686,0.0851,0.0000,0.0000,0.0000,-2.5800,0.0000,0.0000,-0.0000,0.0043,0.0420,0.0113,0.0000,0.0000,-0.5703,0.6855,0.6854,0.6709,0.6625,4
23,88,3039360949840,-10.4665,-0.1686,0.0851,0.0310,0.0610,0.0210,1.1670,6597.2109,6596.6685,6446.5435,6358.7549,12.0445,0.0000,-1.9531,-2.6245,1.5869,3.3473,15.1392,-42.4150,0.0251,-0.0223,-0.0036,0.0000,0.0000,0.0000,0.0000,0.0000,0.0000,0.0000,0.0000,-2.5800,0.0000,0.0000,0.0000,0.0000,-2.5800,1.0000,0.0000,0.0000,0.0000,-0.1686,0.0851,0.0000,0.0000,0.0000,-2.5800,0.0000,0.0000,-0.0000,-0.0012,0.0420,0.0097,0.0000,0.0000,-0.5703,0.6855,0.6854,0.6709,0.6625,4
24,89,3039379003519,-10.4665,-0.1686,0.0851,0.0310,0.0610,0.0210,1.1670,6644.7007,6365.6797,6414.9858,6599.3926,12.0462,0.0000,-2.4414,0.8545,-0.2441,6.2212,10.4572,-54.2158,0.0233,-0.0218,-0.0036,0.0000,0.0000,0.0000,0.0000,0.0000,0.0000,0.0000,0.0000,-2.5800,0.0000,0.0000,0.0000,0.0000,-2.5800,1.0000,0.0000,0.0000,0.0000,-0.1686,0.0851,0.0000,0.0000,0.0000,-2.5800,0.0000,0.0000,-0.0000,-0.0069,0.0351,0.0097,0.0000,0.0000,-0.5703,0.6900,0.6631,0.6679,0.6857,4
25,90,3039381298855,-10.4665,-0.1686,0.0851,0.0310,0.0610,0.0210,1.1670,6644.7007,6365.6797,6414.9858,6599.3926,12.0472,0.0000,-3.6011,-0.1221,0.9766,10.3504,-5.1399,-52.1225,0.0213,-0.0198,-0.0035,0.0000,0.0000,0.0000,0.0000,0.0000,0.0000,0.0000,0.0000,-2.5800,0.0000,0.0000,0.0000,0.0000,-2.5800,1.0000,0.0000,0.0000,0.0000,-0.1686,0.0851,0.0000,0.0000,0.0000,-2.5800,0.0000,0.0000,0.0029,-0.0090,0.0217,0.0082,0.0000,0.0000,-0.5703,0.6900,0.6631,0.6679,0.6857,4
26,91,3039383239688,-10.4665,-0.1686,0.0851,0.0310,0.0610,0.0210,1.1670,6644.7007,6365.6797,6414.9858,6599.3926,12.0474,0.0000,-2.1973,1.9531,0.6104,11.6487,-13.7559,-39.4959,0.0215,-0.0186,-0.0034,0.0000,0.0000,0.0000,0.0000,0.0000,0.0000,0.0000,0.0000,-2.5800,0.0000,0.0000,0.0000,0.0000,-2.5800,1.0000,0.0000,0.0000,0.0000,-0.1686,0.0851,0.0000,0.0000,0.0000,-2.5800,0.0000,0.0000,0.0029,-0.0239,0.0163,0.0081,0.0000,0.0000,-0.5703,0.6900,0.6631,0.6679,0.6857,4
27,92,3039386053926,-10.4665,-0.1686,0.0851,0.0310,0.0610,0.0210,1.1670,6644.7007,6365.6797,6414.9858,6599.3926,12.0482,0.0000,-1.7090,0.9766,-0.0000,9.4681,-16.1964,-24.2962,0.0226,-0.0173,-0.0034,0.0000,0.0000,0.0000,0.0000,0.0000,0.0000,0.0000,0.0000,-2.5800,0.0000,0.0000,0.0000,0.0000,-2.5800,1.0000,0.0000,0.0000,0.0000,-0.1686,0.0851,0.0000,0.0000,0.0000,-2.5800,0.0000,0.0000,0.0029,-0.0395,0.0123,0.0085,0.0000,0.0000,-0.5703,0.6900,0.6631,0.6679,0.6857,4
28,93,3039390914611,-10.4665,-0.1686,0.0851,0.0310,0.0610,0.0210,1.1670,6644.7007,6365.6797,6414.9858,6599.3926,12.0477,0.0000,0.5493,0.0000,-0.2441,4.7269,-21.0318,-11.8605,0.0241,-0.0163,-0.0035,0.0000,0.0000,0.0000,0.0000,0.0000,0.0000,0.0000,0.0000,-2.5800,0.0000,0.0000,0.0000,0.0000,-2.5800,1.0000,0.0000,0.0000,0.0000,-0.1686,0.0851,0.0000,0.0000,0.0000,-2.5800,0.0000,0.0000,0.0029,-0.0532,0.0115,0.0091,0.0000,0.0000,-0.5703,0.6900,0.6631,0.6679,0.6857,4
29,94,3039396385771,-10.4665,-0.1686,0.0851,0.0310,0.0610,0.0210,1.1670,6644.7007,6365.6797,6414.9858,6599.3926,12.0494,0.0000,1.0986,0.0000,-0.6714,-0.3802,-20.9024,-7.2561,0.0262,-0.0158,-0.0036,0.0000,0.0000,0.0000,0.0000,0.0000,0.0000,0.0000,0.0000,-2.5800,0.0000,0.0000,0.0000,0.0000,-2.5800,1.0000,0.0000,0.0000,0.0000,-0.1686,0.0851,0.0000,0.0000,0.0000,-2.5800,0.0000,0.0000,0.0029,-0.0560,0.0138,0.0100,0.0000,0.0000,-0.5703,0.6900,0.6631,0.6679,0.6857,4
30,95,3039401690199,-10.4665,-0.1686,0.0851,0.0310,0.0610,0.0210,1.1670,6644.7007,6365.6797,6414.9858,6599.3926,12.0508,0.0000,2.1973,-0.4883,-1.4038,-1.9630,-18.4523,-6.0054,0.0284,-0.0159,-0.0037,0.0000,0.0000,0.0000,0.0000,0.0000,0.0000,0.0000,0.0000,-2.5800,0.0000,0.0000,0.0000,0.0000,-2.5800,1.0000,0.0000,0.0000,0.0000,-0.1686,0.0851,0.0000,0.0000,0.0000,-2.5800,0.0000,0.0000,0.0029,-0.0580,0.0186,0.0113,0.0000,0.0000,-0.5703,0.6900,0.6631,0.6679,0.6857,4
31,96,3039406065519,-10.4665,-0.1686,0.0851,0.0310,0.0610,0.0210,1.1670,6644.7007,6365.6797,6414.9858,6599.3926,12.0511,0.0000,2.6855,-1.8311,0.3662,-1.8960,-13.5857,-6.8050,0.0304,-0.0162,-0.0037,0.0000,0.0000,0.0000,0.0000,0.0000,0.0000,0.0000,0.0000,-2.5800,0.0000,0.0000,0.0000,0.0000,-2.5800,1.0000,0.0000,0.0000,0.0000,-0.1686,0.0851,0.0000,0.0000,0.0000,-2.5800,0.0000,0.0000,0.0029,-0.0600,0.0236,0.0112,0.0000,0.0000,-0.5703,0.6900,0.6631,0.6679,0.6857,4
32,97,3039410940577,-10.4665,-0.1686,0.0851,0.0310,0.0610,0.0210,1.1670,6644.7007,6365.6797,6414.9858,6599.3926,12.0511,0.0000,1.9531,-0.7935,-1.4648,-1.1429,-7.0578,-9.4115,0.0319,-0.0165,-0.0039,0.0000,0.0000,0.0000,0.0000,0.0000,0.0000,0.0000,0.0000,-2.5800,0.0000,0.0000,0.0000,0.0000,-2.5800,1.0000,0.0000,0.0000,0.0000,-0.1686,0.0851,0.0000,0.0000,0.0000,-2.5800,0.0000,0.0000,0.0029,-0.0620,0.0264,0.0124,0.0000,0.0000,-0.5703,0.6900,0.6631,0.6679,0.6857,4
33,98,3039415886253,-10.4665,-0.1686,0.0851,0.0310,0.0610,0.0210,1.1670,6644.7007,6365.6797,6414.9858,6599.3926,12.0511,0.0000,2.0142,0.0000,0.6714,0.0669,-0.3380,-12.4596,0.0327,-0.0166,-0.0039,0.0000,0.0000,0.0000,0.0000,0.0000,0.0000,0.0000,0.0000,-2.5800,0.0000,0.0000,0.0000,0.0000,-2.5800,1.0000,0.0000,0.0000,0.0000,-0.1686,0.0851,0.0000,0.0000,0.0000,-2.5800,0.0000,0.0000,0.0029,-0.0640,0.0275,0.0118,0.0000,0.0000,-0.5703,0.6900,0.6631,0.6679,0.6857,4
34,99,3039421221136,-10.4665,-0.1686,0.0851,0.0310,0.0610,0.0210,1.1670,6644.7007,6365.6797,6414.9858,6599.3926,12.0508,0.0000,1.1597,1.2207,-0.0000,-1.8793,5.6265,-12.7675,0.0328,-0.0164,-0.0039,0.0000,0.0000,0.0000,0.0000,0.0000,0.0000,0.0000,0.0000,-2.5800,0.0000,0.0000,0.0000,0.0000,-2.5800,1.0000,0.0000,0.0000,0.0000,-0.1686,0.0851,0.0000,0.0000,0.0000,-2.5800,0.0000,0.0000,0.0029,-0.0620,0.0269,0.0116,0.0000,0.0000,-0.5703,0.6900,0.6631,0.6679,0.6857,4
35,100,3039425880467,-10.4665,-0.1686,0.0851,0.0310,0.0610,0.0210,1.1670,6644.7007,6365.6797,6414.9858,6599.3926,12.0520,0.0000,0.6714,2.0142,0.4883,-4.8082,10.8863,-11.7960,0.0323,-0.0164,-0.0038,0.0000,0.0000,0.0000,0.0000,0.0000,0.0000,0.0000,0.0000,-2.5800,0.0000,0.0000,0.0000,0.0000,-2.5800,1.0000,0.0000,0.0000,0.0000,-0.1686,0.0851,0.0000,0.0000,0.0000,-2.5800,0.0000,0.0000,0.0029,-0.0568,0.0272,0.0110,0.0000,0.0000,-0.5703,0.6900,0.6631,0.6679,0.6857,4
36,101,3039430992541,-10.4665,-0.1686,0.0851,0.0310,0.0610,0.0210,1.1670,6644.7007,6365.6797,6414.9858,6599.3926,12.0532,0.0000,-0.1221,2.0142,0.1831,-8.7007,16.0933,-8.1083,0.0312,-0.0167,-0.0038,0.0000,0.0000,0.0000,0.0000,0.0000,0.0000,0.0000,0.0000,-2.5800,0.0000,0.0000,0.0000,0.0000,-2.5800,1.0000,0.0000,0.0000,0.0000,-0.1686,0.0851,0.0000,0.0000,0.0000,-2.5800,0.0000,0.0000,0.0029,-0.0498,0.0290,0.0106,0.0000,0.0000,-0.5703,0.6900,0.6631,0.6679,0.6857,4
37,102,3039436276847,-10.4665,-0.1686,0.0851,0.0310,0.0610,0.0210,1.1670,6644.7007,6365.6797,6414.9858,6599.3926,12.0513,0.0000,-0.8545,0.3662,0.2441,-12.0791,18.6273,-2.9836,0.0296,-0.0175,-0.0037,0.0000,0.0000,0.0000,0.0000,0.0000,0.0000,0.0000,0.0000,-2.5800,0.0000,0.0000,0.0000,0.0000,-2.5800,1.0000,0.0000,0.0000,0.0000,-0.1686,0.0851,0.0000,0.0000,0.0000,-2.5800,0.0000,0.0000,0.0029,-0.0415,0.0335,0.0102,0.0000,0.0000,-0.5703,0.6900,0.6631,0.6679,0.6857,4
38,103,3039440867144,-10.4665,-0.1686,0.0851,0.0310,0.0610,0.0210,1.1670,6644.7007,6365.6797,6414.9858,6599.3926,12.0527,0.0000,-1.3428,-0.5493,-0.1221,-11.8854,18.4787,2.1052,0.0277,-0.0187,-0.0037,0.0000,0.0000,0.0000,0.0000,0.0000,0.0000,0.0000,0.0000,-2.5800,0.0000,0.0000,0.0000,0.0000,-2.5800,1.0000,0.0000,0.0000,0.0000,-0.1686,0.0851,0.0000,0.0000,0.0000,-2.5800,0.0000,0.0000,0.0029,-0.0341,0.0392,0.0101,0.0000,0.0000,-0.5703,0.6900,0.6631,0.6679,0.6857,4
39,104,3039446173863,-10.4665,-0.1686,0.0851,0.0310,0.0610,0.0210,1.1670,6644.7007,6365.6797,6414.9858,6599.3926,12.0542,0.0000,-1.4648,-2.2583,-0.0000,-8.2464,18.1263,4.4062,0.0258,-0.0200,-0.0037,0.0000,0.0000,0.0000,0.0000,0.0000,0.0000,0.0000,0.0000,-2.5800,0.0000,0.0000,0.0000,0.0000,-2.5800,1.0000,0.0000,0.0000,0.0000,-0.1686,0.0851,0.0000,0.0000,0.0000,-2.5800,0.0000,0.0000,0.0029,-0.0290,0.0440,0.0099,0.0000,0.0000,-0.5703,0.6900,0.6631,0.6679,0.6857,4
40,105,3039451414757,-10.4665,-0.1686,0.0851,0.0310,0.0610,0.0210,1.1670,6644.7007,6365.6797,6414.9858,6599.3926,12.0544,0.0000,-1.1597,-2.9907,-0.1221,-2.8237,14.0963,4.6186,0.0240,-0.0211,-0.0037,0.0000,0.0000,0.0000,0.0000,0.0000,0.0000,0.0000,0.0000,-2.5800,0.0000,0.0000,0.0000,0.0000,-2.5800,1.0000,0.0000,0.0000,0.0000,-0.1686,0.0851,0.0000,0.0000,0.0000,-2.5800,0.0000,0.0000,0.0029,-0.0257,0.0457,0.0098,0.0000,0.0000,-0.5703,0.6900,0.6631,0.6679,0.6857,4
41,106,3039455907481,-10.4665,-0.1686,0.0851,0.0310,0.0610,0.0210,1.1670,6644.7007,6365.6797,6414.9858,6599.3926,12.0559,0.0000,-0.5493,-1.7700,-0.3052,2.1638,10.4092,1.1338,0.0226,-0.0215,-0.0037,0.0000,0.0000,0.0000,0.0000,0.0000,0.0000,0.0000,0.0000,-2.5800,0.0000,0.0000,0.0000,0.0000,-2.5800,1.0000,0.0000,0.0000,0.0000,-0.1686,0.0851,0.0000,0.0000,0.0000,-2.5800,0.0000,0.0000,0.0029,-0.0259,0.0432,0.0100,0.0000,0.0000,-0.5703,0.6900,0.6631,0.6679,0.6857,4
42,107,3039460840074,-10.4665,-0.1686,0.0851,0.0310,0.0610,0.0210,1.1670,6644.7007,6365.6797,6414.9858,6599.3926,12.0571,0.0000,-0.7324,-1.2817,0.3052,7.3689,4.7515,-8.1751,0.0215,-0.0214,-0.0036,0.0000,0.0000,0.0000,0.0000,0.0000,0.0000,0.0000,0.0000,-2.5800,0.0000,0.0000,0.0000,0.0000,-2.5800,1.0000,0.0000,0.0000,0.0000,-0.1686,0.0851,0.0000,0.0000,0.0000,-2.5800,0.0000,0.0000,0.0029,-0.0280,0.0383,0.0096,0.0000,0.0000,-0.5703,0.6900,0.6631,0.6679,0.6857,4
43,108,3039465830661,-10.4665,-0.1686,0.0851,0.0310,0.0610,0.0210,1.1670,6644.7007,6365.6797,6414.9858,6599.3926,12.0571,0.0000,-0.3052,0.1221,0.4272,10.3695,-0.8391,-20.3148,0.0210,-0.0207,-0.0036,0.0000,0.0000,0.0000,0.0000,0.0000,0.0000,0.0000,0.0000,-2.5800,0.0000,0.0000,0.0000,0.0000,-2.5800,1.0000,0.0000,0.0000,0.0000,-0.1686,0.0851,0.0000,0.0000,0.0000,-2.5800,0.0000,0.0000,0.0029,-0.0327,0.0310,0.0093,0.0000,0.0000,-0.5703,0.6900,0.6631,0.6679,0.6857,4
44,109,3039471234246,-10.4665,-0.1686,0.0851,0.0310,0.0610,0.0210,1.1670,6644.7007,6365.6797,6414.9858,6599.3926,12.0573,0.0000,-0.2441,0.9155,0.5493,13.0785,-7.7650,-30.4567,0.0210,-0.0195,-0.0036,0.0000,0.0000,0.0000,0.0000,0.0000,0.0000,0.0000,0.0000,-2.5800,0.0000,0.0000,0.0000,0.0000,-2.5800,1.0000,0.0000,0.0000,0.0000,-0.1686,0.0851,0.0000,0.0000,0.0000,-2.5800,0.0000,0.0000,0.0029,-0.0390,0.0235,0.0091,0.0000,0.0000,-0.5703,0.6900,0.6631,0.6679,0.6857,4
45,110,3039475911367,-10.4665,-0.1686,0.0851,0.0310,0.0610,0.0210,1.1670,6644.7007,6365.6797,6414.9858,6599.3926,12.0585,0.0000,-0.4272,1.5259,0.7324,10.0587,-12.0250,-36.2616,0.0217,-0.0181,-0.0035,0.0000,0.0000,0.0000,0.0000,0.0000,0.0000,0.0000,0.0000,-2.5800,0.0000,0.0000,0.0000,0.0000,-2.5800,1.0000,0.0000,0.0000,0.0000,-0.1686,0.0851,0.0000,0.0000,0.0000,-2.5800,0.0000,0.0000,0.0029,-0.0472,0.0164,0.0088,0.0000,0.0000,-0.5703,0.6900,0.6631,0.6679,0.6857,4
46,111,3039480859250,-10.4665,-0.1686,0.0851,0.0310,0.0610,0.0210,1.1670,6644.7007,6365.6797,6414.9858,6599.3926,12.0588,0.0000,-0.2441,1.4648,0.3662,10.5441,-16.9276,-37.3524,0.0228,-0.0169,-0.0035,0.0000,0.0000,0.0000,0.0000,0.0000,0.0000,0.0000,0.0000,-2.5800,0.0000,0.0000,0.0000,0.0000,-2.5800,1.0000,0.0000,0.0000,0.0000,-0.1686,0.0851,0.0000,0.0000,0.0000,-2.5800,0.0000,0.0000,0.0029,-0.0553,0.0131,0.0088,0.0000,0.0000,-0.5703,0.6900,0.6631,0.6679,0.6857,4
47,112,3039485877751,-10.4665,-0.1686,0.0851,0.0310,0.0610,0.0210,1.1670,6644.7007,6365.6797,6414.9858,6599.3926,12.0600,0.0000,0.0000,1.1597,0.7324,4.6839,-18.1047,-31.8316,0.0243,-0.0157,-0.0035,0.0000,0.0000,0.0000,0.0000,0.0000,0.0000,0.0000,0.0000,-2.5800,0.0000,0.0000,0.0000,0.0000,-2.5800,1.0000,0.0000,0.0000,0.0000,-0.1686,0.0851,0.0000,0.0000,0.0000,-2.5800,0.0000,0.0000,0.0029,-0.0640,0.0106,0.0086,0.0000,0.0000,-0.5703,0.6900,0.6631,0.6679,0.6857,4
48,113,3039491175597,-10.4665,-0.1686,0.0851,0.0310,0.0610,0.0210,1.1670,6644.7007,6365.6797,6414.9858,6599.3926,12.0619,0.0000,0.0000,0.0000,-0.0000,3.9259,-19.8859,-21.5417,0.0260,-0.0152,-0.0035,0.0000,0.0000,0.0000,0.0000,0.0000,0.0000,0.0000,0.0000,-2.5800,0.0000,0.0000,0.0000,0.0000,-2.5800,1.0000,0.0000,0.0000,0.0000,-0.1686,0.0851,0.0000,0.0000,0.0000,-2.5800,0.0000,0.0000,0.0029,-0.0707,0.0130,0.0090,0.0000,0.0000,-0.5703,0.6900,0.6631,0.6679,0.6857,4
49,114,3039496118064,-10.4665,-0.1686,0.0851,0.0310,0.0610,0.0210,1.1670,6644.7007,6365.6797,6414.9858,6599.3926,12.0627,0.0000,0.4883,0.0000,-0.0000,-0.6647,-18.5410,-11.3377,0.0279,-0.0148,-0.0035,0.0000,0.0000,0.0000,0.0000,0.0000,0.0000,0.0000,0.0000,-2.5800,0.0000,0.0000,0.0000,0.0000,-2.5800,1.0000,0.0000,0.0000,0.0000,-0.1686,0.0851,0.0000,0.0000,0.0000,-2.5800,0.0000,0.0000,-0.0000,-0.0769,0.0151,0.0093,0.0000,0.0000,-0.5703,0.6900,0.6631,0.6679,0.6857,4
50,115,3039500993080,-10.4665,-0.1686,0.0851,0.0310,0.0610,0.0210,1.1670,6644.7007,6365.6797,6414.9858,6599.3926,12.0634,0.0000,1.0376,-0.4272,-0.7324,-3.5195,-16.1317,-2.7163,0.0297,-0.0149,-0.0036,0.0000,0.0000,0.0000,0.0000,0.0000,0.0000,0.0000,0.0000,-2.5800,0.0000,0.0000,0.0000,0.0000,-2.5800,1.0000,0.0000,0.0000,0.0000,-0.1686,0.0851,0.0000,0.0000,0.0000,-2.5800,0.0000,0.0000,-0.0000,-0.0811,0.0195,0.0102,0.0000,0.0000,-0.5703,0.6900,0.6631,0.6679,0.6857,4
51,116,3039506322964,-10.4665,-0.1686,0.0851,0.0310,0.0610,0.0210,1.1670,6644.7007,6365.6797,6414.9858,6599.3926,12.0639,0.0000,1.6479,-1.2817,-0.1221,-5.9511,-12.1065,2.3559,0.0315,-0.0153,-0.0037,0.0000,0.0000,0.0000,0.0000,0.0000,0.0000,0.0000,0.0000,-2.5800,0.0000,0.0000,0.0000,0.0000,-2.5800,1.0000,0.0000,0.0000,0.0000,-0.1686,0.0851,0.0000,0.0000,0.0000,-2.5800,0.0000,0.0000,-0.0000,-0.0831,0.0248,0.0105,0.0000,0.0000,-0.5703,0.6900,0.6631,0.6679,0.6857,4
52,117,3039510868974,-10.4665,-0.1686,0.0851,0.0310,0.0610,0.0210,1.1670,6644.7007,6365.6797,6414.9858,6599.3926,12.0646,0.0000,1.9531,-1.5259,-1.5259,-7.4263,-5.8471,4.7905,0.0328,-0.0160,-0.0038,0.0000,0.0000,0.0000,0.0000,0.0000,0.0000,0.0000,0.0000,-2.5800,0.0000,0.0000,0.0000,0.0000,-2.5800,1.0000,0.0000,0.0000,0.0000,-0.1686,0.0851,0.0000,0.0000,0.0000,-2.5800,0.0000,0.0000,-0.0000,-0.0826,0.0300,0.0118,0.0000,0.0000,-0.5703,0.6900,0.6631,0.6679,0.6857,4
53,118,3039516068747,-10.4665,-0.1686,0.0851,0.0310,0.0610,0.0210,1.1670,6644.7007,6365.6797,6414.9858,6599.3926,12.0651,0.0000,1.8311,-1.7700,0.3662,-5.1764,-0.2469,3.7880,0.0336,-0.0169,-0.0038,0.0000,0.0000,0.0000,0.0000,0.0000,0.0000,0.0000,0.0000,-2.5800,0.0000,0.0000,0.0000,0.0000,-2.5800,1.0000,0.0000,0.0000,0.0000,-0.1686,0.0851,0.0000,0.0000,0.0000,-2.5800,0.0000,0.0000,-0.0000,-0.0786,0.0346,0.0115,0.0000,0.0000,-0.5703,0.6900,0.6631,0.6679,0.6857,4
54,119,3039521271645,-10.4665,-0.1686,0.0851,0.0310,0.0610,0.0210,1.1670,6644.7007,6365.6797,6414.9858,6599.3926,12.0663,0.0000,1.3428,-1.3428,-0.9766,-4.6456,6.6982,0.5180,0.0337,-0.0175,-0.0039,0.0000,0.0000,0.0000,0.0000,0.0000,0.0000,0.0000,0.0000,-2.5800,0.0000,0.0000,0.0000,0.0000,-2.5800,1.0000,0.0000,0.0000,0.0000,-0.1686,0.0851,0.0000,0.0000,0.0000,-2.5800,0.0000,0.0000,-0.0000,-0.0725,0.0364,0.0122,0.0000,0.0000,-0.5703,0.6900,0.6631,0.6679,0.6857,4
55,120,3039525905062,-10.4665,-0.1686,0.0851,0.0110,0.0810,0.0310,1.1670,6644.7007,6365.6797,6414.9858,6599.3926,12.0665,0.0000,0.6714,0.0610,0.5493,-2.8787,10.4883,-3.7045,0.0331,-0.0180,-0.0038,0.0000,0.0000,0.0000,0.0000,0.0000,0.0000,0.0000,0.0000,-2.5800,0.0000,0.0000,0.0000,0.0000,-2.5800,1.0000,0.0000,0.0000,0.0000,-0.1686,0.0851,0.0000,0.0000,0.0000,-2.5800,0.0000,0.0000,-0.0000,-0.0637,0.0365,0.0115,0.0000,0.0000,-0.5703,0.6900,0.6631,0.6679,0.6857,4
56,121,3039530824157,-10.4665,-0.1686,0.0851,0.0110,0.0810,0.0310,1.1670,6850.3481,6365.6797,6414.9858,6599.3926,12.0668,0.0000,-0.2441,0.6104,-0.0610,-2.9217,14.5159,-4.2940,0.0321,-0.0182,-0.0038,0.0000,0.0000,0.0000,0.0000,0.0000,0.0000,0.0000,0.0000,-2.5800,0.0000,0.0000,0.0000,0.0000,-2.5800,1.0000,0.0000,0.0000,0.0000,-0.1686,0.0851,0.0000,0.0000,0.0000,-2.5800,0.0000,0.0000,-0.0000,-0.0549,0.0352,0.0113,0.0000,0.0000,-0.5703,0.6900,0.6631,0.6679,0.6857,4
57,122,3039554108481,-10.4477,-0.1961,0.0265,0.0110,0.0810,0.0310,1.1670,6850.3481,6557.7959,6284.2202,6424.2412,12.0682,0.0000,-1.2817,1.2817,0.7324,-2.1782,17.7786,-3.1793,0.0306,-0.0183,-0.0037,0.0000,0.0000,0.0000,0.0000,0.0000,0.0000,0.0000,0.0000,-2.5800,0.0000,0.0000,0.0000,0.0000,-2.5800,1.0000,0.0000,0.0000,0.0000,-0.1961,0.0265,0.0000,0.0000,0.0000,-2.5800,0.0000,0.0000,-0.0000,-0.1120,-0.1120,0.0104,0.0000,0.0000,-0.5692,0.7131,0.6817,0.6553,0.6688,4
58,123,3039558629535,-10.4477,-0.1961,0.0265,0.0110,0.0810,0.0310,1.1670,6850.3481,6557.7959,6284.2202,6424.2412,12.0682,0.0000,-2.1973,-0.8545,0.2441,-4.5093,15.2207,1.2149,0.0248,-0.0195,-0.0035,0.0000,0.0000,0.0000,0.0000,0.0000,0.0000,0.0000,0.0000,-2.5800,0.0000,0.0000,0.0000,0.0000,-2.5800,1.0000,0.0000,0.0000,0.0000,-0.1961,0.0265,0.0000,0.0000,0.0000,-2.5800,0.0000,0.0000,0.0029,-0.0614,-0.0657,0.0087,0.0000,0.0000,-0.5692,0.7131,0.6817,0.6553,0.6688,4
59,124,3039560905206,-10.4477,-0.1961,0.0265,0.0110,0.0810,0.0310,1.1670,6850.3481,6557.7959,6284.2202,6424.2412,12.0680,0.0000,-1.3428,-1.7700,-0.1221,3.4286,3.9340,-9.5094,0.0219,-0.0202,-0.0035,0.0000,0.0000,0.0000,0.0000,0.0000,0.0000,0.0000,0.0000,-2.5800,0.0000,0.0000,0.0000,0.0000,-2.5800,1.0000,0.0000,0.0000,0.0000,-0.1961,0.0265,0.0000,0.0000,0.0000,-2.5800,0.0000,0.0000,0.0029,-0.0439,-0.0367,0.0088,0.0000,0.0000,-0.5692,0.7131,0.6817,0.6553,0.6688,4
60,125,3039565820510,-10.4477,-0.1961,0.0265,0.0110,0.0810,0.0310,1.1670,6536.5278,6557.7959,6284.2202,6424.2412,12.0685,0.0000,-0.6714,-1.2207,-0.3052,7.8040,-1.8555,-22.0382,0.0215,-0.0200,-0.0036,0.0000,0.0000,0.0000,0.0000,0.0000,0.0000,0.0000,0.0000,-2.5800,0.0000,0.0000,0.0000,0.0000,-2.5800,1.0000,0.0000,0.0000,0.0000,-0.1961,0.0265,0.0000,0.0000,0.0000,-2.5800,0.0000,0.0000,0.0029,-0.0463,-0.0226,0.0091,0.0000,0.0000,-0.5692,0.7131,0.6817,0.6553,0.6688,4
61,126,3039570921919,-10.4477,-0.1961,0.0265,0.0110,0.0810,0.0310,1.1670,6536.5278,6557.7959,6284.2202,6424.2412,12.0682,0.0000,0.2441,-0.1831,0.1831,12.6051,-7.9807,-36.7271,0.0216,-0.0192,-0.0036,0.0000,0.0000,0.0000,0.0000,0.0000,0.0000,0.0000,0.0000,-2.5800,0.0000,0.0000,0.0000,0.0000,-2.5800,1.0000,0.0000,0.0000,0.0000,-0.1961,0.0265,0.0000,0.0000,0.0000,-2.5800,0.0000,0.0000,0.0029,-0.0516,-0.0162,0.0092,0.0000,0.0000,-0.5692,0.7131,0.6817,0.6553,0.6688,4
62,127,3039584244316,-10.4477,-0.1961,0.0265,0.0110,0.0810,0.0310,1.1670,6536.5278,6708.8423,6431.5269,6283.2476,12.0692,0.0000,0.4883,0.1831,-0.3662,14.5585,-10.6729,-49.9958,0.0224,-0.0179,-0.0036,0.0000,0.0000,0.0000,0.0000,0.0000,0.0000,0.0000,0.0000,-2.5800,0.0000,0.0000,0.0000,0.0000,-2.5800,1.0000,0.0000,0.0000,0.0000,-0.1961,0.0265,0.0000,0.0000,0.0000,-2.5800,0.0000,0.0000,0.0029,-0.0588,-0.0151,0.0097,0.0000,0.0000,-0.5692,0.6796,0.6962,0.6695,0.6552,4
63,128,3039586487158,-10.4477,-0.1961,0.0265,0.0110,0.0810,0.0310,1.1670,6536.5278,6708.8423,6431.5269,6283.2476,12.0697,0.0000,0.4883,1.8311,-0.1221,11.2327,-15.8272,-53.0820,0.0247,-0.0147,-0.0036,0.0000,0.0000,0.0000,0.0000,0.0000,0.0000,0.0000,0.0000,-2.5800,0.0000,0.0000,0.0000,0.0000,-2.5800,1.0000,0.0000,0.0000,0.0000,-0.1961,0.0265,0.0000,0.0000,0.0000,-2.5800,0.0000,0.0000,0.0029,-0.0733,-0.0260,0.0098,0.0000,0.0000,-0.5692,0.6796,0.6962,0.6695,0.6552,4
64,129,3039591200941,-10.4477,-0.1961,0.0265,0.0110,0.0810,0.0310,1.1670,6536.5278,6708.8423,6431.5269,6283.2476,12.0699,0.0000,0.5493,1.2207,-0.0610,8.2990,-15.5012,-39.5818,0.0262,-0.0134,-0.0036,0.0000,0.0000,0.0000,0.0000,0.0000,0.0000,0.0000,0.0000,-2.5800,0.0000,0.0000,0.0000,0.0000,-2.5800,1.0000,0.0000,0.0000,0.0000,-0.1961,0.0265,0.0000,0.0000,0.0000,-2.5800,0.0000,0.0000,0.0029,-0.0782,-0.0220,0.0101,0.0000,0.0000,-0.5692,0.6796,0.6962,0.6695,0.6552,4
65,130,3039596061001,-10.4477,-0.1961,0.0265,0.0110,0.0810,0.0310,1.1670,6536.5278,6708.8423,6431.5269,6283.2476,12.0699,0.0000,0.4883,2.0142,0.4883,2.2857,-12.7538,-17.2739,0.0276,-0.0124,-0.0036,0.0000,0.0000,0.0000,0.0000,0.0000,0.0000,0.0000,0.0000,-2.5800,0.0000,0.0000,0.0000,0.0000,-2.5800,1.0000,0.0000,0.0000,0.0000,-0.1961,0.0265,0.0000,0.0000,0.0000,-2.5800,0.0000,0.0000,0.0029,-0.0816,-0.0179,0.0099,0.0000,0.0000,-0.5692,0.6796,0.6962,0.6695,0.6552,4
66,131,3039601021300,-10.4477,-0.1961,0.0265,0.0110,0.0810,0.0310,1.1670,6536.5278,6708.8423,6431.5269,6283.2476,12.0704,0.0000,0.9766,0.1831,-0.5493,-2.5631,-11.0781,6.5544,0.0289,-0.0121,-0.0037,0.0000,0.0000,0.0000,0.0000,0.0000,0.0000,0.0000,0.0000,-2.5800,0.0000,0.0000,0.0000,0.0000,-2.5800,1.0000,0.0000,0.0000,0.0000,-0.1961,0.0265,0.0000,0.0000,0.0000,-2.5800,0.0000,0.0000,0.0029,-0.0831,-0.0105,0.0105,0.0000,0.0000,-0.5692,0.6796,0.6962,0.6695,0.6552,4
67,132,3039605957976,-10.4477,-0.1961,0.0265,0.0110,0.0810,0.0310,1.1670,6536.5278,6708.8423,6431.5269,6283.2476,12.0699,0.0000,1.4038,-0.4272,0.7324,-7.1872,-8.0167,27.3920,0.0301,-0.0124,-0.0036,0.0000,0.0000,0.0000,0.0000,0.0000,0.0000,0.0000,0.0000,-2.5800,0.0000,0.0000,0.0000,0.0000,-2.5800,1.0000,0.0000,0.0000,0.0000,-0.1961,0.0265,0.0000,0.0000,0.0000,-2.5800,0.0000,0.0000,0.0029,-0.0838,-0.0021,0.0100,0.0000,0.0000,-0.5692,0.6796,0.6962,0.6695,0.6552,4
68,133,3039611197578,-10.4477,-0.1961,0.0265,0.0110,0.0810,0.0310,1.1670,6536.5278,6708.8423,6431.5269,6283.2476,12.0694,0.0000,1.7700,-0.9155,-0.9766,-11.1275,-3.3131,41.4627,0.0311,-0.0132,-0.0037,0.0000,0.0000,0.0000,0.0000,0.0000,0.0000,0.0000,0.0000,-2.5800,0.0000,0.0000,0.0000,0.0000,-2.5800,1.0000,0.0000,0.0000,0.0000,-0.1961,0.0265,0.0000,0.0000,0.0000,-2.5800,0.0000,0.0000,0.0029,-0.0833,0.0068,0.0109,0.0000,0.0000,-0.5692,0.6796,0.6962,0.6695,0.6552,4
69,134,3039615798790,-10.4477,-0.1961,0.0265,0.0110,0.0810,0.0310,1.1670,6536.5278,6708.8423,6431.5269,6283.2476,12.0697,0.0000,1.5869,-1.6479,0.5493,-14.2716,-0.6904,46.5444,0.0317,-0.0145,-0.0037,0.0000,0.0000,0.0000,0.0000,0.0000,0.0000,0.0000,0.0000,-2.5800,0.0000,0.0000,0.0000,0.0000,-2.5800,1.0000,0.0000,0.0000,0.0000,-0.1961,0.0265,0.0000,0.0000,0.0000,-2.5800,0.0000,0.0000,0.0029,-0.0804,0.0158,0.0106,0.0000,0.0000,-0.5692,0.6796,0.6962,0.6695,0.6552,4
70,135,3039620764255,-10.4477,-0.1961,0.0265,0.0110,0.0810,0.0310,1.1670,6536.5278,6708.8423,6431.5269,6283.2476,12.0704,0.0000,1.9531,-1.4648,-0.9766,-14.3122,3.3179,40.5389,0.0321,-0.0161,-0.0038,0.0000,0.0000,0.0000,0.0000,0.0000,0.0000,0.0000,0.0000,-2.5800,0.0000,0.0000,0.0000,0.0000,-2.5800,1.0000,0.0000,0.0000,0.0000,-0.1961,0.0265,0.0000,0.0000,0.0000,-2.5800,0.0000,0.0000,0.0029,-0.0772,0.0239,0.0114,0.0000,0.0000,-0.5692,0.6796,0.6962,0.6695,0.6552,4
71,136,3039626290368,-10.4477,-0.1961,0.0265,0.0110,0.0810,0.0310,1.1670,6536.5278,6708.8423,6431.5269,6283.2476,12.0711,0.0000,2.0752,-2.5024,1.2207,-11.4072,8.2996,25.2700,0.0321,-0.0177,-0.0037,0.0000,0.0000,0.0000,0.0000,0.0000,0.0000,0.0000,0.0000,-2.5800,0.0000,0.0000,0.0000,0.0000,-2.5800,1.0000,0.0000,0.0000,0.0000,-0.1961,0.0265,0.0000,0.0000,0.0000,-2.5800,0.0000,0.0000,-0.0000,-0.0727,0.0302,0.0104,0.0000,0.0000,-0.5692,0.6796,0.6962,0.6695,0.6552,4
72,137,3039630863917,-10.4477,-0.1961,0.0265,0.0110,0.0810,0.0310,1.1670,6536.5278,6708.8423,6431.5269,6283.2476,12.0714,0.0000,1.4038,-1.3428,-0.2441,-7.5817,10.4428,6.6475,0.0315,-0.0190,-0.0037,0.0000,0.0000,0.0000,0.0000,0.0000,0.0000,0.0000,0.0000,-2.5800,0.0000,0.0000,0.0000,0.0000,-2.5800,1.0000,0.0000,0.0000,0.0000,-0.1961,0.0265,0.0000,0.0000,0.0000,-2.5800,0.0000,0.0000,-0.0000,-0.0661,0.0322,0.0105,0.0000,0.0000,-0.5692,0.6796,0.6962,0.6695,0.6552,4
73,138,3039635871002,-10.4477,-0.1961,0.0265,0.0110,0.0810,0.0310,1.1670,6536.5278,6708.8423,6431.5269,6283.2476,12.0726,0.0000,-0.1831,-1.3428,1.4648,-4.9732,10.9990,-11.0537,0.0305,-0.0198,-0.0036,0.0000,0.0000,0.0000,0.0000,0.0000,0.0000,0.0000,0.0000,-2.5800,0.0000,0.0000,0.0000,0.0000,-2.5800,1.0000,0.0000,0.0000,0.0000,-0.1961,0.0265,0.0000,0.0000,0.0000,-2.5800,0.0000,0.0000,-0.0000,-0.0590,0.0312,0.0093,0.0000,0.0000,-0.5692,0.6796,0.6962,0.6695,0.6552,4
74,139,3039641150350,-10.4477,-0.1961,0.0265,0.0110,0.0810,0.0310,1.1670,6536.5278,6708.8423,6431.5269,6283.2476,12.0723,0.0000,-1.2207,0.6104,0.2441,0.0048,10.8024,-22.4869,0.0293,-0.0202,-0.0036,0.0000,0.0000,0.0000,0.0000,0.0000,0.0000,0.0000,0.0000,-2.5800,0.0000,0.0000,0.0000,0.0000,-2.5800,1.0000,0.0000,0.0000,0.0000,-0.1961,0.0265,0.0000,0.0000,0.0000,-2.5800,0.0000,0.0000,-0.0000,-0.0529,0.0278,0.0091,0.0000,0.0000,-0.5692,0.6796,0.6962,0.6695,0.6552,4
75,140,3039646039823,-10.4477,-0.1961,0.0265,0.0110,0.0810,0.0310,1.1670,6536.5278,6708.8423,6431.5269,6283.2476,12.0726,0.0000,-1.5259,-0.1221,1.0986,2.2714,10.2870,-29.8743,0.0281,-0.0202,-0.0034,0.0000,0.0000,0.0000,0.0000,0.0000,0.0000,0.0000,0.0000,-2.5800,0.0000,0.0000,0.0000,0.0000,-2.5800,1.0000,0.0000,0.0000,0.0000,-0.1961,0.0265,0.0000,0.0000,0.0000,-2.5800,0.0000,0.0000,-0.0000,-0.0484,0.0229,0.0082,0.0000,0.0000,-0.5692,0.6796,0.6962,0.6695,0.6552,4
76,141,3039650968708,-10.4477,-0.1961,0.0265,0.0110,0.0810,0.0310,1.1670,6536.5278,6708.8423,6431.5269,6283.2476,12.0721,0.0000,-3.1128,-0.0610,-0.0610,5.4322,9.2681,-33.6241,0.0267,-0.0199,-0.0034,0.0000,0.0000,0.0000,0.0000,0.0000,0.0000,0.0000,0.0000,-2.5800,0.0000,0.0000,0.0000,0.0000,-2.5800,1.0000,0.0000,0.0000,0.0000,-0.1961,0.0265,0.0000,0.0000,0.0000,-2.5800,0.0000,0.0000,-0.0000,-0.0445,0.0181,0.0083,0.0000,0.0000,-0.5692,0.6796,0.6962,0.6695,0.6552,4
77,142,3039655918342,-10.4477,-0.1961,0.0265,0.0110,0.0810,0.0310,1.1670,6536.5278,6708.8423,6431.5269,6283.2476,12.0714,0.0000,-2.7466,0.1831,0.1831,5.8172,6.6095,-36.4478,0.0255,-0.0193,-0.0034,0.0000,0.0000,0.0000,0.0000,0.0000,0.0000,0.0000,0.0000,-2.5800,0.0000,0.0000,0.0000,0.0000,-2.5800,1.0000,0.0000,0.0000,0.0000,-0.1961,0.0265,0.0000,0.0000,0.0000,-2.5800,0.0000,0.0000,-0.0000,-0.0425,0.0127,0.0082,0.0000,0.0000,-0.5692,0.6796,0.6962,0.6695,0.6552,4
78,143,3039661182233,-10.4477,-0.1961,0.0265,0.0110,0.0810,0.0310,1.1670,6536.5278,6708.8423,6431.5269,6283.2476,12.0716,0.0000,-2.2583,-0.4883,-0.7935,7.5697,2.9559,-38.5196,0.0246,-0.0187,-0.0035,0.0000,0.0000,0.0000,0.0000,0.0000,0.0000,0.0000,0.0000,-2.5800,0.0000,0.0000,0.0000,0.0000,-2.5800,1.0000,0.0000,0.0000,0.0000,-0.1961,0.0265,0.0000,0.0000,0.0000,-2.5800,0.0000,0.0000,-0.0000,-0.0428,0.0091,0.0089,0.0000,0.0000,-0.5692,0.6796,0.6962,0.6695,0.6552,4
79,144,3039665938554,-10.4477,-0.1961,0.0265,0.0110,0.0810,0.0310,1.1670,6536.5278,6708.8423,6431.5269,6283.2476,12.0714,0.0000,-2.2583,-0.5493,-0.6714,6.8596,-0.3212,-39.9589,0.0241,-0.0180,-0.0035,0.0000,0.0000,0.0000,0.0000,0.0000,0.0000,0.0000,0.0000,-2.5800,0.0000,0.0000,0.0000,0.0000,-2.5800,1.0000,0.0000,0.0000,0.0000,-0.1961,0.0265,0.0000,0.0000,0.0000,-2.5800,0.0000,0.0000,-0.0000,-0.0451,0.0055,0.0095,0.0000,0.0000,-0.5692,0.6796,0.6962,0.6695,0.6552,4
80,145,3039670840526,-10.4477,-0.1961,0.0265,0.0110,0.0810,0.0310,1.1670,6536.5278,6708.8423,6431.5269,6283.2476,12.0711,0.0000,-0.7935,-0.2441,-0.7935,8.1268,-5.0608,-41.2168,0.0239,-0.0172,-0.0036,0.0000,0.0000,0.0000,0.0000,0.0000,0.0000,0.0000,0.0000,-2.5800,0.0000,0.0000,0.0000,0.0000,-2.5800,1.0000,0.0000,0.0000,0.0000,-0.1961,0.0265,0.0000,0.0000,0.0000,-2.5800,0.0000,0.0000,-0.0000,-0.0493,0.0033,0.0102,0.0000,0.0000,-0.5692,0.6796,0.6962,0.6695,0.6552,4
81,146,3039676297104,-10.4477,-0.1961,0.0265,0.0110,0.0810,0.0310,1.1670,6536.5278,6708.8423,6431.5269,6283.2476,12.0714,0.0000,0.0610,0.0000,-0.6714,7.9188,-9.5366,-40.6273,0.0243,-0.0164,-0.0037,0.0000,0.0000,0.0000,0.0000,0.0000,0.0000,0.0000,0.0000,-2.5800,0.0000,0.0000,0.0000,0.0000,-2.5800,1.0000,0.0000,0.0000,0.0000,-0.1961,0.0265,0.0000,0.0000,0.0000,-2.5800,0.0000,0.0000,-0.0000,-0.0553,0.0009,0.0107,0.0000,0.0000,-0.5692,0.6796,0.6962,0.6695,0.6552,4
82,147,3039680801577,-10.4477,-0.1961,0.0265,0.0110,0.0810,0.0310,1.1670,6536.5278,6708.8423,6431.5269,6283.2476,12.0702,0.0000,-0.2441,0.6104,-0.3052,7.8064,-12.0826,-33.8891,0.0251,-0.0155,-0.0037,0.0000,0.0000,0.0000,0.0000,0.0000,0.0000,0.0000,0.0000,-2.5800,0.0000,0.0000,0.0000,0.0000,-2.5800,1.0000,0.0000,0.0000,0.0000,-0.1961,0.0265,0.0000,0.0000,0.0000,-2.5800,0.0000,0.0000,-0.0000,-0.0619,-0.0011,0.0110,0.0000,0.0000,-0.5692,0.6796,0.6962,0.6695,0.6552,4
83,148,3039685766084,-10.4477,-0.1961,0.0265,0.0110,0.0810,0.0310,1.1670,6536.5278,6708.8423,6431.5269,6283.2476,12.0702,0.0000,0.7324,1.2207,-0.0000,3.8327,-12.6867,-19.5462,0.0263,-0.0146,-0.0037,0.0000,0.0000,0.0000,0.0000,0.0000,0.0000,0.0000,0.0000,-2.5800,0.0000,0.0000,0.0000,0.0000,-2.5800,1.0000,0.0000,0.0000,0.0000,-0.1961,0.0265,0.0000,0.0000,0.0000,-2.5800,0.0000,0.0000,-0.0000,-0.0686,-0.0027,0.0110,0.0000,0.0000,-0.5692,0.6796,0.6962,0.6695,0.6552,4
84,149,3039690885116,-10.4477,-0.1961,0.0265,0.0110,0.0810,0.0310,1.1670,6536.5278,6708.8423,6431.5269,6283.2476,12.0699,0.0000,0.6714,2.1362,0.4883,0.8607,-12.8953,0.2793,0.0275,-0.0140,-0.0037,0.0000,0.0000,0.0000,0.0000,0.0000,0.0000,0.0000,0.0000,-2.5800,0.0000,0.0000,0.0000,0.0000,-2.5800,1.0000,0.0000,0.0000,0.0000,-0.1961,0.0265,0.0000,0.0000,0.0000,-2.5800,0.0000,0.0000,-0.0000,-0.0738,-0.0018,0.0107,0.0000,0.0000,-0.5692,0.6796,0.6962,0.6695,0.6552,4
85,150,3039696506427,-10.4477,-0.1961,0.0265,0.0110,0.0810,0.0310,1.1670,6536.5278,6708.8423,6431.5269,6283.2476,12.0697,0.0000,0.9766,2.8076,0.3052,-5.2099,-12.6507,22.8211,0.0289,-0.0137,-0.0037,0.0000,0.0000,0.0000,0.0000,0.0000,0.0000,0.0000,0.0000,-2.5800,0.0000,0.0000,0.0000,0.0000,-2.5800,1.0000,0.0000,0.0000,0.0000,-0.1961,0.0265,0.0000,0.0000,0.0000,-2.5800,0.0000,0.0000,0.0029,-0.0781,0.0002,0.0105,0.0000,0.0000,-0.5692,0.6796,0.6962,0.6695,0.6552,4
86,151,3039701008067,-10.4477,-0.1961,0.0265,0.0110,0.0810,0.0310,1.1670,6536.5278,6708.8423,6431.5269,6283.2476,12.0697,0.0000,1.7700,0.9766,0.6104,-10.4604,-10.0736,42.0236,0.0303,-0.0141,-0.0036,0.0000,0.0000,0.0000,0.0000,0.0000,0.0000,0.0000,0.0000,-2.5800,0.0000,0.0000,0.0000,0.0000,-2.5800,1.0000,0.0000,0.0000,0.0000,-0.1961,0.0265,0.0000,0.0000,0.0000,-2.5800,0.0000,0.0000,0.0029,-0.0818,0.0063,0.0102,0.0000,0.0000,-0.5692,0.6796,0.6962,0.6695,0.6552,4
87,152,3039705900539,-10.4477,-0.1961,0.0265,0.0110,0.0810,0.0310,1.1670,6536.5278,6708.8423,6431.5269,6283.2476,12.0702,0.0000,0.9766,0.0000,-0.0000,-11.3020,-3.9484,54.2994,0.0315,-0.0152,-0.0037,0.0000,0.0000,0.0000,0.0000,0.0000,0.0000,0.0000,0.0000,-2.5800,0.0000,0.0000,0.0000,0.0000,-2.5800,1.0000,0.0000,0.0000,0.0000,-0.1961,0.0265,0.0000,0.0000,0.0000,-2.5800,0.0000,0.0000,0.0029,-0.0829,0.0143,0.0103,0.0000,0.0000,-0.5692,0.6796,0.6962,0.6695,0.6552,4
88,153,3039711124227,-10.4477,-0.1961,0.0265,0.0110,0.0810,0.0310,1.1670,6536.5278,6708.8423,6431.5269,6283.2476,12.0706,0.0000,1.5869,-1.3428,0.1831,-15.9524,1.8196,55.4093,0.0322,-0.0165,-0.0037,0.0000,0.0000,0.0000,0.0000,0.0000,0.0000,0.0000,0.0000,-2.5800,0.0000,0.0000,0.0000,0.0000,-2.5800,1.0000,0.0000,0.0000,0.0000,-0.1961,0.0265,0.0000,0.0000,0.0000,-2.5800,0.0000,0.0000,0.0029,-0.0808,0.0212,0.0103,0.0000,0.0000,-0.5692,0.6796,0.6962,0.6695,0.6552,4
89,154,3039716112522,-10.4477,-0.1961,0.0265,0.0110,0.0810,0.0310,1.1670,6536.5278,6708.8423,6431.5269,6283.2476,12.0704,0.0000,1.4648,-2.0752,-0.7935,-14.0062,6.5136,39.3670,0.0323,-0.0183,-0.0037,0.0000,0.0000,0.0000,0.0000,0.0000,0.0000,0.0000,0.0000,-2.5800,0.0000,0.0000,0.0000,0.0000,-2.5800,1.0000,0.0000,0.0000,0.0000,-0.1961,0.0265,0.0000,0.0000,0.0000,-2.5800,0.0000,0.0000,0.0029,-0.0760,0.0292,0.0109,0.0000,0.0000,-0.5692,0.6796,0.6962,0.6695,0.6552,4
90,155,3039720983706,-10.4477,-0.1961,0.0265,0.0110,0.0810,0.0310,1.1670,6536.5278,6708.8423,6431.5269,6283.2476,12.0694,0.0000,1.0986,-3.0518,0.4883,-11.1036,11.8452,8.3804,0.0319,-0.0200,-0.0037,0.0000,0.0000,0.0000,0.0000,0.0000,0.0000,0.0000,0.0000,-2.5800,0.0000,0.0000,0.0000,0.0000,-2.5800,1.0000,0.0000,0.0000,0.0000,-0.1961,0.0265,0.0000,0.0000,0.0000,-2.5800,0.0000,0.0000,0.0029,-0.0695,0.0341,0.0105,0.0000,0.0000,-0.5692,0.6796,0.6962,0.6695,0.6552,4
91,156,3039725856972,-10.4477,-0.1961,0.0265,0.0410,0.0910,0.0210,1.1670,6536.5278,6708.8423,6431.5269,6283.2476,12.0694,0.0000,0.3662,-3.9062,-0.6714,-4.5380,18.3300,-24.8284,0.0309,-0.0214,-0.0038,0.0000,0.0000,0.0000,0.0000,0.0000,0.0000,0.0000,0.0000,-2.5800,0.0000,0.0000,0.0000,0.0000,-2.5800,1.0000,0.0000,0.0000,0.0000,-0.1961,0.0265,0.0000,0.0000,0.0000,-2.5800,0.0000,0.0000,0.0029,-0.0610,0.0361,0.0109,0.0000,0.0000,-0.5692,0.6796,0.6962,0.6695,0.6552,4
92,157,3039748342383,-10.4968,-0.1579,0.0707,0.0410,0.0910,0.0210,1.1670,6828.7119,6549.9238,6259.0898,6407.1187,12.0699,0.0000,1.2817,-0.9766,0.7324,1.1692,15.9207,-54.4187,0.0291,-0.0219,-0.0037,0.0000,0.0000,0.0000,0.0000,0.0000,0.0000,0.0000,0.0000,-2.5800,0.0000,0.0000,0.0000,0.0000,-2.5800,1.0000,0.0000,0.0000,0.0000,-0.1579,0.0707,0.0000,0.0000,0.0000,-2.5800,0.0000,0.0000,0.0029,0.1806,0.1820,0.0100,0.0000,0.0000,-0.5710,0.7103,0.6809,0.6528,0.6671,4
93,158,3039751350809,-10.4968,-0.1579,0.0707,0.0410,0.0910,0.0210,1.1670,6828.7119,6549.9238,6259.0898,6407.1187,12.0692,0.0000,-3.5400,-1.0986,-1.1597,14.1664,2.9607,-75.2300,0.0238,-0.0196,-0.0036,0.0000,0.0000,0.0000,0.0000,0.0000,0.0000,0.0000,0.0000,-2.5800,0.0000,0.0000,0.0000,0.0000,-2.5800,1.0000,0.0000,0.0000,0.0000,-0.1579,0.0707,0.0000,0.0000,0.0000,-2.5800,0.0000,0.0000,0.0029,0.1397,0.1191,0.0091,0.0000,0.0000,-0.5710,0.7103,0.6809,0.6528,0.6671,4
94,159,3039756612117,-10.4968,-0.1579,0.0707,0.0410,0.0910,0.0210,1.1670,6828.7119,6549.9238,6259.0898,6407.1187,12.0687,0.0000,-0.7935,0.4272,-2.5024,11.9715,-6.0964,-27.3538,0.0233,-0.0163,-0.0035,0.0000,0.0000,0.0000,0.0000,0.0000,0.0000,0.0000,0.0000,-2.5800,0.0000,0.0000,0.0000,0.0000,-2.5800,1.0000,0.0000,0.0000,0.0000,-0.1579,0.0707,0.0000,0.0000,0.0000,-2.5800,0.0000,0.0000,0.0029,0.0835,0.0698,0.0089,0.0000,0.0000,-0.5710,0.7103,0.6809,0.6528,0.6671,4
95,160,3039775786259,-10.4968,-0.1579,0.0707,0.0410,0.0910,0.0210,1.1670,6487.6621,6040.6021,6585.0679,6923.0498,12.0685,0.0000,-1.5869,0.6104,2.1973,6.3719,-10.7976,1.3032,0.0236,-0.0151,-0.0033,0.0000,0.0000,0.0000,0.0000,0.0000,0.0000,0.0000,0.0000,-2.5800,0.0000,0.0000,0.0000,0.0000,-2.5800,1.0000,0.0000,0.0000,0.0000,-0.1579,0.0707,0.0000,0.0000,0.0000,-2.5800,0.0000,0.0000,0.0029,0.0392,0.0478,0.0075,0.0000,0.0000,-0.5710,0.6749,0.6317,0.6843,0.7224,4
96,161,3039778762688,-10.4968,-0.1579,0.0707,0.0410,0.0910,0.0210,1.1670,6487.6621,6040.6021,6585.0679,6923.0498,12.0682,0.0000,2.0752,-0.5493,-1.1597,-5.3390,-11.5719,27.6617,0.0280,-0.0147,-0.0036,0.0000,0.0000,0.0000,0.0000,0.0000,0.0000,0.0000,0.0000,-2.5800,0.0000,0.0000,0.0000,0.0000,-2.5800,1.0000,0.0000,0.0000,0.0000,-0.1579,0.0707,0.0000,0.0000,0.0000,-2.5800,0.0000,0.0000,-0.0000,-0.0151,0.0379,0.0103,0.0000,0.0000,-0.5710,0.6749,0.6317,0.6843,0.7224,4
97,162,3039781268835,-10.4968,-0.1579,0.0707,0.0410,0.0910,0.0210,1.1670,6487.6621,6040.6021,6585.0679,6923.0498,12.0682,0.0000,2.9297,0.6714,0.1831,-6.5512,-7.3167,23.8092,0.0294,-0.0152,-0.0036,0.0000,0.0000,0.0000,0.0000,0.0000,0.0000,0.0000,0.0000,-2.5800,0.0000,0.0000,0.0000,0.0000,-2.5800,1.0000,0.0000,0.0000,0.0000,-0.1579,0.0707,0.0000,0.0000,0.0000,-2.5800,0.0000,0.0000,0.0029,-0.0352,0.0364,0.0103,0.0000,0.0000,-0.5710,0.6749,0.6317,0.6843,0.7224,4
98,163,3039785819553,-10.4968,-0.1579,0.0707,0.0410,0.0910,0.0210,1.1670,6487.6621,6040.6021,6585.0679,6923.0498,12.0675,0.0000,1.9531,-1.7090,0.6714,-7.9571,-3.5576,18.6154,0.0304,-0.0160,-0.0036,0.0000,0.0000,0.0000,0.0000,0.0000,0.0000,0.0000,0.0000,-2.5800,0.0000,0.0000,0.0000,0.0000,-2.5800,1.0000,0.0000,0.0000,0.0000,-0.1579,0.0707,0.0000,0.0000,0.0000,-2.5800,0.0000,0.0000,0.0029,-0.0461,0.0374,0.0099,0.0000,0.0000,-0.5710,0.6749,0.6317,0.6843,0.7224,4
99,164,3039790759562,-10.4968,-0.1579,0.0707,0.0410,0.0910,0.0210,1.1670,6487.6621,6040.6021,6585.0679,6923.0498,12.0675,0.0000,-0.1831,0.7935,0.3052,-8.8441,0.5010,11.3616,0.0308,-0.0167,-0.0036,0.0000,0.0000,0.0000,0.0000,0.0000,0.0000,0.0000,0.0000,-2.5800,0.0000,0.0000,0.0000,0.0000,-2.5800,1.0000,0.0000,0.0000,0.0000,-0.1579,0.0707,0.0000,0.0000,0.0000,-2.5800,0.0000,0.0000,0.0029,-0.0503,0.0375,0.0098,0.0000,0.0000,-0.5710,0.6749,0.6317,0.6843,0.7224,4
100,165,3039796187852,-10.4968,-0.1579,0.0707,0.0410,0.0910,0.0210,1.1670,6487.6621,6040.6021,6585.0679,6923.0498,12.0680,0.0000,0.6714,0.6714,1.0986,-7.5626,2.5723,6.3444,0.0308,-0.0175,-0.0035,0.0000,0.0000,0.0000,0.0000,0.0000,0.0000,0.0000,0.0000,-2.5800,0.0000,0.0000,0.0000,0.0000,-2.5800,1.0000,0.0000,0.0000,0.0000,-0.1579,0.0707,0.0000,0.0000,0.0000,-2.5800,0.0000,0.0000,0.0029,-0.0511,0.0382,0.0090,0.0000,0.0000,-0.5710,0.6749,0.6317,0.6843,0.7224,4
101,166,3039801063535,-10.4968,-0.1579,0.0707,0.0410,0.0910,0.0210,1.1670,6487.6621,6040.6021,6585.0679,6923.0498,12.0685,0.0000,-0.5493,-0.4883,-0.3662,-6.4986,6.8828,1.6207,0.0305,-0.0183,-0.0035,0.0000,0.0000,0.0000,0.0000,0.0000,0.0000,0.0000,0.0000,-2.5800,0.0000,0.0000,0.0000,0.0000,-2.5800,1.0000,0.0000,0.0000,0.0000,-0.1579,0.0707,0.0000,0.0000,0.0000,-2.5800,0.0000,0.0000,0.0029,-0.0498,0.0386,0.0094,0.0000,0.0000,-0.5710,0.6749,0.6317,0.6843,0.7224,4
102,167,3039805877308,-10.4968,-0.1579,0.0707,0.0410,0.0910,0.0210,1.1670,6487.6621,6040.6021,6585.0679,6923.0498,12.0687,0.0000,-1.8921,-0.4272,0.3052,-3.5864,9.7835,-6.2918,0.0297,-0.0190,-0.0035,0.0000,0.0000,0.0000,0.0000,0.0000,0.0000,0.0000,0.0000,-2.5800,0.0000,0.0000,0.0000,0.0000,-2.5800,1.0000,0.0000,0.0000,0.0000,-0.1579,0.0707,0.0000,0.0000,0.0000,-2.5800,0.0000,0.0000,0.0029,-0.0456,0.0382,0.0092,0.0000,0.0000,-0.5710,0.6749,0.6317,0.6843,0.7224,4
103,168,3039810807652,-10.4968,-0.1579,0.0707,0.0410,0.0910,0.0210,1.1670,6487.6621,6040.6021,6585.0679,6923.0498,12.0687,0.0000,-0.1831,-0.7935,-0.8545,-0.3993,12.4997,-17.6152,0.0288,-0.0194,-0.0036,0.0000,0.0000,0.0000,0.0000,0.0000,0.0000,0.0000,0.0000,-2.5800,0.0000,0.0000,0.0000,0.0000,-2.5800,1.0000,0.0000,0.0000,0.0000,-0.1579,0.0707,0.0000,0.0000,0.0000,-2.5800,0.0000,0.0000,0.0029,-0.0417,0.0364,0.0098,0.0000,0.0000,-0.5710,0.6749,0.6317,0.6843,0.7224,4
104,169,3039816163658,-10.4968,-0.1579,0.0707,0.0410,0.0910,0.0210,1.1670,6487.6621,6040.6021,6585.0679,6923.0498,12.0694,0.0000,-1.3428,-2.0752,-1.2207,2.1136,13.9837,-31.9867,0.0274,-0.0196,-0.0037,0.0000,0.0000,0.0000,0.0000,0.0000,0.0000,0.0000,0.0000,-2.5800,0.0000,0.0000,0.0000,0.0000,-2.5800,1.0000,0.0000,0.0000,0.0000,-0.1579,0.0707,0.0000,0.0000,0.0000,-2.5800,0.0000,0.0000,0.0029,-0.0365,0.0338,0.0106,0.0000,0.0000,-0.5710,0.6749,0.6317,0.6843,0.7224,4
105,170,3039820760080,-10.4968,-0.1579,0.0707,0.0410,0.0910,0.0210,1.1670,6487.6621,6040.6021,6585.0679,6923.0498,12.0689,0.0000,-1.4038,-1.2817,-0.4883,7.5482,12.4614,-46.4656,0.0259,-0.0194,-0.0037,0.0000,0.0000,0.0000,0.0000,0.0000,0.0000,0.0000,0.0000,-2.5800,0.0000,0.0000,0.0000,0.0000,-2.5800,1.0000,0.0000,0.0000,0.0000,-0.1579,0.0707,0.0000,0.0000,0.0000,-2.5800,0.0000,0.0000,0.0029,-0.0318,0.0301,0.0107,0.0000,0.0000,-0.5710,0.6749,0.6317,0.6843,0.7224,4
106,171,3039825819451,-10.4968,-0.1579,0.0707,0.0410,0.0910,0.0210,1.1670,6487.6621,6040.6021,6585.0679,6923.0498,12.0689,0.0000,-0.9155,0.4883,-1.1597,10.4532,10.9654,-58.2807,0.0245,-0.0185,-0.0038,0.0000,0.0000,0.0000,0.0000,0.0000,0.0000,0.0000,0.0000,-2.5800,0.0000,0.0000,0.0000,0.0000,-2.5800,1.0000,0.0000,0.0000,0.0000,-0.1579,0.0707,0.0000,0.0000,0.0000,-2.5800,0.0000,0.0000,0.0029,-0.0293,0.0232,0.0113,0.0000,0.0000,-0.5710,0.6749,0.6317,0.6843,0.7224,4
107,172,3039831099716,-10.4968,-0.1579,0.0707,0.0410,0.0910,0.0210,1.1670,6487.6621,6040.6021,6585.0679,6923.0498,12.0687,0.0000,-1.7700,0.8545,-0.0610,11.2111,5.1782,-61.5961,0.0231,-0.0173,-0.0037,0.0000,0.0000,0.0000,0.0000,0.0000,0.0000,0.0000,0.0000,-2.5800,0.0000,0.0000,0.0000,0.0000,-2.5800,1.0000,0.0000,0.0000,0.0000,-0.1579,0.0707,0.0000,0.0000,0.0000,-2.5800,0.0000,0.0000,0.0029,-0.0278,0.0164,0.0110,0.0000,0.0000,-0.5710,0.6749,0.6317,0.6843,0.7224,4
108,173,3039835740840,-10.4968,-0.1579,0.0707,0.0410,0.0910,0.0210,1.1670,6487.6621,6040.6021,6585.0679,6923.0498,12.0677,0.0000,-1.8921,1.2817,0.6104,9.3127,2.3662,-52.0939,0.0223,-0.0160,-0.0037,0.0000,0.0000,0.0000,0.0000,0.0000,0.0000,0.0000,0.0000,-2.5800,0.0000,0.0000,0.0000,0.0000,-2.5800,1.0000,0.0000,0.0000,0.0000,-0.1579,0.0707,0.0000,0.0000,0.0000,-2.5800,0.0000,0.0000,0.0029,-0.0299,0.0110,0.0104,0.0000,0.0000,-0.5710,0.6749,0.6317,0.6843,0.7224,4
109,174,3039848717192,-10.4968,-0.1579,0.0707,0.0410,0.0910,0.0210,1.1670,6487.6621,6040.6021,6585.0679,6923.0498,12.0675,0.0000,-1.9531,3.2959,2.5024,4.6432,-13.3508,0.8068,0.0221,-0.0137,-0.0035,0.0000,0.0000,0.0000,0.0000,0.0000,0.0000,0.0000,0.0000,-2.5800,0.0000,0.0000,0.0000,0.0000,-2.5800,1.0000,0.0000,0.0000,0.0000,-0.1579,0.0707,0.0000,0.0000,0.0000,-2.5800,0.0000,0.0000,-0.0000,-0.0346,0.0011,0.0084,0.0000,0.0000,-0.5710,0.6749,0.6317,0.6843,0.7224,4
110,175,3039850929870,-10.4968,-0.1579,0.0707,0.0410,0.0910,0.0210,1.1670,6487.6621,6040.6021,6585.0679,6923.0498,12.0673,0.0000,0.6714,0.4883,-0.4883,-1.3031,-22.2233,26.7021,0.0234,-0.0132,-0.0035,0.0000,0.0000,0.0000,0.0000,0.0000,0.0000,0.0000,0.0000,-2.5800,0.0000,0.0000,0.0000,0.0000,-2.5800,1.0000,0.0000,0.0000,0.0000,-0.1579,0.0707,0.0000,0.0000,0.0000,-2.5800,0.0000,0.0000,-0.0000,-0.0475,0.0050,0.0092,0.0000,0.0000,-0.5710,0.6749,0.6317,0.6843,0.7224,4
111,176,3039855887628,-10.4968,-0.1579,0.0707,0.0410,0.0910,0.0210,1.1670,6487.6621,6040.6021,6585.0679,6923.0498,12.0665,0.0000,0.7324,-0.1221,1.4038,-4.6958,-24.6015,42.2217,0.0257,-0.0134,-0.0034,0.0000,0.0000,0.0000,0.0000,0.0000,0.0000,0.0000,0.0000,-2.5800,0.0000,0.0000,0.0000,0.0000,-2.5800,1.0000,0.0000,0.0000,0.0000,-0.1579,0.0707,0.0000,0.0000,0.0000,-2.5800,0.0000,0.0000,-0.0000,-0.0621,0.0118,0.0085,0.0000,0.0000,-0.5710,0.6749,0.6317,0.6843,0.7224,4
112,177,3039860771560,-10.4968,-0.1579,0.0707,0.0410,0.0910,0.0210,1.1670,6487.6621,6040.6021,6585.0679,6923.0498,12.0658,0.0000,2.6245,-1.2207,-0.7324,-5.3605,-22.7723,45.7734,0.0284,-0.0140,-0.0035,0.0000,0.0000,0.0000,0.0000,0.0000,0.0000,0.0000,0.0000,-2.5800,0.0000,0.0000,0.0000,0.0000,-2.5800,1.0000,0.0000,0.0000,0.0000,-0.1579,0.0707,0.0000,0.0000,0.0000,-2.5800,0.0000,0.0000,-0.0000,-0.0749,0.0191,0.0095,0.0000,0.0000,-0.5710,0.6749,0.6317,0.6843,0.7224,4
113,178,3039866107527,-10.4968,-0.1579,0.0707,0.0410,0.0910,0.0210,1.1670,6487.6621,6040.6021,6585.0679,6923.0498,12.0663,0.0000,3.7231,-2.6245,-0.4272,-6.7018,-20.4733,33.3687,0.0311,-0.0148,-0.0036,0.0000,0.0000,0.0000,0.0000,0.0000,0.0000,0.0000,0.0000,-2.5800,0.0000,0.0000,0.0000,0.0000,-2.5800,1.0000,0.0000,0.0000,0.0000,-0.1579,0.0707,0.0000,0.0000,0.0000,-2.5800,0.0000,0.0000,-0.0000,-0.0836,0.0253,0.0103,0.0000,0.0000,-0.5710,0.6749,0.6317,0.6843,0.7224,4
114,179,3039870806229,-10.4968,-0.1579,0.0707,0.0410,0.0910,0.0210,1.1670,6487.6621,6040.6021,6585.0679,6923.0498,12.0665,0.0000,4.3335,-1.4038,-0.1831,-6.0802,-13.4850,12.1731,0.0335,-0.0156,-0.0037,0.0000,0.0000,0.0000,0.0000,0.0000,0.0000,0.0000,0.0000,-2.5800,0.0000,0.0000,0.0000,0.0000,-2.5800,1.0000,0.0000,0.0000,0.0000,-0.1579,0.0707,0.0000,0.0000,0.0000,-2.5800,0.0000,0.0000,0.0029,-0.0886,0.0297,0.0107,0.0000,0.0000,-0.5710,0.6749,0.6317,0.6843,0.7224,4
115,180,3039875755237,-10.4968,-0.1579,0.0707,0.0410,0.0910,0.0210,1.1670,6487.6621,6040.6021,6585.0679,6923.0498,12.0670,0.0000,3.9673,-1.2207,-1.4038,-4.2535,-2.5484,-12.4405,0.0352,-0.0163,-0.0038,0.0000,0.0000,0.0000,0.0000,0.0000,0.0000,0.0000,0.0000,-2.5800,0.0000,0.0000,0.0000,0.0000,-2.5800,1.0000,0.0000,0.0000,0.0000,-0.1579,0.0707,0.0000,0.0000,0.0000,-2.5800,0.0000,0.0000,0.0029,-0.0877,0.0322,0.0119,0.0000,0.0000,-0.5710,0.6749,0.6317,0.6843,0.7224,4
116,181,3039881290099,-10.4968,-0.1579,0.0707,0.0410,0.0910,0.0210,1.1670,6487.6621,6040.6021,6585.0679,6923.0498,12.0675,0.0000,1.9531,-1.8311,1.0376,0.6742,5.4084,-28.6403,0.0356,-0.0169,-0.0038,0.0000,0.0000,0.0000,0.0000,0.0000,0.0000,0.0000,0.0000,-2.5800,0.0000,0.0000,0.0000,0.0000,-2.5800,1.0000,0.0000,0.0000,0.0000,-0.1579,0.0707,0.0000,0.0000,0.0000,-2.5800,0.0000,0.0000,0.0029,-0.0792,0.0330,0.0111,0.0000,0.0000,-0.5710,0.6749,0.6317,0.6843,0.7224,4
117,182,3039885762992,-10.4968,-0.1579,0.0707,0.0410,0.0910,0.0210,1.1670,6487.6621,6040.6021,6585.0679,6923.0498,12.0680,0.0000,0.2441,0.3052,-1.5259,-2.2881,13.8470,-32.1275,0.0350,-0.0167,-0.0039,0.0000,0.0000,0.0000,0.0000,0.0000,0.0000,0.0000,0.0000,-2.5800,0.0000,0.0000,0.0000,0.0000,-2.5800,1.0000,0.0000,0.0000,0.0000,-0.1579,0.0707,0.0000,0.0000,0.0000,-2.5800,0.0000,0.0000,0.0029,-0.0675,0.0293,0.0120,0.0000,0.0000,-0.5710,0.6749,0.6317,0.6843,0.7224,4
118,183,3039890768328,-10.4968,-0.1579,0.0707,0.0410,0.0910,0.0210,1.1670,6487.6621,6040.6021,6585.0679,6923.0498,12.0680,0.0000,-1.0986,0.6104,1.9531,-3.8781,17.1314,-28.6976,0.0335,-0.0169,-0.0037,0.0000,0.0000,0.0000,0.0000,0.0000,0.0000,0.0000,0.0000,-2.5800,0.0000,0.0000,0.0000,0.0000,-2.5800,1.0000,0.0000,0.0000,0.0000,-0.1579,0.0707,0.0000,0.0000,0.0000,-2.5800,0.0000,0.0000,0.0029,-0.0537,0.0284,0.0102,0.0000,0.0000,-0.5710,0.6749,0.6317,0.6843,0.7224,4
119,184,3039895793703,-10.4968,-0.1579,0.0707,0.0410,0.0910,0.0210,1.1670,6487.6621,6040.6021,6585.0679,6923.0498,12.0680,0.0000,-2.2583,0.9155,-1.5869,-7.5076,22.2880,-17.7585,0.0316,-0.0171,-0.0038,0.0000,0.0000,0.0000,0.0000,0.0000,0.0000,0.0000,0.0000,-2.5800,0.0000,0.0000,0.0000,0.0000,-2.5800,1.0000,0.0000,0.0000,0.0000,-0.1579,0.0707,0.0000,0.0000,0.0000,-2.5800,0.0000,0.0000,0.0029,-0.0417,0.0285,0.0111,0.0000,0.0000,-0.5710,0.6749,0.6317,0.6843,0.7224,4
120,185,3039901330815,-10.4968,-0.1579,0.0707,0.0410,0.0910,0.0210,1.1670,6487.6621,6040.6021,6585.0679,6923.0498,12.0677,0.0000,-2.1973,0.1831,1.8311,-8.3611,21.0726,-7.1487,0.0292,-0.0178,-0.0036,0.0000,0.0000,0.0000,0.0000,0.0000,0.0000,0.0000,0.0000,-2.5800,0.0000,0.0000,0.0000,0.0000,-2.5800,1.0000,0.0000,0.0000,0.0000,-0.1579,0.0707,0.0000,0.0000,0.0000,-2.5800,0.0000,0.0000,0.0029,-0.0306,0.0312,0.0094,0.0000,0.0000,-0.5710,0.6749,0.6317,0.6843,0.7224,4
121,186,3039905809082,-10.4968,-0.1579,0.0707,0.0410,0.0910,0.0210,1.1670,6487.6621,6040.6021,6585.0679,6923.0498,12.0673,0.0000,-1.8311,-1.8311,-1.2207,-8.1842,17.2249,0.0859,0.0270,-0.0187,-0.0037,0.0000,0.0000,0.0000,0.0000,0.0000,0.0000,0.0000,0.0000,-2.5800,0.0000,0.0000,0.0000,0.0000,-2.5800,1.0000,0.0000,0.0000,0.0000,-0.1579,0.0707,0.0000,0.0000,0.0000,-2.5800,0.0000,0.0000,0.0029,-0.0239,0.0348,0.0101,0.0000,0.0000,-0.5710,0.6749,0.6317,0.6843,0.7224,4
122,187,3039910742092,-10.4968,-0.1579,0.0707,0.0410,0.0910,0.0210,1.1670,6487.6621,6040.6021,6585.0679,6923.0498,12.0675,0.0000,-2.0142,-2.7466,0.9766,-6.1113,13.0343,0.6087,0.0251,-0.0197,-0.0036,0.0000,0.0000,0.0000,0.0000,0.0000,0.0000,0.0000,0.0000,-2.5800,0.0000,0.0000,0.0000,0.0000,-2.5800,1.0000,0.0000,0.0000,0.0000,-0.1579,0.0707,0.0000,0.0000,0.0000,-2.5800,0.0000,0.0000,0.0029,-0.0213,0.0379,0.0093,0.0000,0.0000,-0.5710,0.6749,0.6317,0.6843,0.7224,4
123,188,3039915790298,-10.4968,-0.1579,0.0707,0.0410,0.0910,0.0210,1.1670,6487.6621,6040.6021,6585.0679,6923.0498,12.0677,0.0000,-0.6714,-3.9062,-0.7324,1.7980,5.6409,-4.1174,0.0238,-0.0207,-0.0036,0.0000,0.0000,0.0000,0.0000,0.0000,0.0000,0.0000,0.0000,-2.5800,0.0000,0.0000,0.0000,0.0000,-2.5800,1.0000,0.0000,0.0000,0.0000,-0.1579,0.0707,0.0000,0.0000,0.0000,-2.5800,0.0000,0.0000,0.0029,-0.0226,0.0394,0.0098,0.0000,0.0000,-0.5710,0.6749,0.6317,0.6843,0.7224,4
124,189,3039921232379,-10.4968,-0.1579,0.0707,0.0410,0.0910,0.0210,1.1670,6487.6621,6040.6021,6585.0679,6923.0498,12.0670,0.0000,-0.6104,-1.0986,0.9155,10.1017,0.3836,-17.5771,0.0232,-0.0206,-0.0035,0.0000,0.0000,0.0000,0.0000,0.0000,0.0000,0.0000,0.0000,-2.5800,0.0000,0.0000,0.0000,0.0000,-2.5800,1.0000,0.0000,0.0000,0.0000,-0.1579,0.0707,0.0000,0.0000,0.0000,-2.5800,0.0000,0.0000,0.0029,-0.0277,0.0344,0.0091,0.0000,0.0000,-0.5710,0.6749,0.6317,0.6843,0.7224,4
125,190,3039925909958,-10.4968,-0.1579,0.0707,0.0010,0.0910,0.0110,1.1670,6487.6621,6040.6021,6585.0679,6923.0498,12.0675,0.0000,-0.3662,1.1597,-0.3662,15.2566,-6.0245,-31.2754,0.0231,-0.0195,-0.0036,0.0000,0.0000,0.0000,0.0000,0.0000,0.0000,0.0000,0.0000,-2.5800,0.0000,0.0000,0.0000,0.0000,-2.5800,1.0000,0.0000,0.0000,0.0000,-0.1579,0.0707,0.0000,0.0000,0.0000,-2.5800,0.0000,0.0000,0.0029,-0.0340,0.0247,0.0095,0.0000,0.0000,-0.5710,0.6749,0.6317,0.6843,0.7224,4
126,191,3039930731397,-10.4968,-0.1579,0.0707,0.0010,0.0910,0.0110,1.1670,6719.2671,6040.6021,6585.0679,6923.0498,12.0673,0.0000,-0.1831,2.0142,1.0376,13.9894,-10.2654,-41.3600,0.0236,-0.0177,-0.0035,0.0000,0.0000,0.0000,0.0000,0.0000,0.0000,0.0000,0.0000,-2.5800,0.0000,0.0000,0.0000,0.0000,-2.5800,1.0000,0.0000,0.0000,0.0000,-0.1579,0.0707,0.0000,0.0000,0.0000,-2.5800,0.0000,0.0000,0.0029,-0.0421,0.0144,0.0089,0.0000,0.0000,-0.5710,0.6749,0.6317,0.6843,0.7224,4
127,192,3039946601228,-10.5288,-0.1544,0.0017,0.0010,0.0910,0.0110,1.1670,6719.2671,6518.8384,6382.3296,6414.2119,12.0675,0.0000,-0.6104,2.8687,-0.4272,10.4843,-11.1428,-44.7685,0.0245,-0.0161,-0.0036,0.0000,0.0000,0.0000,0.0000,0.0000,0.0000,0.0000,0.0000,-2.5800,0.0000,0.0000,0.0000,0.0000,-2.5800,1.0000,0.0000,0.0000,0.0000,-0.1544,0.0017,0.0000,0.0000,0.0000,-2.5800,0.0000,0.0000,0.0029,-0.0289,-0.2520,0.0094,0.0000,0.0000,-0.5728,0.6971,0.6778,0.6647,0.6677,4
128,193,3039949632068,-10.5288,-0.1544,0.0017,0.0010,0.0910,0.0110,1.1670,6719.2671,6518.8384,6382.3296,6414.2119,12.0685,0.0000,-0.7324,0.6104,-0.3052,3.4023,-11.3969,-26.3918,0.0264,-0.0140,-0.0036,0.0000,0.0000,0.0000,0.0000,0.0000,0.0000,0.0000,0.0000,-2.5800,0.0000,0.0000,0.0000,0.0000,-2.5800,1.0000,0.0000,0.0000,0.0000,-0.1544,0.0017,0.0000,0.0000,0.0000,-2.5800,0.0000,0.0000,-0.0000,-0.0468,-0.1834,0.0099,0.0000,0.0000,-0.5728,0.6971,0.6778,0.6647,0.6677,4
