loop_index, counter, last_step_ns, T_ref, theta_ref, phi_ref, uwind, vwind, wwind, rho, rpm1, rpm2, rpm3, rpm4,v_batt,alt,gyro_roll,gyro_pitch,gyro_yaw,accel_X,accel_Y,accel_Z,roll,pitch,yaw,X,Y,Z,Xdot,Ydot,Zdot,x0,y0,z0,e.xbee_time,xbee_time_received_ns,xbee_x,xbee_y,xbee_z,xbee_qw,xbee_qx,xbee_qy,xbee_qz,sp_roll,sp_pitch,sp_yaw,sp_X,sp_Y,sp_Z,sp_Xdot,sp_Ydot,sp_Zdot,u_roll,u_pitch,u_yaw,u_X,u_Y,u_Z,mot_1,mot_2,mot_3,mot_4,flight mode
1,78,4075129076519,-10.4271,-0.2075,0.0164,0.0510,0.6410,0.3110,1.1659,23.4375,23.4375,23.4375,23.4375,12.0694,0.0000,0.2441,-0.3662,1.0376,4.1937,-22.3336,4.5757,0.0273,-0.0172,-0.0028,0.0000,0.0000,0.0000,0.0000,0.0000,0.0000,-0.0300,-0.0500,2.6400,0.0000,0.0000,-0.0300,-0.0500,2.6400,1.0000,0.0000,0.0000,0.0000,0.0000,0.0000,0.0000,-0.0300,-0.0500,2.6400,0.0000,0.0000,-0.0000,-0.0000,-0.0000,0.0000,0.0000,0.0000,-0.6000,0.7159,0.7159,0.7159,0.7159,3
2,79,4075203631855,-10.4134,-0.2137,0.0171,0.0510,0.6310,0.3710,1.1659,23.4375,23.4375,23.4375,23.4375,12.0723,0.0000,-0.7324,-0.3662,-0.4272,4.7556,11.8141,-22.9738,0.0418,-0.0188,-0.0033,0.0000,0.0000,0.0000,0.0000,0.0000,0.0000,-0.0300,-0.0500,2.6400,0.0000,0.0000,-0.0300,-0.0500,2.6400,1.0000,0.0000,0.0000,0.0000,0.0000,0.0000,0.0000,-0.0300,-0.0500,2.6400,0.0000,0.0000,-0.0000,-0.0020,0.0020,0.0020,0.0000,0.0000,-0.6000,0.7177,0.7153,0.7153,0.7153,3
3,80,4075207068071,-10.4134,-0.2137,0.0171,0.0510,0.6310,0.3710,1.1659,23.4375,23.4375,23.4375,23.4375,12.0752,0.0000,-1.1597,1.2817,1.0986,10.5943,-0.1079,-50.3992,0.0388,-0.0165,-0.0031,0.0000,0.0000,0.0000,0.0000,0.0000,0.0000,-0.0300,-0.0500,2.6400,0.0000,0.0000,-0.0300,-0.0500,2.6400,1.0000,0.0000,0.0000,0.0000,0.0000,0.0000,0.0000,-0.0300,-0.0500,2.6400,0.0000,0.0000,-0.0000,0.0040,-0.0040,0.0014,0.0000,0.0000,-0.6000,0.7139,0.7155,0.7188,0.7155,3
4,81,4075211899329,-10.4134,-0.2137,0.0171,0.0510,0.6310,0.3710,1.1659,23.4375,23.4375,23.4375,23.4375,12.0767,0.0000,-0.9766,0.7324,1.6479,9.1095,-9.5006,-40.7347,0.0387,-0.0140,-0.0030,0.0000,0.0000,0.0000,0.0000,0.0000,0.0000,-0.0300,-0.0500,2.6400,0.0000,0.0000,-0.0300,-0.0500,2.6400,1.0000,0.0000,0.0000,0.0000,0.0000,0.0000,0.0000,-0.0300,-0.0500,2.6400,0.0000,0.0000,-0.0000,-0.0001,-0.0060,0.0014,0.0000,0.0000,-0.6000,0.7145,0.7173,0.7181,0.7136,3
5,82,4075216106287,-10.4134,-0.2137,0.0171,0.0510,0.6310,0.3710,1.1659,23.4375,23.4375,23.4375,23.4375,12.0784,0.0000,-0.7324,1.0986,-0.9766,8.6337,-14.3864,-31.2730,0.0394,-0.0130,-0.0031,0.0000,0.0000,0.0000,0.0000,0.0000,0.0000,-0.0300,-0.0500,2.6400,0.0000,0.0000,-0.0300,-0.0500,2.6400,1.0000,0.0000,0.0000,0.0000,0.0000,0.0000,0.0000,-0.0300,-0.0500,2.6400,0.0000,0.0000,-0.0000,-0.0077,-0.0080,0.0033,0.0000,0.0000,-0.6000,0.7168,0.7197,0.7170,0.7101,3
6,83,4075221099568,-10.4134,-0.2137,0.0171,0.0510,0.6310,0.3710,1.1659,23.4375,23.4375,23.4375,23.4375,12.0796,0.0000,0.1221,-0.1831,1.2817,7.3330,-16.0813,-21.1264,0.0407,-0.0121,-0.0030,0.0000,0.0000,0.0000,0.0000,0.0000,0.0000,-0.0300,-0.0500,2.6400,0.0000,0.0000,-0.0300,-0.0500,2.6400,1.0000,0.0000,0.0000,0.0000,0.0000,0.0000,0.0000,-0.0300,-0.0500,2.6400,0.0000,0.0000,-0.0000,-0.0100,-0.0095,0.0033,0.0000,0.0000,-0.6000,0.7171,0.7209,0.7168,0.7089,3
7,84,4075226402645,-10.4134,-0.2137,0.0171,0.0510,0.6310,0.3710,1.1659,23.4375,23.4375,23.4375,23.4375,12.0808,0.0000,0.0000,-0.3662,-1.6479,4.7843,-19.1068,-15.0255,0.0422,-0.0114,-0.0032,0.0000,0.0000,0.0000,0.0000,0.0000,0.0000,-0.0300,-0.0500,2.6400,0.0000,0.0000,-0.0300,-0.0500,2.6400,1.0000,0.0000,0.0000,0.0000,0.0000,0.0000,0.0000,-0.0300,-0.0500,2.6400,0.0000,0.0000,-0.0000,-0.0120,-0.0098,0.0055,0.0000,0.0000,-0.6000,0.7183,0.7209,0.7169,0.7075,3
8,85,4075231065007,-10.4134,-0.2137,0.0171,0.0510,0.6310,0.3710,1.1659,23.4375,23.4375,23.4375,23.4375,12.0820,0.0000,0.6104,-0.6104,0.7324,3.9451,-20.5763,-13.3356,0.0441,-0.0110,-0.0031,0.0000,0.0000,0.0000,0.0000,0.0000,0.0000,-0.0300,-0.0500,2.6400,0.0000,0.0000,-0.0300,-0.0500,2.6400,1.0000,0.0000,0.0000,0.0000,0.0000,0.0000,0.0000,-0.0300,-0.0500,2.6400,0.0000,0.0000,-0.0000,-0.0140,-0.0083,0.0057,0.0000,0.0000,-0.6000,0.7194,0.7210,0.7159,0.7073,3
9,86,4075236190063,-10.4134,-0.2137,0.0171,0.0510,0.6310,0.3710,1.1659,23.4375,23.4375,23.4375,23.4375,12.0842,0.0000,1.9531,-0.7324,-1.5869,2.4938,-20.0969,-14.2569,0.0462,-0.0106,-0.0033,0.0000,0.0000,0.0000,0.0000,0.0000,0.0000,-0.0300,-0.0500,2.6400,0.0000,0.0000,-0.0300,-0.0500,2.6400,1.0000,0.0000,0.0000,0.0000,0.0000,0.0000,0.0000,-0.0300,-0.0500,2.6400,0.0000,0.0000,-0.0000,-0.0160,-0.0068,0.0076,0.0000,0.0000,-0.6000,0.7211,0.7206,0.7154,0.7066,3
10,87,4075241586005,-10.4134,-0.2137,0.0171,0.0510,0.6310,0.3710,1.1659,23.4375,23.4375,23.4375,23.4375,12.0844,0.0000,1.4648,-1.7700,0.5493,2.3575,-16.7718,-15.8084,0.0482,-0.0105,-0.0033,0.0000,0.0000,0.0000,0.0000,0.0000,0.0000,-0.0300,-0.0500,2.6400,0.0000,0.0000,-0.0300,-0.0500,2.6400,1.0000,0.0000,0.0000,0.0000,0.0000,0.0000,0.0000,-0.0300,-0.0500,2.6400,0.0000,0.0000,-0.0000,-0.0180,-0.0043,0.0077,0.0000,0.0000,-0.6000,0.7224,0.7204,0.7141,0.7067,3
11,88,4075246054306,-10.4134,-0.2137,0.0171,0.0510,0.6310,0.3710,1.1659,23.4375,23.4375,23.4375,23.4375,12.0861,0.0000,2.3804,-0.1221,-0.7935,0.7531,-14.9881,-16.8682,0.0499,-0.0103,-0.0034,0.0000,0.0000,0.0000,0.0000,0.0000,0.0000,-0.0300,-0.0500,2.6400,0.0000,0.0000,-0.0300,-0.0500,2.6400,1.0000,0.0000,0.0000,0.0000,0.0000,0.0000,0.0000,-0.0300,-0.0500,2.6400,0.0000,0.0000,-0.0000,-0.0200,-0.0035,0.0087,0.0000,0.0000,-0.6000,0.7236,0.7204,0.7135,0.7061,3
12,89,4075251069459,-10.4134,-0.2137,0.0171,0.0510,0.6310,0.3710,1.1659,23.4375,23.4375,23.4375,23.4375,12.0876,0.0000,1.5869,0.0610,0.5493,1.6689,-10.9390,-15.4241,0.0514,-0.0102,-0.0033,0.0000,0.0000,0.0000,0.0000,0.0000,0.0000,-0.0300,-0.0500,2.6400,0.0000,0.0000,-0.0300,-0.0500,2.6400,1.0000,0.0000,0.0000,0.0000,0.0000,0.0000,0.0000,-0.0300,-0.0500,2.6400,0.0000,0.0000,-0.0000,-0.0220,-0.0021,0.0085,0.0000,0.0000,-0.6000,0.7246,0.7207,0.7124,0.7059,3
13,90,4075256134273,-10.4134,-0.2137,0.0171,0.0510,0.6310,0.3710,1.1659,23.4375,23.4375,23.4375,23.4375,12.0893,0.0000,1.2207,0.1221,-0.1831,-1.9677,-6.9691,-11.1205,0.0525,-0.0100,-0.0034,0.0000,0.0000,0.0000,0.0000,0.0000,0.0000,-0.0300,-0.0500,2.6400,0.0000,0.0000,-0.0300,-0.0500,2.6400,1.0000,0.0000,0.0000,0.0000,0.0000,0.0000,0.0000,-0.0300,-0.0500,2.6400,0.0000,0.0000,-0.0000,-0.0240,-0.0017,0.0089,0.0000,0.0000,-0.6000,0.7254,0.7211,0.7118,0.7053,3
14,91,4075261418103,-10.4134,-0.2137,0.0171,0.0510,0.6310,0.3710,1.1659,23.4375,23.4375,23.4375,23.4375,12.0907,0.0000,0.6714,1.4648,0.3052,-3.7562,-3.3994,-3.4920,0.0532,-0.0101,-0.0033,0.0000,0.0000,0.0000,0.0000,0.0000,0.0000,-0.0300,-0.0500,2.6400,0.0000,0.0000,-0.0300,-0.0500,2.6400,1.0000,0.0000,0.0000,0.0000,0.0000,0.0000,0.0000,-0.0300,-0.0500,2.6400,0.0000,0.0000,-0.0000,-0.0251,-0.0000,0.0087,0.0000,0.0000,-0.6000,0.7263,0.7209,0.7109,0.7055,3
15,92,4075266021597,-10.4134,-0.2137,0.0171,0.0510,0.6310,0.3710,1.1659,23.4375,23.4375,23.4375,23.4375,12.0912,0.0000,0.4272,0.3662,0.3662,-7.2063,0.5514,6.5616,0.0535,-0.0104,-0.0033,0.0000,0.0000,0.0000,0.0000,0.0000,0.0000,-0.0300,-0.0500,2.6400,0.0000,0.0000,-0.0300,-0.0500,2.6400,1.0000,0.0000,0.0000,0.0000,0.0000,0.0000,0.0000,-0.0300,-0.0500,2.6400,0.0000,0.0000,-0.0000,-0.0239,0.0028,0.0086,0.0000,0.0000,-0.6000,0.7267,0.7197,0.7104,0.7068,3
16,93,4075271011169,-10.4134,-0.2137,0.0171,0.0510,0.6310,0.3710,1.1659,23.4375,23.4375,23.4375,23.4375,12.0912,0.0000,-0.5493,0.0610,0.1221,-10.2715,3.8309,17.9470,0.0535,-0.0111,-0.0033,0.0000,0.0000,0.0000,0.0000,0.0000,0.0000,-0.0300,-0.0500,2.6400,0.0000,0.0000,-0.0300,-0.0500,2.6400,1.0000,0.0000,0.0000,0.0000,0.0000,0.0000,0.0000,-0.0300,-0.0500,2.6400,0.0000,0.0000,-0.0000,-0.0207,0.0070,0.0086,0.0000,0.0000,-0.6000,0.7270,0.7175,0.7101,0.7091,3
17,94,4075276449897,-10.4134,-0.2137,0.0171,0.0510,0.6310,0.3710,1.1659,23.4375,23.4375,23.4375,23.4375,12.0917,0.0000,-0.1221,0.4883,0.1221,-13.1908,6.3841,29.3707,0.0532,-0.0120,-0.0033,0.0000,0.0000,0.0000,0.0000,0.0000,0.0000,-0.0300,-0.0500,2.6400,0.0000,0.0000,-0.0300,-0.0500,2.6400,1.0000,0.0000,0.0000,0.0000,0.0000,0.0000,0.0000,-0.0300,-0.0500,2.6400,0.0000,0.0000,-0.0000,-0.0171,0.0115,0.0086,0.0000,0.0000,-0.6000,0.7273,0.7150,0.7098,0.7116,3
18,95,4075281090220,-10.4134,-0.2137,0.0171,0.0510,0.6310,0.3710,1.1659,23.4375,23.4375,23.4375,23.4375,12.0929,0.0000,-0.1831,-1.2207,0.2441,-13.1406,9.3736,35.8941,0.0527,-0.0134,-0.0033,0.0000,0.0000,0.0000,0.0000,0.0000,0.0000,-0.0300,-0.0500,2.6400,0.0000,0.0000,-0.0300,-0.0500,2.6400,1.0000,0.0000,0.0000,0.0000,0.0000,0.0000,0.0000,-0.0300,-0.0500,2.6400,0.0000,0.0000,-0.0000,-0.0135,0.0175,0.0085,0.0000,0.0000,-0.6000,0.7280,0.7121,0.7090,0.7145,3
19,96,4075286401088,-10.4134,-0.2137,0.0171,0.0510,0.6310,0.3710,1.1659,23.4375,23.4375,23.4375,23.4375,12.0936,0.0000,-0.1831,-1.0376,-0.0610,-14.1927,12.3319,36.6483,0.0520,-0.0148,-0.0033,0.0000,0.0000,0.0000,0.0000,0.0000,0.0000,-0.0300,-0.0500,2.6400,0.0000,0.0000,-0.0300,-0.0500,2.6400,1.0000,0.0000,0.0000,0.0000,0.0000,0.0000,0.0000,-0.0300,-0.0500,2.6400,0.0000,0.0000,-0.0000,-0.0094,0.0216,0.0087,0.0000,0.0000,-0.6000,0.7281,0.7095,0.7090,0.7170,3
20,97,4075291515938,-10.4134,-0.2137,0.0171,0.0510,0.6310,0.3710,1.1659,23.4375,23.4375,23.4375,23.4375,12.0936,0.0000,0.1831,-1.5869,-0.3052,-12.2153,12.8257,29.1511,0.0510,-0.0164,-0.0033,0.0000,0.0000,0.0000,0.0000,0.0000,0.0000,-0.0300,-0.0500,2.6400,0.0000,0.0000,-0.0300,-0.0500,2.6400,1.0000,0.0000,0.0000,0.0000,0.0000,0.0000,0.0000,-0.0300,-0.0500,2.6400,0.0000,0.0000,-0.0000,-0.0051,0.0255,0.0089,0.0000,0.0000,-0.6000,0.7280,0.7069,0.7093,0.7194,3
21,98,4075296111807,-10.4134,-0.2137,0.0171,0.0510,0.6310,0.3710,1.1659,23.4375,23.4375,23.4375,23.4375,12.0936,0.0000,-0.0610,-1.5869,-0.3052,-9.7551,13.7295,12.3665,0.0499,-0.0178,-0.0033,0.0000,0.0000,0.0000,0.0000,0.0000,0.0000,-0.0300,-0.0500,2.6400,0.0000,0.0000,-0.0300,-0.0500,2.6400,1.0000,0.0000,0.0000,0.0000,0.0000,0.0000,0.0000,-0.0300,-0.0500,2.6400,0.0000,0.0000,-0.0000,-0.0013,0.0271,0.0091,0.0000,0.0000,-0.6000,0.7274,0.7052,0.7100,0.7210,3
22,99,4075301107629,-10.4134,-0.2137,0.0171,0.0510,0.6310,0.3710,1.1659,23.4375,23.4375,23.4375,23.4375,12.0926,0.0000,0.7324,-1.2207,-0.4883,-5.7502,13.6840,-8.8387,0.0488,-0.0188,-0.0034,0.0000,0.0000,0.0000,0.0000,0.0000,0.0000,-0.0300,-0.0500,2.6400,0.0000,0.0000,-0.0300,-0.0500,2.6400,1.0000,0.0000,0.0000,0.0000,0.0000,0.0000,0.0000,-0.0300,-0.0500,2.6400,0.0000,0.0000,-0.0000,0.0019,0.0266,0.0094,0.0000,0.0000,-0.6000,0.7263,0.7043,0.7112,0.7218,3
23,100,4075306019378,-10.4134,-0.2137,0.0171,0.0510,0.6310,0.3710,1.1659,23.4375,23.4375,23.4375,23.4375,12.0931,0.0000,1.2817,-0.6714,0.1831,-1.2050,12.4182,-31.3494,0.0475,-0.0194,-0.0033,0.0000,0.0000,0.0000,0.0000,0.0000,0.0000,-0.0300,-0.0500,2.6400,0.0000,0.0000,-0.0300,-0.0500,2.6400,1.0000,0.0000,0.0000,0.0000,0.0000,0.0000,0.0000,-0.0300,-0.0500,2.6400,0.0000,0.0000,-0.0000,0.0046,0.0235,0.0091,0.0000,0.0000,-0.6000,0.7245,0.7045,0.7129,0.7217,3
24,101,4075311324413,-10.4134,-0.2137,0.0171,0.0510,0.6310,0.3710,1.1659,23.4375,23.4375,23.4375,23.4375,12.0946,0.0000,0.3662,-0.8545,0.1831,4.3539,11.0853,-49.7022,0.0462,-0.0196,-0.0033,0.0000,0.0000,0.0000,0.0000,0.0000,0.0000,-0.0300,-0.0500,2.6400,0.0000,0.0000,-0.0300,-0.0500,2.6400,1.0000,0.0000,0.0000,0.0000,0.0000,0.0000,0.0000,-0.0300,-0.0500,2.6400,0.0000,0.0000,-0.0000,0.0069,0.0186,0.0088,0.0000,0.0000,-0.6000,0.7222,0.7054,0.7150,0.7210,3
25,102,4075315999940,-10.4134,-0.2137,0.0171,0.0510,0.6310,0.3710,1.1659,23.4375,23.4375,23.4375,23.4375,12.0948,0.0000,-1.2817,-1.8921,1.0986,8.2918,9.3568,-61.2261,0.0448,-0.0192,-0.0032,0.0000,0.0000,0.0000,0.0000,0.0000,0.0000,-0.0300,-0.0500,2.6400,0.0000,0.0000,-0.0300,-0.0500,2.6400,1.0000,0.0000,0.0000,0.0000,0.0000,0.0000,0.0000,-0.0300,-0.0500,2.6400,0.0000,0.0000,-0.0000,0.0091,0.0123,0.0079,0.0000,0.0000,-0.6000,0.7193,0.7069,0.7174,0.7201,3
26,103,4075321092168,-10.4134,-0.2137,0.0171,0.0510,0.6310,0.3710,1.1659,23.4375,23.4375,23.4375,23.4375,12.0958,0.0000,-0.4272,1.4648,0.6104,12.0552,6.0173,-68.3295,0.0436,-0.0182,-0.0031,0.0000,0.0000,0.0000,0.0000,0.0000,0.0000,-0.0300,-0.0500,2.6400,0.0000,0.0000,-0.0300,-0.0500,2.6400,1.0000,0.0000,0.0000,0.0000,0.0000,0.0000,0.0000,-0.0300,-0.0500,2.6400,0.0000,0.0000,-0.0000,0.0096,0.0038,0.0074,0.0000,0.0000,-0.6000,0.7164,0.7095,0.7200,0.7177,3
27,104,4075355941937,-10.4180,-0.2119,0.0134,0.0410,0.6410,0.3510,1.1659,23.4375,23.4375,23.4375,23.4375,12.0958,0.0000,-1.7090,0.4883,-0.2441,11.7037,4.5358,-65.9044,0.0426,-0.0168,-0.0031,0.0000,0.0000,0.0000,0.0000,0.0000,0.0000,-0.0300,-0.0500,2.6400,0.0000,0.0000,-0.0300,-0.0500,2.6400,1.0000,0.0000,0.0000,0.0000,0.0000,0.0000,0.0000,-0.0300,-0.0500,2.6400,0.0000,0.0000,-0.0000,0.0089,-0.0039,0.0077,0.0000,0.0000,-0.6000,0.7143,0.7120,0.7222,0.7151,3
28,105,4075412186410,-10.4180,-0.2119,0.0134,0.0410,0.6410,0.3510,1.1659,23.4375,23.4375,23.4375,23.4375,12.0958,0.0000,1.4038,-1.9531,-0.7935,-8.8154,11.4353,-8.0009,0.0427,-0.0122,-0.0033,0.0000,0.0000,0.0000,0.0000,0.0000,0.0000,-0.0300,-0.0500,2.6400,0.0000,0.0000,-0.0300,-0.0500,2.6400,1.0000,0.0000,0.0000,0.0000,0.0000,0.0000,0.0000,-0.0300,-0.0500,2.6400,0.0000,0.0000,-0.0000,0.0020,-0.0290,0.0092,0.0000,0.0000,-0.6000,0.7092,0.7214,0.7282,0.7048,3
29,106,4075416404491,-10.4180,-0.2119,0.0134,0.0410,0.6410,0.3510,1.1659,23.4375,23.4375,23.4375,23.4375,12.0948,0.0000,0.4883,-1.1597,-0.0000,-5.1573,16.6759,-28.4899,0.0416,-0.0132,-0.0033,0.0000,0.0000,0.0000,0.0000,0.0000,0.0000,-0.0300,-0.0500,2.6400,0.0000,0.0000,-0.0300,-0.0500,2.6400,1.0000,0.0000,0.0000,0.0000,0.0000,0.0000,0.0000,-0.0300,-0.0500,2.6400,0.0000,0.0000,-0.0000,0.0042,-0.0131,0.0091,0.0000,0.0000,-0.6000,0.7134,0.7159,0.7240,0.7104,3
30,107,4075420964990,-10.4180,-0.2119,0.0134,0.0410,0.6410,0.3510,1.1659,23.4375,23.4375,23.4375,23.4375,12.0943,0.0000,-0.4883,-2.4414,-1.4038,-0.8536,18.6609,-45.0430,0.0399,-0.0138,-0.0034,0.0000,0.0000,0.0000,0.0000,0.0000,0.0000,-0.0300,-0.0500,2.6400,0.0000,0.0000,-0.0300,-0.0500,2.6400,1.0000,0.0000,0.0000,0.0000,0.0000,0.0000,0.0000,-0.0300,-0.0500,2.6400,0.0000,0.0000,-0.0000,0.0098,-0.0038,0.0100,0.0000,0.0000,-0.6000,0.7148,0.7110,0.7232,0.7147,3
31,108,4075425938773,-10.4180,-0.2119,0.0134,0.0410,0.6410,0.3510,1.1659,23.4375,23.4375,23.4375,23.4375,12.0919,0.0000,-0.0610,-0.4272,1.1597,3.3880,18.5818,-56.2829,0.0379,-0.0139,-0.0033,0.0000,0.0000,0.0000,0.0000,0.0000,0.0000,-0.0300,-0.0500,2.6400,0.0000,0.0000,-0.0300,-0.0500,2.6400,1.0000,0.0000,0.0000,0.0000,0.0000,0.0000,0.0000,-0.0300,-0.0500,2.6400,0.0000,0.0000,-0.0000,0.0152,-0.0011,0.0089,0.0000,0.0000,-0.6000,0.7136,0.7089,0.7236,0.7175,3
32,109,4075431598558,-10.4180,-0.2119,0.0134,0.0410,0.6410,0.3510,1.1659,23.4375,23.4375,23.4375,23.4375,12.0905,0.0000,-1.4648,-0.0610,-0.1831,4.9851,17.0211,-62.0377,0.0358,-0.0135,-0.0033,0.0000,0.0000,0.0000,0.0000,0.0000,0.0000,-0.0300,-0.0500,2.6400,0.0000,0.0000,-0.0300,-0.0500,2.6400,1.0000,0.0000,0.0000,0.0000,0.0000,0.0000,0.0000,-0.0300,-0.0500,2.6400,0.0000,0.0000,-0.0000,0.0200,-0.0020,0.0088,0.0000,0.0000,-0.6000,0.7119,0.7077,0.7253,0.7187,3
33,110,4075436189595,-10.4180,-0.2119,0.0134,0.0410,0.6410,0.3510,1.1659,23.4375,23.4375,23.4375,23.4375,12.0890,0.0000,-2.3804,1.3428,0.7935,6.9003,13.6432,-58.0348,0.0337,-0.0128,-0.0032,0.0000,0.0000,0.0000,0.0000,0.0000,0.0000,-0.0300,-0.0500,2.6400,0.0000,0.0000,-0.0300,-0.0500,2.6400,1.0000,0.0000,0.0000,0.0000,0.0000,0.0000,0.0000,-0.0300,-0.0500,2.6400,0.0000,0.0000,-0.0000,0.0230,-0.0043,0.0081,0.0000,0.0000,-0.6000,0.7100,0.7077,0.7268,0.7192,3
34,111,4075441147505,-10.4180,-0.2119,0.0134,0.0410,0.6410,0.3510,1.1659,23.4375,23.4375,23.4375,23.4375,12.0878,0.0000,-2.3193,1.5869,0.4272,8.6767,11.3658,-45.9620,0.0320,-0.0119,-0.0031,0.0000,0.0000,0.0000,0.0000,0.0000,0.0000,-0.0300,-0.0500,2.6400,0.0000,0.0000,-0.0300,-0.0500,2.6400,1.0000,0.0000,0.0000,0.0000,0.0000,0.0000,0.0000,-0.0300,-0.0500,2.6400,0.0000,0.0000,-0.0000,0.0232,-0.0072,0.0077,0.0000,0.0000,-0.6000,0.7090,0.7087,0.7276,0.7184,3
35,112,4075446461539,-10.4180,-0.2119,0.0134,0.0410,0.6410,0.3510,1.1659,23.4375,23.4375,23.4375,23.4375,12.0876,0.0000,-2.8687,1.5869,1.2207,7.2756,7.0098,-24.4895,0.0305,-0.0109,-0.0030,0.0000,0.0000,0.0000,0.0000,0.0000,0.0000,-0.0300,-0.0500,2.6400,0.0000,0.0000,-0.0300,-0.0500,2.6400,1.0000,0.0000,0.0000,0.0000,0.0000,0.0000,0.0000,-0.0300,-0.0500,2.6400,0.0000,0.0000,-0.0000,0.0221,-0.0102,0.0068,0.0000,0.0000,-0.6000,0.7081,0.7102,0.7279,0.7175,3
36,113,4075451143690,-10.4180,-0.2119,0.0134,0.0410,0.6410,0.3510,1.1659,23.4375,23.4375,23.4375,23.4375,12.0868,0.0000,-2.1973,1.6479,-0.0610,5.2696,2.6107,-4.0267,0.0296,-0.0100,-0.0030,0.0000,0.0000,0.0000,0.0000,0.0000,0.0000,-0.0300,-0.0500,2.6400,0.0000,0.0000,-0.0300,-0.0500,2.6400,1.0000,0.0000,0.0000,0.0000,0.0000,0.0000,0.0000,-0.0300,-0.0500,2.6400,0.0000,0.0000,-0.0000,0.0181,-0.0114,0.0070,0.0000,0.0000,-0.6000,0.7090,0.7117,0.7271,0.7158,3
37,114,4075456185715,-10.4180,-0.2119,0.0134,0.0410,0.6410,0.3510,1.1659,23.4375,23.4375,23.4375,23.4375,12.0847,0.0000,-1.3428,0.6104,0.9155,2.0419,-3.1909,11.8414,0.0292,-0.0094,-0.0029,0.0000,0.0000,0.0000,0.0000,0.0000,0.0000,-0.0300,-0.0500,2.6400,0.0000,0.0000,-0.0300,-0.0500,2.6400,1.0000,0.0000,0.0000,0.0000,0.0000,0.0000,0.0000,-0.0300,-0.0500,2.6400,0.0000,0.0000,-0.0000,0.0122,-0.0104,0.0065,0.0000,0.0000,-0.6000,0.7110,0.7134,0.7248,0.7144,3
38,115,4075461037513,-10.4180,-0.2119,0.0134,0.0410,0.6410,0.3510,1.1659,23.4375,23.4375,23.4375,23.4375,12.0835,0.0000,-0.4272,0.0610,-0.7324,2.2475,-6.4345,20.1430,0.0295,-0.0092,-0.0030,0.0000,0.0000,0.0000,0.0000,0.0000,0.0000,-0.0300,-0.0500,2.6400,0.0000,0.0000,-0.0300,-0.0500,2.6400,1.0000,0.0000,0.0000,0.0000,0.0000,0.0000,0.0000,-0.0300,-0.0500,2.6400,0.0000,0.0000,-0.0000,0.0039,-0.0075,0.0074,0.0000,0.0000,-0.6000,0.7146,0.7148,0.7217,0.7125,3
39,116,4075466389126,-10.4180,-0.2119,0.0134,0.0410,0.6410,0.3510,1.1659,23.4375,23.4375,23.4375,23.4375,12.0820,0.0000,0.4272,-0.7935,-0.0610,1.4585,-10.9558,19.6107,0.0303,-0.0091,-0.0030,0.0000,0.0000,0.0000,0.0000,0.0000,0.0000,-0.0300,-0.0500,2.6400,0.0000,0.0000,-0.0300,-0.0500,2.6400,1.0000,0.0000,0.0000,0.0000,0.0000,0.0000,0.0000,-0.0300,-0.0500,2.6400,0.0000,0.0000,-0.0000,-0.0042,-0.0052,0.0077,0.0000,0.0000,-0.6000,0.7180,0.7164,0.7185,0.7107,3
40,117,4075470960832,-10.4180,-0.2119,0.0134,0.0410,0.6410,0.3510,1.1659,23.4375,23.4375,23.4375,23.4375,12.0815,0.0000,0.7324,-0.9766,-0.5493,0.6432,-15.0145,13.9657,0.0314,-0.0091,-0.0031,0.0000,0.0000,0.0000,0.0000,0.0000,0.0000,-0.0300,-0.0500,2.6400,0.0000,0.0000,-0.0300,-0.0500,2.6400,1.0000,0.0000,0.0000,0.0000,0.0000,0.0000,0.0000,-0.0300,-0.0500,2.6400,0.0000,0.0000,-0.0000,-0.0127,-0.0030,0.0083,0.0000,0.0000,-0.6000,0.7214,0.7182,0.7155,0.7085,3
41,118,4075476199792,-10.4180,-0.2119,0.0134,0.0410,0.6410,0.3510,1.1659,23.4375,23.4375,23.4375,23.4375,12.0810,0.0000,0.6714,-0.3662,-0.1221,1.2887,-16.0550,-0.0740,0.0330,-0.0090,-0.0031,0.0000,0.0000,0.0000,0.0000,0.0000,0.0000,-0.0300,-0.0500,2.6400,0.0000,0.0000,-0.0300,-0.0500,2.6400,1.0000,0.0000,0.0000,0.0000,0.0000,0.0000,0.0000,-0.0300,-0.0500,2.6400,0.0000,0.0000,-0.0000,-0.0209,-0.0014,0.0086,0.0000,0.0000,-0.6000,0.7245,0.7201,0.7126,0.7065,3
42,119,4075481489037,-10.4180,-0.2119,0.0134,0.0410,0.6410,0.3510,1.1659,23.4375,23.4375,23.4375,23.4375,12.0801,0.0000,1.5869,-0.4272,0.1831,5.0545,-18.2917,-11.8533,0.0347,-0.0090,-0.0031,0.0000,0.0000,0.0000,0.0000,0.0000,0.0000,-0.0300,-0.0500,2.6400,0.0000,0.0000,-0.0300,-0.0500,2.6400,1.0000,0.0000,0.0000,0.0000,0.0000,0.0000,0.0000,-0.0300,-0.0500,2.6400,0.0000,0.0000,-0.0000,-0.0274,-0.0007,0.0086,0.0000,0.0000,-0.6000,0.7267,0.7219,0.7104,0.7047,3
43,120,4075486066326,-10.4180,-0.2119,0.0134,0.0410,0.6410,0.3510,1.1659,23.4375,23.4375,23.4375,23.4375,12.0786,0.0000,1.3428,0.2441,0.3052,5.0999,-17.4766,-19.8756,0.0365,-0.0084,-0.0031,0.0000,0.0000,0.0000,0.0000,0.0000,0.0000,-0.0300,-0.0500,2.6400,0.0000,0.0000,-0.0300,-0.0500,2.6400,1.0000,0.0000,0.0000,0.0000,0.0000,0.0000,0.0000,-0.0300,-0.0500,2.6400,0.0000,0.0000,-0.0000,-0.0329,-0.0029,0.0086,0.0000,0.0000,-0.6000,0.7277,0.7243,0.7093,0.7023,3
44,121,4075491326283,-10.4180,-0.2119,0.0134,0.0410,0.6410,0.3510,1.1659,23.4375,23.4375,23.4375,23.4375,12.0769,0.0000,0.4883,0.7324,0.3052,5.4227,-17.2824,-22.4654,0.0382,-0.0079,-0.0031,0.0000,0.0000,0.0000,0.0000,0.0000,0.0000,-0.0300,-0.0500,2.6400,0.0000,0.0000,-0.0300,-0.0500,2.6400,1.0000,0.0000,0.0000,0.0000,0.0000,0.0000,0.0000,-0.0300,-0.0500,2.6400,0.0000,0.0000,-0.0000,-0.0358,-0.0047,0.0085,0.0000,0.0000,-0.6000,0.7280,0.7257,0.7090,0.7009,3
45,122,4075496364142,-10.4180,-0.2119,0.0134,0.0410,0.6410,0.3510,1.1659,23.4375,23.4375,23.4375,23.4375,12.0755,0.0000,1.0986,1.4648,-0.0000,-0.0430,-13.8902,-19.4651,0.0399,-0.0072,-0.0031,0.0000,0.0000,0.0000,0.0000,0.0000,0.0000,-0.0300,-0.0500,2.6400,0.0000,0.0000,-0.0300,-0.0500,2.6400,1.0000,0.0000,0.0000,0.0000,0.0000,0.0000,0.0000,-0.0300,-0.0500,2.6400,0.0000,0.0000,-0.0000,-0.0380,-0.0067,0.0085,0.0000,0.0000,-0.6000,0.7281,0.7270,0.7089,0.6996,3
46,123,4075501592853,-10.4180,-0.2119,0.0134,0.0410,0.6410,0.3510,1.1659,23.4375,23.4375,23.4375,23.4375,12.0740,0.0000,0.4883,1.7700,-0.0000,-3.1776,-9.3424,-13.0086,0.0412,-0.0070,-0.0031,0.0000,0.0000,0.0000,0.0000,0.0000,0.0000,-0.0300,-0.0500,2.6400,0.0000,0.0000,-0.0300,-0.0500,2.6400,1.0000,0.0000,0.0000,0.0000,0.0000,0.0000,0.0000,-0.0300,-0.0500,2.6400,0.0000,0.0000,-0.0000,-0.0375,-0.0050,0.0086,0.0000,0.0000,-0.6000,0.7285,0.7263,0.7086,0.7003,3
47,124,4075506007828,-10.4180,-0.2119,0.0134,0.0410,0.6410,0.3510,1.1659,23.4375,23.4375,23.4375,23.4375,12.0735,0.0000,1.0986,0.3662,-0.2441,-9.1215,-3.1693,-5.2846,0.0421,-0.0073,-0.0031,0.0000,0.0000,0.0000,0.0000,0.0000,0.0000,-0.0300,-0.0500,2.6400,0.0000,0.0000,-0.0300,-0.0500,2.6400,1.0000,0.0000,0.0000,0.0000,0.0000,0.0000,0.0000,-0.0300,-0.0500,2.6400,0.0000,0.0000,-0.0000,-0.0350,-0.0012,0.0088,0.0000,0.0000,-0.6000,0.7290,0.7243,0.7083,0.7021,3
48,125,4075510949156,-10.4180,-0.2119,0.0134,0.0410,0.6410,0.3510,1.1659,23.4375,23.4375,23.4375,23.4375,12.0738,0.0000,1.4648,-0.6714,-0.3052,-11.0605,2.4669,1.7377,0.0426,-0.0082,-0.0032,0.0000,0.0000,0.0000,0.0000,0.0000,0.0000,-0.0300,-0.0500,2.6400,0.0000,0.0000,-0.0300,-0.0500,2.6400,1.0000,0.0000,0.0000,0.0000,0.0000,0.0000,0.0000,-0.0300,-0.0500,2.6400,0.0000,0.0000,-0.0000,-0.0302,0.0054,0.0091,0.0000,0.0000,-0.6000,0.7296,0.7207,0.7078,0.7055,3
49,126,4075516519160,-10.4180,-0.2119,0.0134,0.0410,0.6410,0.3510,1.1659,23.4375,23.4375,23.4375,23.4375,12.0733,0.0000,0.6714,-2.2583,-0.6714,-12.4329,9.4263,5.8980,0.0424,-0.0095,-0.0032,0.0000,0.0000,0.0000,0.0000,0.0000,0.0000,-0.0300,-0.0500,2.6400,0.0000,0.0000,-0.0300,-0.0500,2.6400,1.0000,0.0000,0.0000,0.0000,0.0000,0.0000,0.0000,-0.0300,-0.0500,2.6400,0.0000,0.0000,-0.0000,-0.0234,0.0121,0.0097,0.0000,0.0000,-0.6000,0.7297,0.7164,0.7080,0.7095,3
50,127,4075520999793,-10.4180,-0.2119,0.0134,0.0410,0.6410,0.3510,1.1659,23.4375,23.4375,23.4375,23.4375,12.0733,0.0000,0.6714,-2.9907,-0.7324,-8.5931,15.7385,7.8815,0.0416,-0.0109,-0.0033,0.0000,0.0000,0.0000,0.0000,0.0000,0.0000,-0.0300,-0.0500,2.6400,0.0000,0.0000,-0.0300,-0.0500,2.6400,1.0000,0.0000,0.0000,0.0000,0.0000,0.0000,0.0000,-0.0300,-0.0500,2.6400,0.0000,0.0000,-0.0000,-0.0148,0.0180,0.0101,0.0000,0.0000,-0.6000,0.7291,0.7118,0.7090,0.7138,3
51,128,4075526015822,-10.4180,-0.2119,0.0134,-0.0590,0.6010,0.3210,1.1659,23.4375,23.4375,23.4375,23.4375,12.0740,0.0000,0.3052,-2.0752,-0.1221,-6.8429,18.3276,4.9265,0.0401,-0.0119,-0.0033,0.0000,0.0000,0.0000,0.0000,0.0000,0.0000,-0.0300,-0.0500,2.6400,0.0000,0.0000,-0.0300,-0.0500,2.6400,1.0000,0.0000,0.0000,0.0000,0.0000,0.0000,0.0000,-0.0300,-0.0500,2.6400,0.0000,0.0000,-0.0000,-0.0050,0.0194,0.0100,0.0000,0.0000,-0.6000,0.7265,0.7084,0.7115,0.7172,3
52,129,4075565746010,-10.4200,-0.2103,-0.0205,-0.0590,0.6010,0.3210,1.1659,23.4375,23.4375,23.4375,23.4375,12.0740,0.0000,-0.6104,-0.9766,-0.7324,-3.2493,20.6003,-2.2317,0.0384,-0.0127,-0.0034,0.0000,0.0000,0.0000,0.0000,0.0000,0.0000,-0.0300,-0.0500,2.6400,0.0000,0.0000,-0.0300,-0.0500,2.6400,1.0000,0.0000,0.0000,0.0000,0.0000,0.0000,0.0000,-0.0300,-0.0500,2.6400,0.0000,0.0000,-0.0000,0.0039,0.0189,0.0103,0.0000,0.0000,-0.6000,0.7237,0.7058,0.7145,0.7197,3
53,130,4075622355398,-10.4200,-0.2103,-0.0205,-0.0590,0.6010,0.3210,1.1659,23.4375,23.4375,23.4375,23.4375,12.0743,0.0000,0.2441,-1.1597,-0.3662,-14.3074,8.1821,36.8202,0.0305,-0.0102,-0.0029,0.0000,0.0000,0.0000,0.0000,0.0000,0.0000,-0.0300,-0.0500,2.6400,0.0000,0.0000,-0.0300,-0.0500,2.6400,1.0000,0.0000,0.0000,0.0000,0.0000,0.0000,0.0000,-0.0300,-0.0500,2.6400,0.0000,0.0000,-0.0000,0.0470,-0.0013,0.0063,0.0000,0.0000,-0.6000,0.7030,0.7000,0.7326,0.7280,3
54,131,4075625908725,-10.4200,-0.2103,-0.0205,-0.0590,0.6010,0.3210,1.1659,23.4375,23.4375,23.4375,23.4375,12.0743,0.0000,0.0000,-1.6479,0.5493,-12.9422,10.3469,39.5006,0.0298,-0.0117,-0.0029,0.0000,0.0000,0.0000,0.0000,0.0000,0.0000,-0.0300,-0.0500,2.6400,0.0000,0.0000,-0.0300,-0.0500,2.6400,1.0000,0.0000,0.0000,0.0000,0.0000,0.0000,0.0000,-0.0300,-0.0500,2.6400,0.0000,0.0000,-0.0000,0.0337,0.0095,0.0062,0.0000,0.0000,-0.6000,0.7104,0.7008,0.7252,0.7272,3
55,132,4075630940085,-10.4200,-0.2103,-0.0205,-0.0590,0.6010,0.3210,1.1659,23.4375,23.4375,23.4375,23.4375,12.0743,0.0000,0.6104,-2.3804,-0.5493,-12.0097,12.0922,30.6310,0.0290,-0.0132,-0.0029,0.0000,0.0000,0.0000,0.0000,0.0000,0.0000,-0.0300,-0.0500,2.6400,0.0000,0.0000,-0.0300,-0.0500,2.6400,1.0000,0.0000,0.0000,0.0000,0.0000,0.0000,0.0000,-0.0300,-0.0500,2.6400,0.0000,0.0000,-0.0000,0.0255,0.0166,0.0068,0.0000,0.0000,-0.6000,0.7153,0.7009,0.7207,0.7267,3
56,133,4075636691525,-10.4200,-0.2103,-0.0205,-0.0590,0.6010,0.3210,1.1659,23.4375,23.4375,23.4375,23.4375,12.0740,0.0000,0.1221,-2.6245,0.7324,-7.6558,12.8353,12.0156,0.0279,-0.0147,-0.0028,0.0000,0.0000,0.0000,0.0000,0.0000,0.0000,-0.0300,-0.0500,2.6400,0.0000,0.0000,-0.0300,-0.0500,2.6400,1.0000,0.0000,0.0000,0.0000,0.0000,0.0000,0.0000,-0.0300,-0.0500,2.6400,0.0000,0.0000,-0.0000,0.0214,0.0212,0.0065,0.0000,0.0000,-0.6000,0.7178,0.7009,0.7179,0.7270,3
57,134,4075641332139,-10.4200,-0.2103,-0.0205,-0.0590,0.6010,0.3210,1.1659,23.4375,23.4375,23.4375,23.4375,12.0740,0.0000,0.1831,-2.0142,0.1221,-3.3808,12.6364,-13.6864,0.0268,-0.0156,-0.0028,0.0000,0.0000,0.0000,0.0000,0.0000,0.0000,-0.0300,-0.0500,2.6400,0.0000,0.0000,-0.0300,-0.0500,2.6400,1.0000,0.0000,0.0000,0.0000,0.0000,0.0000,0.0000,-0.0300,-0.0500,2.6400,0.0000,0.0000,-0.0000,0.0194,0.0214,0.0065,0.0000,0.0000,-0.6000,0.7185,0.7014,0.7173,0.7264,3
58,135,4075645978628,-10.4200,-0.2103,-0.0205,-0.0590,0.6010,0.3210,1.1659,23.4375,23.4375,23.4375,23.4375,12.0735,0.0000,-0.4883,-2.3193,0.8545,2.3312,11.1980,-36.2187,0.0255,-0.0161,-0.0027,0.0000,0.0000,0.0000,0.0000,0.0000,0.0000,-0.0300,-0.0500,2.6400,0.0000,0.0000,-0.0300,-0.0500,2.6400,1.0000,0.0000,0.0000,0.0000,0.0000,0.0000,0.0000,-0.0300,-0.0500,2.6400,0.0000,0.0000,-0.0000,0.0187,0.0191,0.0060,0.0000,0.0000,-0.6000,0.7179,0.7025,0.7176,0.7257,3
59,136,4075650940913,-10.4200,-0.2103,-0.0205,-0.0590,0.6010,0.3210,1.1659,23.4375,23.4375,23.4375,23.4375,12.0733,0.0000,-0.3662,0.4272,0.2441,7.1657,8.4650,-52.8267,0.0243,-0.0158,-0.0027,0.0000,0.0000,0.0000,0.0000,0.0000,0.0000,-0.0300,-0.0500,2.6400,0.0000,0.0000,-0.0300,-0.0500,2.6400,1.0000,0.0000,0.0000,0.0000,0.0000,0.0000,0.0000,-0.0300,-0.0500,2.6400,0.0000,0.0000,-0.0000,0.0179,0.0125,0.0059,0.0000,0.0000,-0.6000,0.7161,0.7048,0.7194,0.7234,3
60,137,4075656273570,-10.4200,-0.2103,-0.0205,-0.0590,0.6010,0.3210,1.1659,23.4375,23.4375,23.4375,23.4375,12.0731,0.0000,-1.0376,1.0986,0.4883,9.5112,6.1827,-61.9159,0.0232,-0.0149,-0.0026,0.0000,0.0000,0.0000,0.0000,0.0000,0.0000,-0.0300,-0.0500,2.6400,0.0000,0.0000,-0.0300,-0.0500,2.6400,1.0000,0.0000,0.0000,0.0000,0.0000,0.0000,0.0000,-0.0300,-0.0500,2.6400,0.0000,0.0000,-0.0000,0.0164,0.0046,0.0057,0.0000,0.0000,-0.6000,0.7141,0.7077,0.7212,0.7206,3
61,138,4075661033878,-10.4200,-0.2103,-0.0205,-0.0590,0.6010,0.3210,1.1659,23.4375,23.4375,23.4375,23.4375,12.0723,0.0000,-2.0142,0.9155,0.6104,9.3869,2.9703,-63.5533,0.0223,-0.0138,-0.0026,0.0000,0.0000,0.0000,0.0000,0.0000,0.0000,-0.0300,-0.0500,2.6400,0.0000,0.0000,-0.0300,-0.0500,2.6400,1.0000,0.0000,0.0000,0.0000,0.0000,0.0000,0.0000,-0.0300,-0.0500,2.6400,0.0000,0.0000,-0.0000,0.0147,-0.0022,0.0054,0.0000,0.0000,-0.6000,0.7124,0.7104,0.7227,0.7181,3
62,139,4075665930462,-10.4200,-0.2103,-0.0205,-0.0590,0.6010,0.3210,1.1659,23.4375,23.4375,23.4375,23.4375,12.0731,0.0000,-1.9531,1.5259,0.8545,9.4729,0.6113,-57.7078,0.0217,-0.0127,-0.0025,0.0000,0.0000,0.0000,0.0000,0.0000,0.0000,-0.0300,-0.0500,2.6400,0.0000,0.0000,-0.0300,-0.0500,2.6400,1.0000,0.0000,0.0000,0.0000,0.0000,0.0000,0.0000,-0.0300,-0.0500,2.6400,0.0000,0.0000,-0.0000,0.0117,-0.0072,0.0050,0.0000,0.0000,-0.6000,0.7117,0.7130,0.7232,0.7158,3
63,140,4075671257786,-10.4200,-0.2103,-0.0205,-0.0590,0.6010,0.3210,1.1659,23.4375,23.4375,23.4375,23.4375,12.0728,0.0000,-2.3804,0.8545,-0.7324,8.9230,-0.5034,-45.2172,0.0214,-0.0116,-0.0026,0.0000,0.0000,0.0000,0.0000,0.0000,0.0000,-0.0300,-0.0500,2.6400,0.0000,0.0000,-0.0300,-0.0500,2.6400,1.0000,0.0000,0.0000,0.0000,0.0000,0.0000,0.0000,-0.0300,-0.0500,2.6400,0.0000,0.0000,-0.0000,0.0085,-0.0103,0.0059,0.0000,0.0000,-0.6000,0.7120,0.7147,0.7235,0.7135,3
64,141,4075675926772,-10.4200,-0.2103,-0.0205,-0.0590,0.6010,0.3210,1.1659,23.4375,23.4375,23.4375,23.4375,12.0731,0.0000,-1.4648,0.6104,0.3662,6.4866,-3.2220,-29.3373,0.0212,-0.0106,-0.0025,0.0000,0.0000,0.0000,0.0000,0.0000,0.0000,-0.0300,-0.0500,2.6400,0.0000,0.0000,-0.0300,-0.0500,2.6400,1.0000,0.0000,0.0000,0.0000,0.0000,0.0000,0.0000,-0.0300,-0.0500,2.6400,0.0000,0.0000,-0.0000,0.0050,-0.0119,0.0058,0.0000,0.0000,-0.6000,0.7125,0.7162,0.7229,0.7120,3
65,142,4075680846978,-10.4200,-0.2103,-0.0205,-0.0590,0.6010,0.3210,1.1659,23.4375,23.4375,23.4375,23.4375,12.0731,0.0000,-0.8545,-0.4883,-1.0986,3.6821,-5.7824,-15.4933,0.0214,-0.0100,-0.0027,0.0000,0.0000,0.0000,0.0000,0.0000,0.0000,-0.0300,-0.0500,2.6400,0.0000,0.0000,-0.0300,-0.0500,2.6400,1.0000,0.0000,0.0000,0.0000,0.0000,0.0000,0.0000,-0.0300,-0.0500,2.6400,0.0000,0.0000,-0.0000,0.0004,-0.0110,0.0069,0.0000,0.0000,-0.6000,0.7145,0.7170,0.7215,0.7105,3
66,143,4075685920958,-10.4200,-0.2103,-0.0205,-0.0590,0.6010,0.3210,1.1659,23.4375,23.4375,23.4375,23.4375,12.0733,0.0000,-0.2441,0.0610,0.1831,1.8602,-10.0065,-6.1988,0.0219,-0.0096,-0.0026,0.0000,0.0000,0.0000,0.0000,0.0000,0.0000,-0.0300,-0.0500,2.6400,0.0000,0.0000,-0.0300,-0.0500,2.6400,1.0000,0.0000,0.0000,0.0000,0.0000,0.0000,0.0000,-0.0300,-0.0500,2.6400,0.0000,0.0000,-0.0000,-0.0046,-0.0090,0.0069,0.0000,0.0000,-0.6000,0.7167,0.7180,0.7194,0.7096,3
67,144,4075691479213,-10.4200,-0.2103,-0.0205,-0.0590,0.6010,0.3210,1.1659,23.4375,23.4375,23.4375,23.4375,12.0723,0.0000,1.1597,-0.7324,-0.5493,0.6336,-11.4041,-1.5395,0.0230,-0.0095,-0.0027,0.0000,0.0000,0.0000,0.0000,0.0000,0.0000,-0.0300,-0.0500,2.6400,0.0000,0.0000,-0.0300,-0.0500,2.6400,1.0000,0.0000,0.0000,0.0000,0.0000,0.0000,0.0000,-0.0300,-0.0500,2.6400,0.0000,0.0000,-0.0000,-0.0115,-0.0061,0.0075,0.0000,0.0000,-0.6000,0.7199,0.7190,0.7166,0.7082,3
68,145,4075696178571,-10.4200,-0.2103,-0.0205,-0.0590,0.6010,0.3210,1.1659,23.4375,23.4375,23.4375,23.4375,12.0711,0.0000,1.2817,-0.7935,0.2441,-1.4226,-13.3004,0.0812,0.0242,-0.0095,-0.0027,0.0000,0.0000,0.0000,0.0000,0.0000,0.0000,-0.0300,-0.0500,2.6400,0.0000,0.0000,-0.0300,-0.0500,2.6400,1.0000,0.0000,0.0000,0.0000,0.0000,0.0000,0.0000,-0.0300,-0.0500,2.6400,0.0000,0.0000,-0.0000,-0.0173,-0.0033,0.0075,0.0000,0.0000,-0.6000,0.7225,0.7199,0.7139,0.7073,3
69,146,4075700920590,-10.4200,-0.2103,-0.0205,-0.0590,0.6010,0.3210,1.1659,23.4375,23.4375,23.4375,23.4375,12.0718,0.0000,1.7090,0.9155,0.3662,-2.2929,-12.9264,4.7618,0.0256,-0.0095,-0.0027,0.0000,0.0000,0.0000,0.0000,0.0000,0.0000,-0.0300,-0.0500,2.6400,0.0000,0.0000,-0.0300,-0.0500,2.6400,1.0000,0.0000,0.0000,0.0000,0.0000,0.0000,0.0000,-0.0300,-0.0500,2.6400,0.0000,0.0000,-0.0000,-0.0226,-0.0011,0.0073,0.0000,0.0000,-0.6000,0.7247,0.7209,0.7116,0.7064,3
70,147,4075706242998,-10.4200,-0.2103,-0.0205,-0.0590,0.6010,0.3210,1.1659,23.4375,23.4375,23.4375,23.4375,12.0716,0.0000,1.8311,0.0610,0.2441,-1.5780,-12.9696,9.1155,0.0270,-0.0098,-0.0027,0.0000,0.0000,0.0000,0.0000,0.0000,0.0000,-0.0300,-0.0500,2.6400,0.0000,0.0000,-0.0300,-0.0500,2.6400,1.0000,0.0000,0.0000,0.0000,0.0000,0.0000,0.0000,-0.0300,-0.0500,2.6400,0.0000,0.0000,-0.0000,-0.0263,0.0013,0.0073,0.0000,0.0000,-0.6000,0.7266,0.7213,0.7097,0.7060,3
71,148,4075710873863,-10.4200,-0.2103,-0.0205,-0.0590,0.6010,0.3210,1.1659,23.4375,23.4375,23.4375,23.4375,12.0716,0.0000,1.1597,1.4038,0.9155,-5.1071,-9.8698,16.3359,0.0284,-0.0098,-0.0026,0.0000,0.0000,0.0000,0.0000,0.0000,0.0000,-0.0300,-0.0500,2.6400,0.0000,0.0000,-0.0300,-0.0500,2.6400,1.0000,0.0000,0.0000,0.0000,0.0000,0.0000,0.0000,-0.0300,-0.0500,2.6400,0.0000,0.0000,-0.0000,-0.0288,0.0020,0.0068,0.0000,0.0000,-0.6000,0.7274,0.7220,0.7086,0.7056,3
72,149,4075715937594,-10.4200,-0.2103,-0.0205,-0.0590,0.6010,0.3210,1.1659,23.4375,23.4375,23.4375,23.4375,12.0711,0.0000,1.2207,1.0986,-0.3662,-5.8722,-7.6571,22.7471,0.0295,-0.0102,-0.0027,0.0000,0.0000,0.0000,0.0000,0.0000,0.0000,-0.0300,-0.0500,2.6400,0.0000,0.0000,-0.0300,-0.0500,2.6400,1.0000,0.0000,0.0000,0.0000,0.0000,0.0000,0.0000,-0.0300,-0.0500,2.6400,0.0000,0.0000,-0.0000,-0.0289,0.0047,0.0072,0.0000,0.0000,-0.6000,0.7284,0.7211,0.7078,0.7063,3
73,150,4075720995492,-10.4200,-0.2103,-0.0205,-0.0590,0.6010,0.3210,1.1659,23.4375,23.4375,23.4375,23.4375,12.0706,0.0000,1.3428,-0.4883,0.4272,-8.9039,-3.1813,27.6354,0.0305,-0.0108,-0.0026,0.0000,0.0000,0.0000,0.0000,0.0000,0.0000,-0.0300,-0.0500,2.6400,0.0000,0.0000,-0.0300,-0.0500,2.6400,1.0000,0.0000,0.0000,0.0000,0.0000,0.0000,0.0000,-0.0300,-0.0500,2.6400,0.0000,0.0000,-0.0000,-0.0280,0.0079,0.0071,0.0000,0.0000,-0.6000,0.7291,0.7199,0.7071,0.7076,3
74,151,4075758964098,-10.4150,-0.2137,0.0064,0.0210,0.7010,0.4010,1.1659,23.4375,23.4375,23.4375,23.4375,12.0699,0.0000,0.1831,0.6714,-0.1831,-9.3821,1.9323,26.3918,0.0309,-0.0117,-0.0027,0.0000,0.0000,0.0000,0.0000,0.0000,0.0000,-0.0300,-0.0500,2.6400,0.0000,0.0000,-0.0300,-0.0500,2.6400,1.0000,0.0000,0.0000,0.0000,0.0000,0.0000,0.0000,-0.0300,-0.0500,2.6400,0.0000,0.0000,-0.0000,-0.0243,0.0114,0.0073,0.0000,0.0000,-0.6000,0.7291,0.7176,0.7072,0.7097,3
75,152,4075817058685,-10.4150,-0.2137,0.0064,0.0210,0.7010,0.4010,1.1659,23.4375,23.4375,23.4375,23.4375,12.0694,0.0000,1.8311,0.4272,0.9766,2.4149,-14.1802,-18.9996,0.0207,-0.0143,-0.0027,0.0000,0.0000,0.0000,0.0000,0.0000,0.0000,-0.0300,-0.0500,2.6400,0.0000,0.0000,-0.0300,-0.0500,2.6400,1.0000,0.0000,0.0000,0.0000,0.0000,0.0000,0.0000,-0.0300,-0.0500,2.6400,0.0000,0.0000,-0.0000,0.0424,0.0250,0.0076,0.0000,0.0000,-0.6000,0.7129,0.6927,0.7235,0.7342,3
76,153,4075821021005,-10.4150,-0.2137,0.0064,0.0210,0.7010,0.4010,1.1659,23.4375,23.4375,23.4375,23.4375,12.0697,0.0000,0.7324,0.9155,-0.7935,0.6384,-8.4770,-20.3936,0.0221,-0.0140,-0.0028,0.0000,0.0000,0.0000,0.0000,0.0000,0.0000,-0.0300,-0.0500,2.6400,0.0000,0.0000,-0.0300,-0.0500,2.6400,1.0000,0.0000,0.0000,0.0000,0.0000,0.0000,0.0000,-0.0300,-0.0500,2.6400,0.0000,0.0000,-0.0000,0.0188,0.0163,0.0083,0.0000,0.0000,-0.6000,0.7177,0.7026,0.7192,0.7241,3
77,154,4075826393532,-10.4150,-0.2137,0.0064,0.0210,0.7010,0.4010,1.1659,23.4375,23.4375,23.4375,23.4375,12.0702,0.0000,0.4883,1.6479,0.6714,-0.8655,-5.4611,-16.8228,0.0229,-0.0138,-0.0027,0.0000,0.0000,0.0000,0.0000,0.0000,0.0000,-0.0300,-0.0500,2.6400,0.0000,0.0000,-0.0300,-0.0500,2.6400,1.0000,0.0000,0.0000,0.0000,0.0000,0.0000,0.0000,-0.0300,-0.0500,2.6400,0.0000,0.0000,-0.0000,0.0060,0.0110,0.0078,0.0000,0.0000,-0.6000,0.7198,0.7083,0.7168,0.7187,3
78,155,4075830901037,-10.4150,-0.2137,0.0064,0.0210,0.7010,0.4010,1.1659,23.4375,23.4375,23.4375,23.4375,12.0699,0.0000,0.8545,1.0376,-0.4883,-5.8961,1.1555,-10.8723,0.0235,-0.0137,-0.0028,0.0000,0.0000,0.0000,0.0000,0.0000,0.0000,-0.0300,-0.0500,2.6400,0.0000,0.0000,-0.0300,-0.0500,2.6400,1.0000,0.0000,0.0000,0.0000,0.0000,0.0000,0.0000,-0.0300,-0.0500,2.6400,0.0000,0.0000,-0.0000,-0.0013,0.0085,0.0082,0.0000,0.0000,-0.6000,0.7214,0.7112,0.7154,0.7156,3
79,156,4075835857197,-10.4150,-0.2137,0.0064,0.0210,0.7010,0.4010,1.1659,23.4375,23.4375,23.4375,23.4375,12.0706,0.0000,0.5493,0.9155,-0.2441,-6.8548,9.1339,-4.6592,0.0234,-0.0142,-0.0028,0.0000,0.0000,0.0000,0.0000,0.0000,0.0000,-0.0300,-0.0500,2.6400,0.0000,0.0000,-0.0300,-0.0500,2.6400,1.0000,0.0000,0.0000,0.0000,0.0000,0.0000,0.0000,-0.0300,-0.0500,2.6400,0.0000,0.0000,-0.0000,-0.0024,0.0099,0.0084,0.0000,0.0000,-0.6000,0.7222,0.7111,0.7147,0.7156,3
80,157,4075841009501,-10.4150,-0.2137,0.0064,0.0210,0.7010,0.4010,1.1659,23.4375,23.4375,23.4375,23.4375,12.0706,0.0000,0.4883,-0.3662,-0.4272,-10.5895,14.4344,-0.6492,0.0225,-0.0149,-0.0028,0.0000,0.0000,0.0000,0.0000,0.0000,0.0000,-0.0300,-0.0500,2.6400,0.0000,0.0000,-0.0300,-0.0500,2.6400,1.0000,0.0000,0.0000,0.0000,0.0000,0.0000,0.0000,-0.0300,-0.0500,2.6400,0.0000,0.0000,-0.0000,0.0014,0.0121,0.0085,0.0000,0.0000,-0.6000,0.7218,0.7092,0.7152,0.7174,3
81,158,4075846332534,-10.4150,-0.2137,0.0064,0.0210,0.7010,0.4010,1.1659,23.4375,23.4375,23.4375,23.4375,12.0714,0.0000,0.0000,-2.6855,-0.9766,-9.9392,20.7082,1.0478,0.0212,-0.0161,-0.0029,0.0000,0.0000,0.0000,0.0000,0.0000,0.0000,-0.0300,-0.0500,2.6400,0.0000,0.0000,-0.0300,-0.0500,2.6400,1.0000,0.0000,0.0000,0.0000,0.0000,0.0000,0.0000,-0.0300,-0.0500,2.6400,0.0000,0.0000,-0.0000,0.0073,0.0172,0.0091,0.0000,0.0000,-0.6000,0.7217,0.7056,0.7157,0.7207,3
82,159,4075850911864,-10.4150,-0.2137,0.0064,0.0210,0.7010,0.4010,1.1659,23.4375,23.4375,23.4375,23.4375,12.0706,0.0000,-0.6714,-2.4414,-0.2441,-6.1208,22.2209,-1.0860,0.0191,-0.0173,-0.0029,0.0000,0.0000,0.0000,0.0000,0.0000,0.0000,-0.0300,-0.0500,2.6400,0.0000,0.0000,-0.0300,-0.0500,2.6400,1.0000,0.0000,0.0000,0.0000,0.0000,0.0000,0.0000,-0.0300,-0.0500,2.6400,0.0000,0.0000,-0.0000,0.0156,0.0203,0.0089,0.0000,0.0000,-0.6000,0.7201,0.7022,0.7172,0.7242,3
83,160,4075855874024,-10.4150,-0.2137,0.0064,0.0210,0.7010,0.4010,1.1659,23.4375,23.4375,23.4375,23.4375,12.0709,0.0000,-0.9155,-2.1362,-0.2441,-0.9468,22.9089,-5.2703,0.0169,-0.0181,-0.0029,0.0000,0.0000,0.0000,0.0000,0.0000,0.0000,-0.0300,-0.0500,2.6400,0.0000,0.0000,-0.0300,-0.0500,2.6400,1.0000,0.0000,0.0000,0.0000,0.0000,0.0000,0.0000,-0.0300,-0.0500,2.6400,0.0000,0.0000,-0.0000,0.0224,0.0201,0.0087,0.0000,0.0000,-0.6000,0.7179,0.7002,0.7193,0.7263,3
84,161,4075861159061,-10.4150,-0.2137,0.0064,0.0210,0.7010,0.4010,1.1659,23.4375,23.4375,23.4375,23.4375,12.0702,0.0000,-1.5259,-1.3428,-0.0000,3.3545,19.3105,-11.8247,0.0146,-0.0183,-0.0029,0.0000,0.0000,0.0000,0.0000,0.0000,0.0000,-0.0300,-0.0500,2.6400,0.0000,0.0000,-0.0300,-0.0500,2.6400,1.0000,0.0000,0.0000,0.0000,0.0000,0.0000,0.0000,-0.0300,-0.0500,2.6400,0.0000,0.0000,-0.0000,0.0281,0.0165,0.0083,0.0000,0.0000,-0.6000,0.7149,0.6997,0.7220,0.7270,3
85,162,4075865808425,-10.4150,-0.2137,0.0064,0.0210,0.7010,0.4010,1.1659,23.4375,23.4375,23.4375,23.4375,12.0699,0.0000,-1.9531,0.9766,0.3662,5.7454,14.0364,-19.3529,0.0125,-0.0178,-0.0028,0.0000,0.0000,0.0000,0.0000,0.0000,0.0000,-0.0300,-0.0500,2.6400,0.0000,0.0000,-0.0300,-0.0500,2.6400,1.0000,0.0000,0.0000,0.0000,0.0000,0.0000,0.0000,-0.0300,-0.0500,2.6400,0.0000,0.0000,-0.0000,0.0303,0.0102,0.0077,0.0000,0.0000,-0.6000,0.7121,0.7011,0.7244,0.7260,3
86,163,4075870844367,-10.4150,-0.2137,0.0064,0.0210,0.7010,0.4010,1.1659,23.4375,23.4375,23.4375,23.4375,12.0704,0.0000,-1.5259,0.9766,1.2817,7.2589,6.9691,-25.9813,0.0110,-0.0171,-0.0027,0.0000,0.0000,0.0000,0.0000,0.0000,0.0000,-0.0300,-0.0500,2.6400,0.0000,0.0000,-0.0300,-0.0500,2.6400,1.0000,0.0000,0.0000,0.0000,0.0000,0.0000,0.0000,-0.0300,-0.0500,2.6400,0.0000,0.0000,-0.0000,0.0288,0.0044,0.0066,0.0000,0.0000,-0.6000,0.7105,0.7037,0.7254,0.7241,3
87,164,4075876339171,-10.4150,-0.2137,0.0064,0.0210,0.7010,0.4010,1.1659,23.4375,23.4375,23.4375,23.4375,12.0711,0.0000,-1.8311,0.3662,0.7935,8.4496,1.1675,-30.1798,0.0102,-0.0164,-0.0026,0.0000,0.0000,0.0000,0.0000,0.0000,0.0000,-0.0300,-0.0500,2.6400,0.0000,0.0000,-0.0300,-0.0500,2.6400,1.0000,0.0000,0.0000,0.0000,0.0000,0.0000,0.0000,-0.0300,-0.0500,2.6400,0.0000,0.0000,-0.0000,0.0240,-0.0002,0.0061,0.0000,0.0000,-0.6000,0.7103,0.7068,0.7252,0.7213,3
88,165,4075880970537,-10.4150,-0.2137,0.0064,0.0210,0.7010,0.4010,1.1659,23.4375,23.4375,23.4375,23.4375,12.0716,0.0000,-2.1362,1.4648,0.7935,8.2057,-3.8813,-28.4064,0.0098,-0.0154,-0.0025,0.0000,0.0000,0.0000,0.0000,0.0000,0.0000,-0.0300,-0.0500,2.6400,0.0000,0.0000,-0.0300,-0.0500,2.6400,1.0000,0.0000,0.0000,0.0000,0.0000,0.0000,0.0000,-0.0300,-0.0500,2.6400,0.0000,0.0000,-0.0000,0.0175,-0.0048,0.0057,0.0000,0.0000,-0.6000,0.7108,0.7103,0.7245,0.7181,3
89,166,4075885810628,-10.4150,-0.2137,0.0064,0.0210,0.7010,0.4010,1.1659,23.4375,23.4375,23.4375,23.4375,12.0709,0.0000,-1.2817,0.1221,0.8545,7.1967,-11.4209,-21.7851,0.0101,-0.0145,-0.0025,0.0000,0.0000,0.0000,0.0000,0.0000,0.0000,-0.0300,-0.0500,2.6400,0.0000,0.0000,-0.0300,-0.0500,2.6400,1.0000,0.0000,0.0000,0.0000,0.0000,0.0000,0.0000,-0.0300,-0.0500,2.6400,0.0000,0.0000,-0.0000,0.0097,-0.0071,0.0053,0.0000,0.0000,-0.6000,0.7124,0.7135,0.7227,0.7151,3
90,167,4075891099082,-10.4150,-0.2137,0.0064,0.0210,0.7010,0.4010,1.1659,23.4375,23.4375,23.4375,23.4375,12.0711,0.0000,-1.1597,0.9155,0.3662,4.7484,-15.3430,-15.5745,0.0111,-0.0137,-0.0025,0.0000,0.0000,0.0000,0.0000,0.0000,0.0000,-0.0300,-0.0500,2.6400,0.0000,0.0000,-0.0300,-0.0500,2.6400,1.0000,0.0000,0.0000,0.0000,0.0000,0.0000,0.0000,-0.0300,-0.0500,2.6400,0.0000,0.0000,-0.0000,-0.0001,-0.0086,0.0055,0.0000,0.0000,-0.6000,0.7150,0.7169,0.7202,0.7116,3
91,168,4075896421490,-10.4150,-0.2137,0.0064,0.0210,0.7010,0.4010,1.1659,23.4375,23.4375,23.4375,23.4375,12.0702,0.0000,0.0000,-0.7935,-0.4272,2.1327,-19.7349,-11.5406,0.0125,-0.0133,-0.0025,0.0000,0.0000,0.0000,0.0000,0.0000,0.0000,-0.0300,-0.0500,2.6400,0.0000,0.0000,-0.0300,-0.0500,2.6400,1.0000,0.0000,0.0000,0.0000,0.0000,0.0000,0.0000,-0.0300,-0.0500,2.6400,0.0000,0.0000,-0.0000,-0.0100,-0.0072,0.0062,0.0000,0.0000,-0.6000,0.7187,0.7193,0.7170,0.7087,3
92,169,4075900934036,-10.4150,-0.2137,0.0064,0.0210,0.7010,0.4010,1.1659,23.4375,23.4375,23.4375,23.4375,12.0699,0.0000,1.2817,-1.2207,-0.0000,1.4633,-20.4253,-10.0249,0.0145,-0.0132,-0.0026,0.0000,0.0000,0.0000,0.0000,0.0000,0.0000,-0.0300,-0.0500,2.6400,0.0000,0.0000,-0.0300,-0.0500,2.6400,1.0000,0.0000,0.0000,0.0000,0.0000,0.0000,0.0000,-0.0300,-0.0500,2.6400,0.0000,0.0000,-0.0000,-0.0201,-0.0045,0.0066,0.0000,0.0000,-0.6000,0.7227,0.7214,0.7132,0.7064,3
93,170,4075905839661,-10.4150,-0.2137,0.0064,0.0210,0.7010,0.4010,1.1659,23.4375,23.4375,23.4375,23.4375,12.0699,0.0000,1.2817,-1.1597,-0.9155,2.8763,-20.0297,-12.2519,0.0166,-0.0131,-0.0027,0.0000,0.0000,0.0000,0.0000,0.0000,0.0000,-0.0300,-0.0500,2.6400,0.0000,0.0000,-0.0300,-0.0500,2.6400,1.0000,0.0000,0.0000,0.0000,0.0000,0.0000,0.0000,-0.0300,-0.0500,2.6400,0.0000,0.0000,-0.0000,-0.0276,-0.0023,0.0076,0.0000,0.0000,-0.6000,0.7260,0.7227,0.7105,0.7044,3
94,171,4075910799529,-10.4150,-0.2137,0.0064,0.0210,0.7010,0.4010,1.1659,23.4375,23.4375,23.4375,23.4375,12.0704,0.0000,2.2583,-1.5869,-0.6714,2.4531,-16.8988,-14.2545,0.0187,-0.0129,-0.0028,0.0000,0.0000,0.0000,0.0000,0.0000,0.0000,-0.0300,-0.0500,2.6400,0.0000,0.0000,-0.0300,-0.0500,2.6400,1.0000,0.0000,0.0000,0.0000,0.0000,0.0000,0.0000,-0.0300,-0.0500,2.6400,0.0000,0.0000,-0.0000,-0.0332,-0.0014,0.0084,0.0000,0.0000,-0.6000,0.7282,0.7239,0.7087,0.7028,3
95,172,4075915841720,-10.4150,-0.2137,0.0064,0.0210,0.7010,0.4010,1.1659,23.4375,23.4375,23.4375,23.4375,12.0704,0.0000,1.7700,-0.3662,-0.0000,2.9982,-13.9405,-16.9016,0.0205,-0.0127,-0.0028,0.0000,0.0000,0.0000,0.0000,0.0000,0.0000,-0.0300,-0.0500,2.6400,0.0000,0.0000,-0.0300,-0.0500,2.6400,1.0000,0.0000,0.0000,0.0000,0.0000,0.0000,0.0000,-0.0300,-0.0500,2.6400,0.0000,0.0000,-0.0000,-0.0351,-0.0012,0.0085,0.0000,0.0000,-0.6000,0.7289,0.7244,0.7081,0.7022,3
96,173,4075920802213,-10.4150,-0.2137,0.0064,0.0210,0.7010,0.4010,1.1659,23.4375,23.4375,23.4375,23.4375,12.0706,0.0000,2.0142,1.5259,-1.0376,0.2606,-6.8660,-17.4124,0.0220,-0.0123,-0.0029,0.0000,0.0000,0.0000,0.0000,0.0000,0.0000,-0.0300,-0.0500,2.6400,0.0000,0.0000,-0.0300,-0.0500,2.6400,1.0000,0.0000,0.0000,0.0000,0.0000,0.0000,0.0000,-0.0300,-0.0500,2.6400,0.0000,0.0000,-0.0000,-0.0348,-0.0024,0.0093,0.0000,0.0000,-0.6000,0.7287,0.7245,0.7088,0.7017,3
97,174,4075925826157,-10.4150,-0.2137,0.0064,0.0110,0.6610,0.4210,1.1659,23.4375,23.4375,23.4375,23.4375,12.0702,0.0000,2.0142,1.6479,0.9766,-4.1579,-1.8268,-14.0015,0.0228,-0.0121,-0.0028,0.0000,0.0000,0.0000,0.0000,0.0000,0.0000,-0.0300,-0.0500,2.6400,0.0000,0.0000,-0.0300,-0.0500,2.6400,1.0000,0.0000,0.0000,0.0000,0.0000,0.0000,0.0000,-0.0300,-0.0500,2.6400,0.0000,0.0000,-0.0000,-0.0307,-0.0018,0.0084,0.0000,0.0000,-0.6000,0.7273,0.7233,0.7096,0.7034,3
98,175,4075930777776,-10.4150,-0.2137,0.0064,0.0110,0.6610,0.4210,1.1659,23.4375,23.4375,23.4375,23.4375,12.0709,0.0000,0.4272,2.2583,-0.0000,-10.1161,4.2481,-5.8980,0.0230,-0.0123,-0.0028,0.0000,0.0000,0.0000,0.0000,0.0000,0.0000,-0.0300,-0.0500,2.6400,0.0000,0.0000,-0.0300,-0.0500,2.6400,1.0000,0.0000,0.0000,0.0000,0.0000,0.0000,0.0000,-0.0300,-0.0500,2.6400,0.0000,0.0000,-0.0000,-0.0241,0.0009,0.0084,0.0000,0.0000,-0.6000,0.7261,0.7205,0.7108,0.7062,3
99,176,4075935884002,-10.4150,-0.2137,0.0064,0.0110,0.6610,0.4210,1.1659,23.4375,23.4375,23.4375,23.4375,12.0699,0.0000,0.0000,0.4272,-0.0000,-13.2626,7.9400,4.6902,0.0226,-0.0132,-0.0028,0.0000,0.0000,0.0000,0.0000,0.0000,0.0000,-0.0300,-0.0500,2.6400,0.0000,0.0000,-0.0300,-0.0500,2.6400,1.0000,0.0000,0.0000,0.0000,0.0000,0.0000,0.0000,-0.0300,-0.0500,2.6400,0.0000,0.0000,-0.0000,-0.0160,0.0073,0.0082,0.0000,0.0000,-0.6000,0.7256,0.7160,0.7113,0.7107,3
100,177,4075940814415,-10.4150,-0.2137,0.0064,0.0110,0.6610,0.4210,1.1659,23.4375,23.4375,23.4375,23.4375,12.0702,0.0000,-0.5493,-0.2441,0.6104,-15.3905,9.4839,16.4815,0.0218,-0.0145,-0.0028,0.0000,0.0000,0.0000,0.0000,0.0000,0.0000,-0.0300,-0.0500,2.6400,0.0000,0.0000,-0.0300,-0.0500,2.6400,1.0000,0.0000,0.0000,0.0000,0.0000,0.0000,0.0000,-0.0300,-0.0500,2.6400,0.0000,0.0000,-0.0000,-0.0081,0.0141,0.0077,0.0000,0.0000,-0.6000,0.7250,0.7117,0.7115,0.7154,3
101,178,4075945776241,-10.4150,-0.2137,0.0064,0.0110,0.6610,0.4210,1.1659,23.4375,23.4375,23.4375,23.4375,12.0697,0.0000,-0.6714,-1.7700,-0.7935,-13.7408,12.8833,26.5732,0.0208,-0.0161,-0.0028,0.0000,0.0000,0.0000,0.0000,0.0000,0.0000,-0.0300,-0.0500,2.6400,0.0000,0.0000,-0.0300,-0.0500,2.6400,1.0000,0.0000,0.0000,0.0000,0.0000,0.0000,0.0000,-0.0300,-0.0500,2.6400,0.0000,0.0000,-0.0000,-0.0019,0.0209,0.0082,0.0000,0.0000,-0.6000,0.7254,0.7076,0.7114,0.7192,3
102,179,4075960572564,-10.4086,-0.2166,0.0036,0.0110,0.6610,0.4210,1.1659,23.4375,23.4375,23.4375,23.4375,12.0697,0.0000,-0.4272,-2.0752,-0.1221,-12.2679,12.9049,29.8409,0.0196,-0.0177,-0.0028,0.0000,0.0000,0.0000,0.0000,0.0000,0.0000,-0.0300,-0.0500,2.6400,0.0000,0.0000,-0.0300,-0.0500,2.6400,1.0000,0.0000,0.0000,0.0000,0.0000,0.0000,0.0000,-0.0300,-0.0500,2.6400,0.0000,0.0000,-0.0000,0.0043,0.0251,0.0081,0.0000,0.0000,-0.6000,0.7248,0.7044,0.7120,0.7224,3
103,180,4075962835378,-10.4086,-0.2166,0.0036,0.0110,0.6610,0.4210,1.1659,23.4375,23.4375,23.4375,23.4375,12.0697,0.0000,0.3662,-1.6479,-0.0000,-3.4358,13.2717,5.9386,0.0172,-0.0200,-0.0028,0.0000,0.0000,0.0000,0.0000,0.0000,0.0000,-0.0300,-0.0500,2.6400,0.0000,0.0000,-0.0300,-0.0500,2.6400,1.0000,0.0000,0.0000,0.0000,0.0000,0.0000,0.0000,-0.0300,-0.0500,2.6400,0.0000,0.0000,-0.0000,0.0161,0.0326,0.0079,0.0000,0.0000,-0.6000,0.7234,0.6985,0.7133,0.7284,3
104,181,4075966022957,-10.4086,-0.2166,0.0036,0.0110,0.6610,0.4210,1.1659,23.4375,23.4375,23.4375,23.4375,12.0699,0.0000,0.1221,-1.1597,-0.4883,1.1022,11.6247,-16.9517,0.0159,-0.0204,-0.0028,0.0000,0.0000,0.0000,0.0000,0.0000,0.0000,-0.0300,-0.0500,2.6400,0.0000,0.0000,-0.0300,-0.0500,2.6400,1.0000,0.0000,0.0000,0.0000,0.0000,0.0000,0.0000,-0.0300,-0.0500,2.6400,0.0000,0.0000,-0.0000,0.0171,0.0268,0.0081,0.0000,0.0000,-0.6000,0.7213,0.7000,0.7154,0.7269,3
105,182,4076008930392,-10.4086,-0.2166,0.0036,0.0110,0.6610,0.4210,1.1659,23.4375,23.4375,23.4375,23.4375,12.0706,0.0000,-0.0610,-0.7935,1.0986,5.2529,9.0595,-39.6200,0.0148,-0.0203,-0.0027,0.0000,0.0000,0.0000,0.0000,0.0000,0.0000,-0.0300,-0.0500,2.6400,0.0000,0.0000,-0.0300,-0.0500,2.6400,1.0000,0.0000,0.0000,0.0000,0.0000,0.0000,0.0000,-0.0300,-0.0500,2.6400,0.0000,0.0000,-0.0000,0.0173,0.0197,0.0071,0.0000,0.0000,-0.6000,0.7188,0.7024,0.7173,0.7251,3
106,183,4076067215247,-10.4086,-0.2166,0.0036,0.0110,0.6610,0.4210,1.1659,23.4375,23.4375,23.4375,23.4375,12.0699,0.0000,-0.6104,-1.5869,-0.8545,-3.0939,15.8776,-25.9431,0.0169,-0.0126,-0.0029,0.0000,0.0000,0.0000,0.0000,0.0000,0.0000,-0.0300,-0.0500,2.6400,0.0000,0.0000,-0.0300,-0.0500,2.6400,1.0000,0.0000,0.0000,0.0000,0.0000,0.0000,0.0000,-0.0300,-0.0500,2.6400,0.0000,0.0000,-0.0000,-0.0025,-0.0316,0.0084,0.0000,0.0000,-0.6000,0.7096,0.7238,0.7274,0.7029,3
107,184,4076070835566,-10.4086,-0.2166,0.0036,0.0110,0.6610,0.4210,1.1659,23.4375,23.4375,23.4375,23.4375,12.0702,0.0000,-0.3662,-2.9297,-0.8545,-0.5786,16.0837,-41.1237,0.0153,-0.0131,-0.0029,0.0000,0.0000,0.0000,0.0000,0.0000,0.0000,-0.0300,-0.0500,2.6400,0.0000,0.0000,-0.0300,-0.0500,2.6400,1.0000,0.0000,0.0000,0.0000,0.0000,0.0000,0.0000,-0.0300,-0.0500,2.6400,0.0000,0.0000,-0.0000,0.0065,-0.0175,0.0089,0.0000,0.0000,-0.6000,0.7113,0.7165,0.7260,0.7098,3
108,185,4076075722943,-10.4086,-0.2166,0.0036,0.0110,0.6610,0.4210,1.1659,23.4375,23.4375,23.4375,23.4375,12.0699,0.0000,-0.8545,-0.5493,-0.0000,3.2206,15.0337,-53.6334,0.0137,-0.0132,-0.0029,0.0000,0.0000,0.0000,0.0000,0.0000,0.0000,-0.0300,-0.0500,2.6400,0.0000,0.0000,-0.0300,-0.0500,2.6400,1.0000,0.0000,0.0000,0.0000,0.0000,0.0000,0.0000,-0.0300,-0.0500,2.6400,0.0000,0.0000,-0.0000,0.0133,-0.0106,0.0086,0.0000,0.0000,-0.6000,0.7112,0.7124,0.7258,0.7141,3
109,186,4076080796339,-10.4086,-0.2166,0.0036,0.0110,0.6610,0.4210,1.1659,23.4375,23.4375,23.4375,23.4375,12.0702,0.0000,-1.2207,0.3662,0.3052,8.4592,10.7976,-61.3980,0.0120,-0.0127,-0.0029,0.0000,0.0000,0.0000,0.0000,0.0000,0.0000,-0.0300,-0.0500,2.6400,0.0000,0.0000,-0.0300,-0.0500,2.6400,1.0000,0.0000,0.0000,0.0000,0.0000,0.0000,0.0000,-0.0300,-0.0500,2.6400,0.0000,0.0000,-0.0000,0.0177,-0.0087,0.0082,0.0000,0.0000,-0.6000,0.7103,0.7106,0.7265,0.7162,3
110,187,4076086085627,-10.4086,-0.2166,0.0036,0.0110,0.6610,0.4210,1.1659,23.4375,23.4375,23.4375,23.4375,12.0699,0.0000,-1.8311,-0.0610,-0.0610,11.7061,5.9142,-61.5818,0.0108,-0.0118,-0.0029,0.0000,0.0000,0.0000,0.0000,0.0000,0.0000,-0.0300,-0.0500,2.6400,0.0000,0.0000,-0.0300,-0.0500,2.6400,1.0000,0.0000,0.0000,0.0000,0.0000,0.0000,0.0000,-0.0300,-0.0500,2.6400,0.0000,0.0000,-0.0000,0.0188,-0.0103,0.0081,0.0000,0.0000,-0.6000,0.7095,0.7108,0.7273,0.7160,3
111,188,4076091112528,-10.4086,-0.2166,0.0036,0.0110,0.6610,0.4210,1.1659,23.4375,23.4375,23.4375,23.4375,12.0706,0.0000,-2.2583,2.0752,1.5259,12.6027,1.7692,-50.7190,0.0099,-0.0104,-0.0027,0.0000,0.0000,0.0000,0.0000,0.0000,0.0000,-0.0300,-0.0500,2.6400,0.0000,0.0000,-0.0300,-0.0500,2.6400,1.0000,0.0000,0.0000,0.0000,0.0000,0.0000,0.0000,-0.0300,-0.0500,2.6400,0.0000,0.0000,-0.0000,0.0170,-0.0144,0.0069,0.0000,0.0000,-0.6000,0.7084,0.7130,0.7276,0.7146,3
112,189,4076095950703,-10.4086,-0.2166,0.0036,0.0110,0.6610,0.4210,1.1659,23.4375,23.4375,23.4375,23.4375,12.0709,0.0000,-1.8311,2.1362,-0.1221,10.5465,-3.1525,-29.2537,0.0096,-0.0090,-0.0027,0.0000,0.0000,0.0000,0.0000,0.0000,0.0000,-0.0300,-0.0500,2.6400,0.0000,0.0000,-0.0300,-0.0500,2.6400,1.0000,0.0000,0.0000,0.0000,0.0000,0.0000,0.0000,-0.0300,-0.0500,2.6400,0.0000,0.0000,-0.0000,0.0130,-0.0179,0.0071,0.0000,0.0000,-0.6000,0.7086,0.7152,0.7275,0.7122,3
113,190,4076101371432,-10.4086,-0.2166,0.0036,0.0110,0.6610,0.4210,1.1659,23.4375,23.4375,23.4375,23.4375,12.0706,0.0000,-1.7700,2.1973,2.1362,7.4621,-7.0673,-5.4540,0.0097,-0.0077,-0.0026,0.0000,0.0000,0.0000,0.0000,0.0000,0.0000,-0.0300,-0.0500,2.6400,0.0000,0.0000,-0.0300,-0.0500,2.6400,1.0000,0.0000,0.0000,0.0000,0.0000,0.0000,0.0000,-0.0300,-0.0500,2.6400,0.0000,0.0000,-0.0000,0.0073,-0.0190,0.0056,0.0000,0.0000,-0.6000,0.7096,0.7178,0.7257,0.7106,3
114,191,4076105810779,-10.4086,-0.2166,0.0036,0.0110,0.6610,0.4210,1.1659,23.4375,23.4375,23.4375,23.4375,12.0697,0.0000,-0.9155,2.1362,-0.6714,4.4400,-12.0107,16.4051,0.0103,-0.0068,-0.0026,0.0000,0.0000,0.0000,0.0000,0.0000,0.0000,-0.0300,-0.0500,2.6400,0.0000,0.0000,-0.0300,-0.0500,2.6400,1.0000,0.0000,0.0000,0.0000,0.0000,0.0000,0.0000,-0.0300,-0.0500,2.6400,0.0000,0.0000,-0.0000,0.0006,-0.0180,0.0064,0.0000,0.0000,-0.6000,0.7122,0.7193,0.7235,0.7086,3
115,192,4076110748316,-10.4086,-0.2166,0.0036,0.0110,0.6610,0.4210,1.1659,23.4375,23.4375,23.4375,23.4375,12.0699,0.0000,0.2441,0.0000,1.4038,-0.8894,-16.9252,30.4854,0.0115,-0.0064,-0.0025,0.0000,0.0000,0.0000,0.0000,0.0000,0.0000,-0.0300,-0.0500,2.6400,0.0000,0.0000,-0.0300,-0.0500,2.6400,1.0000,0.0000,0.0000,0.0000,0.0000,0.0000,0.0000,-0.0300,-0.0500,2.6400,0.0000,0.0000,-0.0000,-0.0078,-0.0143,0.0056,0.0000,0.0000,-0.6000,0.7156,0.7209,0.7196,0.7074,3
116,193,4076115823254,-10.4086,-0.2166,0.0036,0.0110,0.6610,0.4210,1.1659,23.4375,23.4375,23.4375,23.4375,12.0699,0.0000,0.7935,0.1221,-1.2207,-3.2995,-17.8626,36.3977,0.0132,-0.0065,-0.0026,0.0000,0.0000,0.0000,0.0000,0.0000,0.0000,-0.0300,-0.0500,2.6400,0.0000,0.0000,-0.0300,-0.0500,2.6400,1.0000,0.0000,0.0000,0.0000,0.0000,0.0000,0.0000,-0.0300,-0.0500,2.6400,0.0000,0.0000,-0.0000,-0.0169,-0.0087,0.0069,0.0000,0.0000,-0.6000,0.7205,0.7216,0.7155,0.7060,3
117,194,4076121111042,-10.4086,-0.2166,0.0036,0.0110,0.6610,0.4210,1.1659,23.4375,23.4375,23.4375,23.4375,12.0702,0.0000,2.6245,-1.7700,0.6104,-4.9158,-17.9920,31.2516,0.0152,-0.0070,-0.0026,0.0000,0.0000,0.0000,0.0000,0.0000,0.0000,-0.0300,-0.0500,2.6400,0.0000,0.0000,-0.0300,-0.0500,2.6400,1.0000,0.0000,0.0000,0.0000,0.0000,0.0000,0.0000,-0.0300,-0.0500,2.6400,0.0000,0.0000,-0.0000,-0.0249,-0.0024,0.0067,0.0000,0.0000,-0.6000,0.7248,0.7222,0.7111,0.7055,3
118,195,4076125758530,-10.4086,-0.2166,0.0036,0.0210,0.3210,0.1810,1.1659,23.4375,23.4375,23.4375,23.4375,12.0699,0.0000,2.2583,-1.7700,-0.9766,-4.3372,-17.0283,18.1905,0.0172,-0.0076,-0.0027,0.0000,0.0000,0.0000,0.0000,0.0000,0.0000,-0.0300,-0.0500,2.6400,0.0000,0.0000,-0.0300,-0.0500,2.6400,1.0000,0.0000,0.0000,0.0000,0.0000,0.0000,0.0000,-0.0300,-0.0500,2.6400,0.0000,0.0000,-0.0000,-0.0304,0.0029,0.0076,0.0000,0.0000,-0.6000,0.7284,0.7220,0.7081,0.7051,3
119,196,4076130763726,-10.4086,-0.2166,0.0036,0.0210,0.3210,0.1810,1.1659,23.4375,23.4375,23.4375,23.4375,12.0702,0.0000,2.5024,-1.3428,0.2441,-2.8524,-14.8251,-1.8880,0.0191,-0.0082,-0.0027,0.0000,0.0000,0.0000,0.0000,0.0000,0.0000,-0.0300,-0.0500,2.6400,0.0000,0.0000,-0.0300,-0.0500,2.6400,1.0000,0.0000,0.0000,0.0000,0.0000,0.0000,0.0000,-0.0300,-0.0500,2.6400,0.0000,0.0000,-0.0000,-0.0339,0.0060,0.0076,0.0000,0.0000,-0.6000,0.7304,0.7221,0.7060,0.7050,3
120,197,4076158117929,-10.4159,-0.2123,0.0138,0.0210,0.3210,0.1810,1.1659,23.4375,23.4375,23.4375,23.4375,12.0702,0.0000,1.9531,-0.9155,-0.0000,0.5093,-12.5812,-17.0376,0.0207,-0.0085,-0.0027,0.0000,0.0000,0.0000,0.0000,0.0000,0.0000,-0.0300,-0.0500,2.6400,0.0000,0.0000,-0.0300,-0.0500,2.6400,1.0000,0.0000,0.0000,0.0000,0.0000,0.0000,0.0000,-0.0300,-0.0500,2.6400,0.0000,0.0000,-0.0000,-0.0346,0.0069,0.0078,0.0000,0.0000,-0.6000,0.7310,0.7220,0.7056,0.7051,3
121,198,4076162187070,-10.4159,-0.2123,0.0138,0.0210,0.3210,0.1810,1.1659,23.4375,23.4375,23.4375,23.4375,12.0697,0.0000,0.3662,0.7324,-0.4883,-2.1423,3.5960,-21.0285,0.0233,-0.0084,-0.0028,0.0000,0.0000,0.0000,0.0000,0.0000,0.0000,-0.0300,-0.0500,2.6400,0.0000,0.0000,-0.0300,-0.0500,2.6400,1.0000,0.0000,0.0000,0.0000,0.0000,0.0000,0.0000,-0.0300,-0.0500,2.6400,0.0000,0.0000,-0.0000,-0.0413,0.0045,0.0080,0.0000,0.0000,-0.6000,0.7324,0.7247,0.7043,0.7022,3
122,199,4076166532886,-10.4159,-0.2123,0.0138,0.0210,0.3210,0.1810,1.1659,23.4375,23.4375,23.4375,23.4375,12.0692,0.0000,-0.6104,-1.0986,-0.4883,-9.4395,17.5101,0.1337,0.0209,-0.0097,-0.0028,0.0000,0.0000,0.0000,0.0000,0.0000,0.0000,-0.0300,-0.0500,2.6400,0.0000,0.0000,-0.0300,-0.0500,2.6400,1.0000,0.0000,0.0000,0.0000,0.0000,0.0000,0.0000,-0.0300,-0.0500,2.6400,0.0000,0.0000,-0.0000,-0.0158,0.0116,0.0084,0.0000,0.0000,-0.6000,0.7269,0.7146,0.7101,0.7121,3
123,200,4076198682852,-10.4159,-0.2123,0.0138,0.0210,0.3210,0.1810,1.1659,23.4375,23.4375,23.4375,23.4375,12.0694,0.0000,-0.6714,-2.9297,-0.4883,-9.3821,22.0795,0.9882,0.0192,-0.0108,-0.0029,0.0000,0.0000,0.0000,0.0000,0.0000,0.0000,-0.0300,-0.0500,2.6400,0.0000,0.0000,-0.0300,-0.0500,2.6400,1.0000,0.0000,0.0000,0.0000,0.0000,0.0000,0.0000,-0.0300,-0.0500,2.6400,0.0000,0.0000,-0.0000,-0.0022,0.0159,0.0086,0.0000,0.0000,-0.6000,0.7241,0.7091,0.7130,0.7175,3
124,201,4076203168609,-10.4159,-0.2123,0.0138,0.0210,0.3210,0.1810,1.1659,23.4375,23.4375,23.4375,23.4375,12.0697,0.0000,-1.9531,-0.7324,0.2441,4.8082,14.3457,-12.8940,0.0126,-0.0126,-0.0028,0.0000,0.0000,0.0000,0.0000,0.0000,0.0000,-0.0300,-0.0500,2.6400,0.0000,0.0000,-0.0300,-0.0500,2.6400,1.0000,0.0000,0.0000,0.0000,0.0000,0.0000,0.0000,-0.0300,-0.0500,2.6400,0.0000,0.0000,-0.0000,0.0366,0.0228,0.0082,0.0000,0.0000,-0.6000,0.7142,0.6950,0.7226,0.7316,3
125,202,4076206917122,-10.4159,-0.2123,0.0138,0.0210,0.3210,0.1810,1.1659,23.4375,23.4375,23.4375,23.4375,12.0697,0.0000,-0.9155,2.6245,0.6714,8.3396,-12.4638,-29.6929,0.0104,-0.0089,-0.0025,0.0000,0.0000,0.0000,0.0000,0.0000,0.0000,-0.0300,-0.0500,2.6400,0.0000,0.0000,-0.0300,-0.0500,2.6400,1.0000,0.0000,0.0000,0.0000,0.0000,0.0000,0.0000,-0.0300,-0.0500,2.6400,0.0000,0.0000,-0.0000,0.0376,-0.0061,0.0058,0.0000,0.0000,-0.6000,0.7043,0.7045,0.7310,0.7238,3
126,203,4076210836405,-10.4159,-0.2123,0.0138,0.0210,0.3210,0.1810,1.1659,23.4375,23.4375,23.4375,23.4375,12.0699,0.0000,-0.6104,0.9155,0.7935,8.3516,-17.0187,-21.2911,0.0115,-0.0079,-0.0025,0.0000,0.0000,0.0000,0.0000,0.0000,0.0000,-0.0300,-0.0500,2.6400,0.0000,0.0000,-0.0300,-0.0500,2.6400,1.0000,0.0000,0.0000,0.0000,0.0000,0.0000,0.0000,-0.0300,-0.0500,2.6400,0.0000,0.0000,-0.0000,0.0181,-0.0090,0.0055,0.0000,0.0000,-0.6000,0.7093,0.7114,0.7259,0.7170,3
127,204,4076215828353,-10.4159,-0.2123,0.0138,0.0210,0.3210,0.1810,1.1659,23.4375,23.4375,23.4375,23.4375,12.0692,0.0000,0.0000,-0.3052,0.3662,3.4764,-19.9291,-13.8607,0.0131,-0.0071,-0.0025,0.0000,0.0000,0.0000,0.0000,0.0000,0.0000,-0.0300,-0.0500,2.6400,0.0000,0.0000,-0.0300,-0.0500,2.6400,1.0000,0.0000,0.0000,0.0000,0.0000,0.0000,0.0000,-0.0300,-0.0500,2.6400,0.0000,0.0000,-0.0000,0.0016,-0.0103,0.0056,0.0000,0.0000,-0.6000,0.7140,0.7169,0.7212,0.7115,3
128,205,4076221112474,-10.4159,-0.2123,0.0138,0.0210,0.3210,0.1810,1.1659,23.4375,23.4375,23.4375,23.4375,12.0697,0.0000,1.0376,0.4883,-1.0376,1.6665,-21.5736,-8.5952,0.0151,-0.0068,-0.0026,0.0000,0.0000,0.0000,0.0000,0.0000,0.0000,-0.0300,-0.0500,2.6400,0.0000,0.0000,-0.0300,-0.0500,2.6400,1.0000,0.0000,0.0000,0.0000,0.0000,0.0000,0.0000,-0.0300,-0.0500,2.6400,0.0000,0.0000,-0.0000,-0.0122,-0.0088,0.0067,0.0000,0.0000,-0.6000,0.7190,0.7203,0.7169,0.7074,3
129,206,4076225784959,-10.4159,-0.2123,0.0138,0.0210,0.3210,0.1810,1.1659,23.4375,23.4375,23.4375,23.4375,12.0694,0.0000,1.2817,-1.7090,-0.1221,-0.7794,-19.0396,-5.8646,0.0173,-0.0067,-0.0026,0.0000,0.0000,0.0000,0.0000,0.0000,0.0000,-0.0300,-0.0500,2.6400,0.0000,0.0000,-0.0300,-0.0500,2.6400,1.0000,0.0000,0.0000,0.0000,0.0000,0.0000,0.0000,-0.0300,-0.0500,2.6400,0.0000,0.0000,-0.0000,-0.0229,-0.0056,0.0071,0.0000,0.0000,-0.6000,0.7234,0.7225,0.7128,0.7050,3
