loop_index, counter, last_step_ns, T_ref, theta_ref, phi_ref, uwind, vwind, wwind, rho,v_batt,alt,gyro_roll,gyro_pitch,gyro_yaw,accel_X,accel_Y,accel_Z,roll,pitch,yaw,X,Y,Z,Xdot,Ydot,Zdot,x0,y0,z0,e.xbee_time,xbee_time_received_ns,xbee_x,xbee_y,xbee_z,xbee_qw,xbee_qx,xbee_qy,xbee_qz,sp_roll,sp_pitch,sp_yaw,sp_X,sp_Y,sp_Z,sp_Xdot,sp_Ydot,sp_Zdot,u_roll,u_pitch,u_yaw,u_X,u_Y,u_Z,mot_1,mot_2,mot_3,mot_4,flight mode
0,-1,0,-10.4808,-0.1753,0.0468,0.0110,0.0410,0.0110,1.1589,12.2094,0.0000,-0.1831,-0.1831,0.1221,-0.1172,-0.2565,-10.5691,0.0125,-0.0011,-0.0004,0.0000,0.0000,0.0000,0.0000,0.0000,0.0000,0.0000,0.0000,0.0000,0.0000,0.0000,0.0000,0.0000,0.0000,1.0000,0.0000,0.0000,0.0000,0.0000,0.0000,0.0000,0.0000,0.0000,0.0000,0.0000,0.0000,0.0000,0.0000,0.0000,0.0000,0.0000,0.0000,0.0000,-0.1000,-0.1000,-0.1000,-0.1000
0,-1,0,-10.4808,-0.1753,0.0468,0.0110,0.0410,0.0110,1.1589,12.2099,0.0000,-0.1221,-0.0610,-0.0610,-0.2415,-0.2469,-10.5620,0.0125,-0.0011,-0.0004,0.0000,0.0000,0.0000,0.0000,0.0000,0.0000,0.0000,0.0000,0.0000,0.0000,0.0000,0.0000,0.0000,0.0000,1.0000,0.0000,0.0000,0.0000,0.0000,0.0000,0.0000,0.0000,0.0000,0.0000,0.0000,0.0000,0.0000,0.0000,0.0000,0.0000,0.0000,0.0000,0.0000,-0.1000,-0.1000,-0.1000,-0.1000
0,-1,0,-10.4808,-0.1753,0.0468,0.0110,0.0410,0.0110,1.1589,12.2104,0.0000,-0.0610,-0.1221,-0.0000,-0.1219,-0.2086,-10.6551,0.0125,-0.0011,-0.0004,0.0000,0.0000,0.0000,0.0000,0.0000,0.0000,0.0000,0.0000,0.0000,0.0000,0.0000,0.0000,0.0000,0.0000,1.0000,0.0000,0.0000,0.0000,0.0000,0.0000,0.0000,0.0000,0.0000,0.0000,0.0000,0.0000,0.0000,0.0000,0.0000,0.0000,0.0000,0.0000,0.0000,-0.1000,-0.1000,-0.1000,-0.1000
0,-1,0,-10.4808,-0.1753,0.0468,0.0110,0.0410,0.0110,1.1589,12.2109,0.0000,0.0000,0.0000,-0.0000,-0.1124,-0.2541,-10.5906,0.0125,-0.0012,-0.0004,0.0000,0.0000,0.0000,0.0000,0.0000,0.0000,0.0000,0.0000,0.0000,0.0000,0.0000,0.0000,0.0000,0.0000,1.0000,0.0000,0.0000,0.0000,0.0000,0.0000,0.0000,0.0000,0.0000,0.0000,0.0000,0.0000,0.0000,0.0000,0.0000,0.0000,0.0000,0.0000,0.0000,-0.1000,-0.1000,-0.1000,-0.1000
0,-1,0,-10.4808,-0.1753,0.0468,0.0110,0.0410,0.0110,1.1589,12.2113,0.0000,-0.0610,-0.1221,0.1221,-0.1721,-0.2997,-10.6097,0.0126,-0.0012,-0.0004,0.0000,0.0000,0.0000,0.0000,0.0000,0.0000,0.0000,0.0000,0.0000,0.0000,0.0000,0.0000,0.0000,0.0000,1.0000,0.0000,0.0000,0.0000,0.0000,0.0000,0.0000,0.0000,0.0000,0.0000,0.0000,0.0000,0.0000,0.0000,0.0000,0.0000,0.0000,0.0000,0.0000,-0.1000,-0.1000,-0.1000,-0.1000
0,-1,0,-10.4808,-0.1753,0.0468,0.0110,0.6010,0.3610,1.1589,12.2118,0.0000,0.0000,0.0610,-0.0000,-0.1793,-0.2613,-10.5429,0.0126,-0.0012,-0.0004,0.0000,0.0000,0.0000,0.0000,0.0000,0.0000,0.0000,0.0000,0.0000,0.0000,0.0000,0.0000,0.0000,0.0000,1.0000,0.0000,0.0000,0.0000,0.0000,0.0000,0.0000,0.0000,0.0000,0.0000,0.0000,0.0000,0.0000,0.0000,0.0000,0.0000,0.0000,0.0000,0.0000,-0.1000,-0.1000,-0.1000,-0.1000
0,-1,0,-10.4808,-0.1753,0.0468,0.0110,0.6010,0.3610,1.1589,12.2123,0.0000,0.0000,0.0000,-0.1221,-0.1602,-0.2877,-10.6240,0.0126,-0.0012,-0.0004,0.0000,0.0000,0.0000,0.0000,0.0000,0.0000,0.0000,0.0000,0.0000,0.0000,0.0000,0.0000,0.0000,0.0000,1.0000,0.0000,0.0000,0.0000,0.0000,0.0000,0.0000,0.0000,0.0000,0.0000,0.0000,0.0000,0.0000,0.0000,0.0000,0.0000,0.0000,0.0000,0.0000,-0.1000,-0.1000,-0.1000,-0.1000
0,-1,0,-10.4808,-0.1753,0.0468,0.0110,0.6010,0.3610,1.1589,12.2128,0.0000,-0.0610,-0.2441,0.1221,-0.1721,-0.2637,-10.5930,0.0126,-0.0012,-0.0004,0.0000,0.0000,0.0000,0.0000,0.0000,0.0000,0.0000,0.0000,0.0000,0.0000,0.0000,0.0000,0.0000,0.0000,1.0000,0.0000,0.0000,0.0000,0.0000,0.0000,0.0000,0.0000,0.0000,0.0000,0.0000,0.0000,0.0000,0.0000,0.0000,0.0000,0.0000,0.0000,0.0000,-0.1000,-0.1000,-0.1000,-0.1000
0,-1,0,-10.4808,-0.1753,0.0468,0.0110,0.6010,0.3610,1.1589,12.2135,0.0000,-0.0610,-0.1831,-0.0610,-0.1530,-0.2158,-10.6097,0.0126,-0.0012,-0.0004,0.0000,0.0000,0.0000,0.0000,0.0000,0.0000,0.0000,0.0000,0.0000,0.0000,0.0000,0.0000,0.0000,0.0000,1.0000,0.0000,0.0000,0.0000,0.0000,0.0000,0.0000,0.0000,0.0000,0.0000,0.0000,0.0000,0.0000,0.0000,0.0000,0.0000,0.0000,0.0000,0.0000,-0.1000,-0.1000,-0.1000,-0.1000
0,-1,0,-10.4808,-0.1753,0.0468,0.0110,0.6010,0.3610,1.1589,12.2140,0.0000,-0.0610,-0.1831,-0.0000,-0.1219,-0.2469,-10.6073,0.0126,-0.0013,-0.0004,0.0000,0.0000,0.0000,0.0000,0.0000,0.0000,0.0000,0.0000,0.0000,0.0000,0.0000,0.0000,0.0000,0.0000,1.0000,0.0000,0.0000,0.0000,0.0000,0.0000,0.0000,0.0000,0.0000,0.0000,0.0000,0.0000,0.0000,0.0000,0.0000,0.0000,0.0000,0.0000,0.0000,-0.1000,-0.1000,-0.1000,-0.1000
0,-1,0,-10.4808,-0.1753,0.0468,0.0110,0.6010,0.3610,1.1589,12.2145,0.0000,-0.0610,-0.1221,-0.0000,-0.1506,-0.2661,-10.5715,0.0126,-0.0013,-0.0004,0.0000,0.0000,0.0000,0.0000,0.0000,0.0000,0.0000,0.0000,0.0000,0.0000,0.0000,0.0000,0.0000,0.0000,1.0000,0.0000,0.0000,0.0000,0.0000,0.0000,0.0000,0.0000,0.0000,0.0000,0.0000,0.0000,0.0000,0.0000,0.0000,0.0000,0.0000,0.0000,0.0000,-0.1000,-0.1000,-0.1000,-0.1000
0,-1,0,-10.4808,-0.1753,0.0468,0.0110,0.6010,0.3610,1.1589,12.2152,0.0000,-0.0610,-0.1221,-0.0000,-0.1506,-0.2637,-10.5954,0.0127,-0.0013,-0.0004,0.0000,0.0000,0.0000,0.0000,0.0000,0.0000,0.0000,0.0000,0.0000,0.0000,0.0000,0.0000,0.0000,0.0000,1.0000,0.0000,0.0000,0.0000,0.0000,0.0000,0.0000,0.0000,0.0000,0.0000,0.0000,0.0000,0.0000,0.0000,0.0000,0.0000,0.0000,0.0000,0.0000,-0.1000,-0.1000,-0.1000,-0.1000
0,-1,0,-10.4808,-0.1753,0.0468,0.0110,0.6010,0.3610,1.1589,12.2155,0.0000,-0.3662,-0.1831,0.1221,-0.1482,-0.2062,-10.5835,0.0126,-0.0013,-0.0004,0.0000,0.0000,0.0000,0.0000,0.0000,0.0000,0.0000,0.0000,0.0000,0.0000,0.0000,0.0000,0.0000,0.0000,1.0000,0.0000,0.0000,0.0000,0.0000,0.0000,0.0000,0.0000,0.0000,0.0000,0.0000,0.0000,0.0000,0.0000,0.0000,0.0000,0.0000,0.0000,0.0000,-0.1000,-0.1000,-0.1000,-0.1000
0,-1,0,-10.4808,-0.1753,0.0468,0.0110,0.6010,0.3610,1.1589,12.2159,0.0000,-0.1831,-0.2441,-0.0610,-0.1602,-0.2877,-10.6026,0.0126,-0.0014,-0.0004,0.0000,0.0000,0.0000,0.0000,0.0000,0.0000,0.0000,0.0000,0.0000,0.0000,0.0000,0.0000,0.0000,0.0000,1.0000,0.0000,0.0000,0.0000,0.0000,0.0000,0.0000,0.0000,0.0000,0.0000,0.0000,0.0000,0.0000,0.0000,0.0000,0.0000,0.0000,0.0000,0.0000,-0.1000,-0.1000,-0.1000,-0.1000
0,-1,0,-10.4808,-0.1753,0.0468,0.0110,0.6010,0.3610,1.1589,12.2164,0.0000,0.0610,0.0000,-0.0000,-0.1482,-0.2517,-10.5238,0.0127,-0.0014,-0.0004,0.0000,0.0000,0.0000,0.0000,0.0000,0.0000,0.0000,0.0000,0.0000,0.0000,0.0000,0.0000,0.0000,0.0000,1.0000,0.0000,0.0000,0.0000,0.0000,0.0000,0.0000,0.0000,0.0000,0.0000,0.0000,0.0000,0.0000,0.0000,0.0000,0.0000,0.0000,0.0000,0.0000,-0.1000,-0.1000,-0.1000,-0.1000
0,-1,0,-10.4808,-0.1753,0.0468,0.0110,0.6010,0.3610,1.1589,12.2171,0.0000,-0.1831,-0.1831,-0.0000,-0.1745,-0.2589,-10.5978,0.0127,-0.0014,-0.0004,0.0000,0.0000,0.0000,0.0000,0.0000,0.0000,0.0000,0.0000,0.0000,0.0000,0.0000,0.0000,0.0000,0.0000,1.0000,0.0000,0.0000,0.0000,0.0000,0.0000,0.0000,0.0000,0.0000,0.0000,0.0000,0.0000,0.0000,0.0000,0.0000,0.0000,0.0000,0.0000,0.0000,-0.1000,-0.1000,-0.1000,-0.1000
0,-1,0,-10.4808,-0.1753,0.0468,0.0110,0.6010,0.3610,1.1589,12.2181,0.0000,-0.0610,-0.2441,0.1221,-0.1578,-0.2397,-10.5286,0.0127,-0.0014,-0.0004,0.0000,0.0000,0.0000,0.0000,0.0000,0.0000,0.0000,0.0000,0.0000,0.0000,0.0000,0.0000,0.0000,0.0000,1.0000,0.0000,0.0000,0.0000,0.0000,0.0000,0.0000,0.0000,0.0000,0.0000,0.0000,0.0000,0.0000,0.0000,0.0000,0.0000,0.0000,0.0000,0.0000,-0.1000,-0.1000,-0.1000,-0.1000
0,-1,0,-10.4808,-0.1753,0.0468,0.0110,0.6010,0.3610,1.1589,12.2188,0.0000,-0.1831,-0.1221,-0.0000,-0.0980,-0.2445,-10.5859,0.0127,-0.0014,-0.0004,0.0000,0.0000,0.0000,0.0000,0.0000,0.0000,0.0000,0.0000,0.0000,0.0000,0.0000,0.0000,0.0000,0.0000,1.0000,0.0000,0.0000,0.0000,0.0000,0.0000,0.0000,0.0000,0.0000,0.0000,0.0000,0.0000,0.0000,0.0000,0.0000,0.0000,0.0000,0.0000,0.0000,-0.1000,-0.1000,-0.1000,-0.1000
0,-1,0,-10.4808,-0.1753,0.0468,0.0110,0.6010,0.3610,1.1589,12.2193,0.0000,-0.0610,-0.2441,-0.0000,-0.1435,-0.2541,-10.5906,0.0127,-0.0015,-0.0004,0.0000,0.0000,0.0000,0.0000,0.0000,0.0000,0.0000,0.0000,0.0000,0.0000,0.0000,0.0000,0.0000,0.0000,1.0000,0.0000,0.0000,0.0000,0.0000,0.0000,0.0000,0.0000,0.0000,0.0000,0.0000,0.0000,0.0000,0.0000,0.0000,0.0000,0.0000,0.0000,0.0000,-0.1000,-0.1000,-0.1000,-0.1000
0,-1,0,-10.4808,-0.1753,0.0468,0.0110,0.6010,0.3610,1.1589,12.2203,0.0000,-0.0610,-0.1831,-0.0000,-0.1315,-0.2805,-10.6050,0.0127,-0.0015,-0.0004,0.0000,0.0000,0.0000,0.0000,0.0000,0.0000,0.0000,0.0000,0.0000,0.0000,0.0000,0.0000,0.0000,0.0000,1.0000,0.0000,0.0000,0.0000,0.0000,0.0000,0.0000,0.0000,0.0000,0.0000,0.0000,0.0000,0.0000,0.0000,0.0000,0.0000,0.0000,0.0000,0.0000,-0.1000,-0.1000,-0.1000,-0.1000
0,-1,0,-10.4119,-0.2150,0.0039,0.0110,0.6010,0.3610,1.1589,12.2203,0.0000,-0.1221,-0.0610,-0.0000,-0.1387,-0.2445,-10.5763,0.0127,-0.0015,-0.0004,0.0000,0.0000,0.0000,0.0000,0.0000,0.0000,0.0000,0.0000,0.0000,0.0000,0.0000,0.0000,0.0000,0.0000,1.0000,0.0000,0.0000,0.0000,0.0000,0.0000,0.0000,0.0000,0.0000,0.0000,0.0000,0.0000,0.0000,0.0000,0.0000,0.0000,0.0000,0.0000,0.0000,-0.1000,-0.1000,-0.1000,-0.1000
0,-1,0,-10.4119,-0.2150,0.0039,0.0110,0.6010,0.3610,1.1589,12.2203,0.0000,-0.0610,-0.1221,-0.0610,-0.1626,-0.3260,-10.5978,0.0128,-0.0015,-0.0004,0.0000,0.0000,0.0000,0.0000,0.0000,0.0000,0.0000,0.0000,0.0000,0.0000,0.0000,0.0000,0.0000,0.0000,1.0000,0.0000,0.0000,0.0000,0.0000,0.0000,0.0000,0.0000,0.0000,0.0000,0.0000,0.0000,0.0000,0.0000,0.0000,0.0000,0.0000,0.0000,0.0000,-0.1000,-0.1000,-0.1000,-0.1000
0,-1,0,-10.4119,-0.2150,0.0039,0.0110,0.6010,0.3610,1.1589,12.2205,0.0000,-0.0610,-0.1831,-0.0000,-0.1626,-0.2277,-10.5811,0.0128,-0.0016,-0.0004,0.0000,0.0000,0.0000,0.0000,0.0000,0.0000,0.0000,0.0000,0.0000,0.0000,0.0000,0.0000,0.0000,0.0000,1.0000,0.0000,0.0000,0.0000,0.0000,0.0000,0.0000,0.0000,0.0000,0.0000,0.0000,0.0000,0.0000,0.0000,0.0000,0.0000,0.0000,0.0000,0.0000,-0.1000,-0.1000,-0.1000,-0.1000
0,-1,0,-10.4119,-0.2150,0.0039,0.0110,0.6010,0.3610,1.1589,12.2208,0.0000,-0.0610,-0.1221,-0.0000,-0.1793,-0.2661,-10.5811,0.0128,-0.0016,-0.0004,0.0000,0.0000,0.0000,0.0000,0.0000,0.0000,0.0000,0.0000,0.0000,0.0000,0.0000,0.0000,0.0000,0.0000,1.0000,0.0000,0.0000,0.0000,0.0000,0.0000,0.0000,0.0000,0.0000,0.0000,0.0000,0.0000,0.0000,0.0000,0.0000,0.0000,0.0000,0.0000,0.0000,-0.1000,-0.1000,-0.1000,-0.1000
0,-1,0,-10.4119,-0.2150,0.0039,0.0110,0.6010,0.3610,1.1589,12.2208,0.0000,0.0610,0.0000,-0.0610,-0.1387,-0.2685,-10.5811,0.0128,-0.0016,-0.0004,0.0000,0.0000,0.0000,0.0000,0.0000,0.0000,0.0000,0.0000,0.0000,0.0000,0.0000,0.0000,0.0000,0.0000,1.0000,0.0000,0.0000,0.0000,0.0000,0.0000,0.0000,0.0000,0.0000,0.0000,0.0000,0.0000,0.0000,0.0000,0.0000,0.0000,0.0000,0.0000,0.0000,-0.1000,-0.1000,-0.1000,-0.1000
0,-1,0,-10.4119,-0.2150,0.0039,0.0110,0.6010,0.3610,1.1589,12.2210,0.0000,-0.0610,-0.1221,0.1221,-0.1315,-0.2301,-10.6193,0.0129,-0.0016,-0.0004,0.0000,0.0000,0.0000,0.0000,0.0000,0.0000,0.0000,0.0000,0.0000,0.0000,0.0000,0.0000,0.0000,0.0000,1.0000,0.0000,0.0000,0.0000,0.0000,0.0000,0.0000,0.0000,0.0000,0.0000,0.0000,0.0000,0.0000,0.0000,0.0000,0.0000,0.0000,0.0000,0.0000,-0.1000,-0.1000,-0.1000,-0.1000
0,-1,0,-10.4119,-0.2150,0.0039,0.0110,0.6010,0.3610,1.1589,12.2208,0.0000,-0.0610,-0.1831,-0.0000,-0.1339,-0.2493,-10.6050,0.0129,-0.0016,-0.0004,0.0000,0.0000,0.0000,0.0000,0.0000,0.0000,0.0000,0.0000,0.0000,0.0000,0.0000,0.0000,0.0000,0.0000,1.0000,0.0000,0.0000,0.0000,0.0000,0.0000,0.0000,0.0000,0.0000,0.0000,0.0000,0.0000,0.0000,0.0000,0.0000,0.0000,0.0000,0.0000,0.0000,-0.1000,-0.1000,-0.1000,-0.1000
0,-1,0,-10.4119,-0.2150,0.0039,0.0110,0.6010,0.3610,1.1589,12.2217,0.0000,-0.0610,-0.1831,-0.0000,-0.1602,-0.2349,-10.5453,0.0129,-0.0017,-0.0004,0.0000,0.0000,0.0000,0.0000,0.0000,0.0000,0.0000,0.0000,0.0000,0.0000,0.0000,0.0000,0.0000,0.0000,1.0000,0.0000,0.0000,0.0000,0.0000,0.0000,0.0000,0.0000,0.0000,0.0000,0.0000,0.0000,0.0000,0.0000,0.0000,0.0000,0.0000,0.0000,0.0000,-0.1000,-0.1000,-0.1000,-0.1000
0,-1,0,-10.4119,-0.2150,0.0039,0.0110,0.6010,0.3610,1.1589,12.2213,0.0000,0.0000,0.0000,-0.0610,-0.1506,-0.2421,-10.5644,0.0129,-0.0017,-0.0005,0.0000,0.0000,0.0000,0.0000,0.0000,0.0000,0.0000,0.0000,0.0000,0.0000,0.0000,0.0000,0.0000,0.0000,1.0000,0.0000,0.0000,0.0000,0.0000,0.0000,0.0000,0.0000,0.0000,0.0000,0.0000,0.0000,0.0000,0.0000,0.0000,0.0000,0.0000,0.0000,0.0000,-0.1000,-0.1000,-0.1000,-0.1000
0,-1,0,-10.4119,-0.2150,0.0039,0.0110,0.6010,0.3610,1.1589,12.2215,0.0000,0.0000,0.0000,-0.0000,-0.1698,-0.2685,-10.6169,0.0129,-0.0017,-0.0005,0.0000,0.0000,0.0000,0.0000,0.0000,0.0000,0.0000,0.0000,0.0000,0.0000,0.0000,0.0000,0.0000,0.0000,1.0000,0.0000,0.0000,0.0000,0.0000,0.0000,0.0000,0.0000,0.0000,0.0000,0.0000,0.0000,0.0000,0.0000,0.0000,0.0000,0.0000,0.0000,0.0000,-0.1000,-0.1000,-0.1000,-0.1000
0,-1,0,-10.4119,-0.2150,0.0039,0.0110,0.6010,0.3610,1.1589,12.2220,0.0000,-0.0610,-0.1221,0.1221,-0.1387,-0.2397,-10.6145,0.0129,-0.0018,-0.0004,0.0000,0.0000,0.0000,0.0000,0.0000,0.0000,0.0000,0.0000,0.0000,0.0000,0.0000,0.0000,0.0000,0.0000,1.0000,0.0000,0.0000,0.0000,0.0000,0.0000,0.0000,0.0000,0.0000,0.0000,0.0000,0.0000,0.0000,0.0000,0.0000,0.0000,0.0000,0.0000,0.0000,-0.1000,-0.1000,-0.1000,-0.1000
0,-1,0,-10.4119,-0.2150,0.0039,0.0110,0.6010,0.3610,1.1589,12.2220,0.0000,-0.1221,-0.0610,-0.0000,-0.2104,-0.2757,-10.6336,0.0129,-0.0018,-0.0004,0.0000,0.0000,0.0000,0.0000,0.0000,0.0000,0.0000,0.0000,0.0000,0.0000,0.0000,0.0000,0.0000,0.0000,1.0000,0.0000,0.0000,0.0000,0.0000,0.0000,0.0000,0.0000,0.0000,0.0000,0.0000,0.0000,0.0000,0.0000,0.0000,0.0000,0.0000,0.0000,0.0000,-0.1000,-0.1000,-0.1000,-0.1000
0,-1,0,-10.4119,-0.2150,0.0039,0.0110,0.6010,0.3610,1.1589,12.2222,0.0000,-0.0610,-0.1831,-0.0000,-0.1698,-0.2637,-10.6050,0.0129,-0.0018,-0.0005,0.0000,0.0000,0.0000,0.0000,0.0000,0.0000,0.0000,0.0000,0.0000,0.0000,0.0000,0.0000,0.0000,0.0000,1.0000,0.0000,0.0000,0.0000,0.0000,0.0000,0.0000,0.0000,0.0000,0.0000,0.0000,0.0000,0.0000,0.0000,0.0000,0.0000,0.0000,0.0000,0.0000,-0.1000,-0.1000,-0.1000,-0.1000
0,-1,0,-10.4119,-0.2150,0.0039,0.0110,0.6010,0.3610,1.1589,12.2225,0.0000,0.0610,0.0000,-0.0000,-0.1554,-0.2661,-10.5978,0.0130,-0.0018,-0.0005,0.0000,0.0000,0.0000,0.0000,0.0000,0.0000,0.0000,0.0000,0.0000,0.0000,0.0000,0.0000,0.0000,0.0000,1.0000,0.0000,0.0000,0.0000,0.0000,0.0000,0.0000,0.0000,0.0000,0.0000,0.0000,0.0000,0.0000,0.0000,0.0000,0.0000,0.0000,0.0000,0.0000,-0.1000,-0.1000,-0.1000,-0.1000
0,-1,0,-10.4119,-0.2150,0.0039,0.0110,0.6010,0.3610,1.1589,12.2227,0.0000,-0.1221,-0.0610,-0.0610,-0.1387,-0.2277,-10.6097,0.0130,-0.0018,-0.0005,0.0000,0.0000,0.0000,0.0000,0.0000,0.0000,0.0000,0.0000,0.0000,0.0000,0.0000,0.0000,0.0000,0.0000,1.0000,0.0000,0.0000,0.0000,0.0000,0.0000,0.0000,0.0000,0.0000,0.0000,0.0000,0.0000,0.0000,0.0000,0.0000,0.0000,0.0000,0.0000,0.0000,-0.1000,-0.1000,-0.1000,-0.1000
0,-1,0,-10.4119,-0.2150,0.0039,0.0110,0.6010,0.3610,1.1589,12.2225,0.0000,0.0610,-0.0610,-0.0000,-0.1817,-0.2325,-10.5310,0.0130,-0.0018,-0.0005,0.0000,0.0000,0.0000,0.0000,0.0000,0.0000,0.0000,0.0000,0.0000,0.0000,0.0000,0.0000,0.0000,0.0000,1.0000,0.0000,0.0000,0.0000,0.0000,0.0000,0.0000,0.0000,0.0000,0.0000,0.0000,0.0000,0.0000,0.0000,0.0000,0.0000,0.0000,0.0000,0.0000,-0.1000,-0.1000,-0.1000,-0.1000
0,-1,0,-10.4119,-0.2150,0.0039,0.0110,0.6010,0.3610,1.1589,12.2222,0.0000,-0.0610,-0.2441,-0.1221,-0.1841,-0.3093,-10.5763,0.0130,-0.0019,-0.0005,0.0000,0.0000,0.0000,0.0000,0.0000,0.0000,0.0000,0.0000,0.0000,0.0000,0.0000,0.0000,0.0000,0.0000,1.0000,0.0000,0.0000,0.0000,0.0000,0.0000,0.0000,0.0000,0.0000,0.0000,0.0000,0.0000,0.0000,0.0000,0.0000,0.0000,0.0000,0.0000,0.0000,-0.1000,-0.1000,-0.1000,-0.1000
0,-1,0,-10.4119,-0.2150,0.0039,0.0110,0.6010,0.3610,1.1589,12.2225,0.0000,-0.1831,-0.2441,-0.0000,-0.1602,-0.2397,-10.5333,0.0130,-0.0019,-0.0005,0.0000,0.0000,0.0000,0.0000,0.0000,0.0000,0.0000,0.0000,0.0000,0.0000,0.0000,0.0000,0.0000,0.0000,1.0000,0.0000,0.0000,0.0000,0.0000,0.0000,0.0000,0.0000,0.0000,0.0000,0.0000,0.0000,0.0000,0.0000,0.0000,0.0000,0.0000,0.0000,0.0000,-0.1000,-0.1000,-0.1000,-0.1000
0,-1,0,-10.4119,-0.2150,0.0039,0.0110,0.6010,0.3610,1.1589,12.2232,0.0000,-0.0610,-0.1831,-0.0000,-0.1578,-0.2709,-10.5691,0.0130,-0.0019,-0.0005,0.0000,0.0000,0.0000,0.0000,0.0000,0.0000,0.0000,0.0000,0.0000,0.0000,0.0000,0.0000,0.0000,0.0000,1.0000,0.0000,0.0000,0.0000,0.0000,0.0000,0.0000,0.0000,0.0000,0.0000,0.0000,0.0000,0.0000,0.0000,0.0000,0.0000,0.0000,0.0000,0.0000,-0.1000,-0.1000,-0.1000,-0.1000
0,-1,0,-10.4119,-0.2150,0.0039,0.0110,0.6010,0.3610,1.1589,12.2234,0.0000,0.0610,0.0000,-0.0610,-0.1219,-0.2565,-10.6169,0.0131,-0.0019,-0.0005,0.0000,0.0000,0.0000,0.0000,0.0000,0.0000,0.0000,0.0000,0.0000,0.0000,0.0000,0.0000,0.0000,0.0000,1.0000,0.0000,0.0000,0.0000,0.0000,0.0000,0.0000,0.0000,0.0000,0.0000,0.0000,0.0000,0.0000,0.0000,0.0000,0.0000,0.0000,0.0000,0.0000,-0.1000,-0.1000,-0.1000,-0.1000
0,-1,0,-10.4119,-0.2150,0.0039,0.0110,0.6010,0.3610,1.1589,12.2222,0.0000,-0.0610,-0.1221,-0.0000,-0.1650,-0.2325,-10.5906,0.0131,-0.0020,-0.0005,0.0000,0.0000,0.0000,0.0000,0.0000,0.0000,0.0000,0.0000,0.0000,0.0000,0.0000,0.0000,0.0000,0.0000,1.0000,0.0000,0.0000,0.0000,0.0000,0.0000,0.0000,0.0000,0.0000,0.0000,0.0000,0.0000,0.0000,0.0000,0.0000,0.0000,0.0000,0.0000,0.0000,-0.1000,-0.1000,-0.1000,-0.1000
0,-1,0,-10.4119,-0.2150,0.0039,0.0410,0.6510,0.3810,1.1589,12.2229,0.0000,-0.0610,-0.1221,-0.0000,-0.1458,-0.2973,-10.5763,0.0131,-0.0020,-0.0005,0.0000,0.0000,0.0000,0.0000,0.0000,0.0000,0.0000,0.0000,0.0000,0.0000,0.0000,0.0000,0.0000,0.0000,1.0000,0.0000,0.0000,0.0000,0.0000,0.0000,0.0000,0.0000,0.0000,0.0000,0.0000,0.0000,0.0000,0.0000,0.0000,0.0000,0.0000,0.0000,0.0000,-0.1000,-0.1000,-0.1000,-0.1000
0,-1,0,-10.4119,-0.2150,0.0039,0.0410,0.6510,0.3810,1.1589,12.2232,0.0000,-0.1221,-0.0610,-0.0000,-0.1411,-0.2565,-10.5882,0.0131,-0.0020,-0.0005,0.0000,0.0000,0.0000,0.0000,0.0000,0.0000,0.0000,0.0000,0.0000,0.0000,0.0000,0.0000,0.0000,0.0000,1.0000,0.0000,0.0000,0.0000,0.0000,0.0000,0.0000,0.0000,0.0000,0.0000,0.0000,0.0000,0.0000,0.0000,0.0000,0.0000,0.0000,0.0000,0.0000,-0.1000,-0.1000,-0.1000,-0.1000
0,-1,0,-10.4136,-0.2139,0.0134,0.0410,0.6510,0.3810,1.1589,12.2229,0.0000,-0.0610,-0.1221,-0.0000,-0.1387,-0.2325,-10.5811,0.0131,-0.0020,-0.0005,0.0000,0.0000,0.0000,0.0000,0.0000,0.0000,0.0000,0.0000,0.0000,0.0000,0.0000,0.0000,0.0000,0.0000,1.0000,0.0000,0.0000,0.0000,0.0000,0.0000,0.0000,0.0000,0.0000,0.0000,0.0000,0.0000,0.0000,0.0000,0.0000,0.0000,0.0000,0.0000,0.0000,-0.1000,-0.1000,-0.1000,-0.1000
0,-1,0,-10.4136,-0.2139,0.0134,0.0410,0.6510,0.3810,1.1589,12.2229,0.0000,0.0610,-0.1831,-0.0000,-0.1626,-0.2613,-10.5859,0.0132,0.0054,-0.0005,0.0000,0.0000,0.0000,0.0000,0.0000,0.0000,0.0000,0.0000,0.0000,0.0000,0.0000,0.0000,0.0000,0.0000,1.0000,0.0000,0.0000,0.0000,0.0000,0.0000,0.0000,0.0000,0.0000,0.0000,0.0000,0.0000,0.0000,0.0000,0.0000,0.0000,0.0000,0.0000,0.0000,-0.1000,-0.1000,-0.1000,-0.1000
0,-1,0,-10.4136,-0.2139,0.0134,0.0410,0.6510,0.3810,1.1589,12.2222,0.0000,-0.0610,-0.1221,-0.0610,-0.1172,-0.2493,-10.5572,0.0133,0.0054,-0.0005,0.0000,0.0000,0.0000,0.0000,0.0000,0.0000,0.0000,0.0000,0.0000,0.0000,0.0000,0.0000,0.0000,0.0000,1.0000,0.0000,0.0000,0.0000,0.0000,0.0000,0.0000,0.0000,0.0000,0.0000,0.0000,0.0000,0.0000,0.0000,0.0000,0.0000,0.0000,0.0000,0.0000,-0.1000,-0.1000,-0.1000,-0.1000
0,-1,0,-10.4136,-0.2139,0.0134,0.0410,0.6510,0.3810,1.1589,12.2227,0.0000,0.1221,0.0000,0.1831,-0.1698,-0.2349,-10.5787,0.0133,0.0054,-0.0005,0.0000,0.0000,0.0000,0.0000,0.0000,0.0000,0.0000,0.0000,0.0000,0.0000,0.0000,0.0000,0.0000,0.0000,1.0000,0.0000,0.0000,0.0000,0.0000,0.0000,0.0000,0.0000,0.0000,0.0000,0.0000,0.0000,0.0000,0.0000,0.0000,0.0000,0.0000,0.0000,0.0000,-0.1000,-0.1000,-0.1000,-0.1000
0,-1,0,-10.4136,-0.2139,0.0134,0.0410,0.6510,0.3810,1.1589,12.2217,0.0000,-0.1831,-0.1221,-0.0610,-0.1626,-0.2277,-10.5835,0.0133,0.0053,-0.0005,0.0000,0.0000,0.0000,0.0000,0.0000,0.0000,0.0000,0.0000,0.0000,0.0000,0.0000,0.0000,0.0000,0.0000,1.0000,0.0000,0.0000,0.0000,0.0000,0.0000,0.0000,0.0000,0.0000,0.0000,0.0000,0.0000,0.0000,0.0000,0.0000,0.0000,0.0000,0.0000,0.0000,-0.1000,-0.1000,-0.1000,-0.1000
0,-1,0,-10.4136,-0.2139,0.0134,0.0410,0.6510,0.3810,1.1589,12.2225,0.0000,-0.1831,0.0000,-0.0610,-0.1530,-0.2685,-10.6718,0.0133,0.0053,-0.0005,0.0000,0.0000,0.0000,0.0000,0.0000,0.0000,0.0000,0.0000,0.0000,0.0000,0.0000,0.0000,0.0000,0.0000,1.0000,0.0000,0.0000,0.0000,0.0000,0.0000,0.0000,0.0000,0.0000,0.0000,0.0000,0.0000,0.0000,0.0000,0.0000,0.0000,0.0000,0.0000,0.0000,-0.1000,-0.1000,-0.1000,-0.1000
0,-1,0,-10.4136,-0.2139,0.0134,0.0410,0.6510,0.3810,1.1589,12.2225,0.0000,-0.0610,-0.1221,-0.0610,-0.1315,-0.2397,-10.7100,0.0133,0.0053,-0.0005,0.0000,0.0000,0.0000,0.0000,0.0000,0.0000,0.0000,0.0000,0.0000,0.0000,0.0000,0.0000,0.0000,0.0000,1.0000,0.0000,0.0000,0.0000,0.0000,0.0000,0.0000,0.0000,0.0000,0.0000,0.0000,0.0000,0.0000,0.0000,0.0000,0.0000,0.0000,0.0000,0.0000,-0.1000,-0.1000,-0.1000,-0.1000
0,-1,0,-10.4136,-0.2139,0.0134,0.0410,0.6510,0.3810,1.1589,12.2222,0.0000,0.0000,-0.0610,0.1221,-0.1506,-0.2349,-10.6002,0.0133,0.0053,-0.0005,0.0000,0.0000,0.0000,0.0000,0.0000,0.0000,0.0000,0.0000,0.0000,0.0000,0.0000,0.0000,0.0000,0.0000,1.0000,0.0000,0.0000,0.0000,0.0000,0.0000,0.0000,0.0000,0.0000,0.0000,0.0000,0.0000,0.0000,0.0000,0.0000,0.0000,0.0000,0.0000,0.0000,-0.1000,-0.1000,-0.1000,-0.1000
0,-1,0,-10.4136,-0.2139,0.0134,0.0410,0.6510,0.3810,1.1589,12.2220,0.0000,0.0000,-0.0610,0.1221,-0.1721,-0.2349,-10.5691,0.0133,0.0053,-0.0005,0.0000,0.0000,0.0000,0.0000,0.0000,0.0000,0.0000,0.0000,0.0000,0.0000,0.0000,0.0000,0.0000,0.0000,1.0000,0.0000,0.0000,0.0000,0.0000,0.0000,0.0000,0.0000,0.0000,0.0000,0.0000,0.0000,0.0000,0.0000,0.0000,0.0000,0.0000,0.0000,0.0000,-0.1000,-0.1000,-0.1000,-0.1000
0,-1,0,-10.4136,-0.2139,0.0134,0.0410,0.6510,0.3810,1.1589,12.2222,0.0000,-0.1831,-0.1831,0.1221,-0.1865,-0.2565,-10.5835,0.0133,0.0052,-0.0005,0.0000,0.0000,0.0000,0.0000,0.0000,0.0000,0.0000,0.0000,0.0000,0.0000,0.0000,0.0000,0.0000,0.0000,1.0000,0.0000,0.0000,0.0000,0.0000,0.0000,0.0000,0.0000,0.0000,0.0000,0.0000,0.0000,0.0000,0.0000,0.0000,0.0000,0.0000,0.0000,0.0000,-0.1000,-0.1000,-0.1000,-0.1000
0,-1,0,-10.4136,-0.2139,0.0134,0.0410,0.6510,0.3810,1.1589,12.2227,0.0000,-0.2441,-0.2441,0.1221,-0.1482,-0.2349,-10.6073,0.0133,0.0052,-0.0005,0.0000,0.0000,0.0000,0.0000,0.0000,0.0000,0.0000,0.0000,0.0000,0.0000,0.0000,0.0000,0.0000,0.0000,1.0000,0.0000,0.0000,0.0000,0.0000,0.0000,0.0000,0.0000,0.0000,0.0000,0.0000,0.0000,0.0000,0.0000,0.0000,0.0000,0.0000,0.0000,0.0000,-0.1000,-0.1000,-0.1000,-0.1000
0,-1,0,-10.4136,-0.2139,0.0134,0.0410,0.6510,0.3810,1.1589,12.2227,0.0000,0.0000,-0.0610,0.1221,-0.1482,-0.2301,-10.5930,0.0134,0.0052,-0.0005,0.0000,0.0000,0.0000,0.0000,0.0000,0.0000,0.0000,0.0000,0.0000,0.0000,0.0000,0.0000,0.0000,0.0000,1.0000,0.0000,0.0000,0.0000,0.0000,0.0000,0.0000,0.0000,0.0000,0.0000,0.0000,0.0000,0.0000,0.0000,0.0000,0.0000,0.0000,0.0000,0.0000,-0.1000,-0.1000,-0.1000,-0.1000
0,-1,0,-10.4136,-0.2139,0.0134,0.0410,0.6510,0.3810,1.1589,12.2229,0.0000,-0.1221,-0.0610,0.1221,-0.2008,-0.2158,-10.5381,0.0134,0.0051,-0.0005,0.0000,0.0000,0.0000,0.0000,0.0000,0.0000,0.0000,0.0000,0.0000,0.0000,0.0000,0.0000,0.0000,0.0000,1.0000,0.0000,0.0000,0.0000,0.0000,0.0000,0.0000,0.0000,0.0000,0.0000,0.0000,0.0000,0.0000,0.0000,0.0000,0.0000,0.0000,0.0000,0.0000,-0.1000,-0.1000,-0.1000,-0.1000
0,-1,0,-10.4136,-0.2139,0.0134,0.0410,0.6510,0.3810,1.1589,12.2227,0.0000,-0.2441,-0.0610,-0.0000,-0.1315,-0.2301,-10.5739,0.0134,0.0051,-0.0005,0.0000,0.0000,0.0000,0.0000,0.0000,0.0000,0.0000,0.0000,0.0000,0.0000,0.0000,0.0000,0.0000,0.0000,1.0000,0.0000,0.0000,0.0000,0.0000,0.0000,0.0000,0.0000,0.0000,0.0000,0.0000,0.0000,0.0000,0.0000,0.0000,0.0000,0.0000,0.0000,0.0000,-0.1000,-0.1000,-0.1000,-0.1000
0,-1,0,-10.4136,-0.2139,0.0134,0.0410,0.6510,0.3810,1.1589,12.2225,0.0000,-0.2441,-0.1831,0.1221,-0.2008,-0.2493,-10.6050,0.0134,0.0051,-0.0005,0.0000,0.0000,0.0000,0.0000,0.0000,0.0000,0.0000,0.0000,0.0000,0.0000,0.0000,0.0000,0.0000,0.0000,1.0000,0.0000,0.0000,0.0000,0.0000,0.0000,0.0000,0.0000,0.0000,0.0000,0.0000,0.0000,0.0000,0.0000,0.0000,0.0000,0.0000,0.0000,0.0000,-0.1000,-0.1000,-0.1000,-0.1000
0,-1,0,-10.4136,-0.2139,0.0134,0.0410,0.6510,0.3810,1.1589,12.2217,0.0000,0.0000,0.0000,0.1221,-0.1817,-0.2062,-10.5548,0.0134,0.0050,-0.0005,0.0000,0.0000,0.0000,0.0000,0.0000,0.0000,0.0000,0.0000,0.0000,0.0000,0.0000,0.0000,0.0000,0.0000,1.0000,0.0000,0.0000,0.0000,0.0000,0.0000,0.0000,0.0000,0.0000,0.0000,0.0000,0.0000,0.0000,0.0000,0.0000,0.0000,0.0000,0.0000,0.0000,-0.1000,-0.1000,-0.1000,-0.1000
0,-1,0,-10.4136,-0.2139,0.0134,0.0410,0.6510,0.3810,1.1589,12.2213,0.0000,-0.0610,-0.1221,-0.0610,-0.1626,-0.2158,-10.5501,0.0134,0.0050,-0.0005,0.0000,0.0000,0.0000,0.0000,0.0000,0.0000,0.0000,0.0000,0.0000,0.0000,0.0000,0.0000,0.0000,0.0000,1.0000,0.0000,0.0000,0.0000,0.0000,0.0000,0.0000,0.0000,0.0000,0.0000,0.0000,0.0000,0.0000,0.0000,0.0000,0.0000,0.0000,0.0000,0.0000,-0.1000,-0.1000,-0.1000,-0.1000
0,-1,0,-10.4136,-0.2139,0.0134,0.0410,0.6510,0.3810,1.1589,12.2225,0.0000,0.0000,-0.1221,-0.0000,-0.1363,-0.2349,-10.5882,0.0134,0.0050,-0.0005,0.0000,0.0000,0.0000,0.0000,0.0000,0.0000,0.0000,0.0000,0.0000,0.0000,0.0000,0.0000,0.0000,0.0000,1.0000,0.0000,0.0000,0.0000,0.0000,0.0000,0.0000,0.0000,0.0000,0.0000,0.0000,0.0000,0.0000,0.0000,0.0000,0.0000,0.0000,0.0000,0.0000,-0.1000,-0.1000,-0.1000,-0.1000
0,-1,0,-10.4136,-0.2139,0.0134,0.0410,0.6510,0.3810,1.1589,12.2225,0.0000,0.0610,-0.1221,-0.0000,-0.1435,-0.2637,-10.6073,0.0134,0.0049,-0.0005,0.0000,0.0000,0.0000,0.0000,0.0000,0.0000,0.0000,0.0000,0.0000,0.0000,0.0000,0.0000,0.0000,0.0000,1.0000,0.0000,0.0000,0.0000,0.0000,0.0000,0.0000,0.0000,0.0000,0.0000,0.0000,0.0000,0.0000,0.0000,0.0000,0.0000,0.0000,0.0000,0.0000,-0.1000,-0.1000,-0.1000,-0.1000
0,-1,0,-10.4136,-0.2139,0.0134,0.0410,0.6510,0.3810,1.1589,12.2220,0.0000,0.0000,0.0000,-0.0000,-0.1219,-0.2733,-10.5882,0.0135,0.0049,-0.0005,0.0000,0.0000,0.0000,0.0000,0.0000,0.0000,0.0000,0.0000,0.0000,0.0000,0.0000,0.0000,0.0000,0.0000,1.0000,0.0000,0.0000,0.0000,0.0000,0.0000,0.0000,0.0000,0.0000,0.0000,0.0000,0.0000,0.0000,0.0000,0.0000,0.0000,0.0000,0.0000,0.0000,-0.1000,-0.1000,-0.1000,-0.1000
0,-1,0,-10.4136,-0.2139,0.0134,0.0410,0.6510,0.3810,1.1589,12.2220,0.0000,-0.1221,0.0000,-0.0000,-0.1841,-0.2565,-10.6145,0.0135,0.0049,-0.0005,0.0000,0.0000,0.0000,0.0000,0.0000,0.0000,0.0000,0.0000,0.0000,0.0000,0.0000,0.0000,0.0000,0.0000,1.0000,0.0000,0.0000,0.0000,0.0000,0.0000,0.0000,0.0000,0.0000,0.0000,0.0000,0.0000,0.0000,0.0000,0.0000,0.0000,0.0000,0.0000,0.0000,-0.1000,-0.1000,-0.1000,-0.1000
0,-1,0,-10.4136,-0.2139,0.0134,0.0110,0.6110,0.3610,1.1589,12.2222,0.0000,0.0000,0.0000,-0.0610,-0.1315,-0.2709,-10.6288,0.0135,0.0049,-0.0005,0.0000,0.0000,0.0000,0.0000,0.0000,0.0000,0.0000,0.0000,0.0000,0.0000,0.0000,0.0000,0.0000,0.0000,1.0000,0.0000,0.0000,0.0000,0.0000,0.0000,0.0000,0.0000,0.0000,0.0000,0.0000,0.0000,0.0000,0.0000,0.0000,0.0000,0.0000,0.0000,0.0000,-0.1000,-0.1000,-0.1000,-0.1000
0,-1,0,-10.4136,-0.2139,0.0134,0.0110,0.6110,0.3610,1.1589,12.2227,0.0000,-0.0610,-0.1221,0.1831,-0.1626,-0.2158,-10.6026,0.0135,0.0049,-0.0005,0.0000,0.0000,0.0000,0.0000,0.0000,0.0000,0.0000,0.0000,0.0000,0.0000,0.0000,0.0000,0.0000,0.0000,1.0000,0.0000,0.0000,0.0000,0.0000,0.0000,0.0000,0.0000,0.0000,0.0000,0.0000,0.0000,0.0000,0.0000,0.0000,0.0000,0.0000,0.0000,0.0000,-0.1000,-0.1000,-0.1000,-0.1000
0,-1,0,-10.4136,-0.2139,0.0134,0.0110,0.6110,0.3610,1.1589,12.2222,0.0000,0.0000,-0.0610,-0.0000,-0.1243,-0.2325,-10.6145,0.0135,0.0049,-0.0005,0.0000,0.0000,0.0000,0.0000,0.0000,0.0000,0.0000,0.0000,0.0000,0.0000,0.0000,0.0000,0.0000,0.0000,1.0000,0.0000,0.0000,0.0000,0.0000,0.0000,0.0000,0.0000,0.0000,0.0000,0.0000,0.0000,0.0000,0.0000,0.0000,0.0000,0.0000,0.0000,0.0000,-0.1000,-0.1000,-0.1000,-0.1000
0,-1,0,-10.4136,-0.2139,0.0134,0.0110,0.6110,0.3610,1.1589,12.2220,0.0000,-0.0610,-0.1831,-0.0000,-0.1865,-0.2517,-10.6527,0.0135,0.0048,-0.0005,0.0000,0.0000,0.0000,0.0000,0.0000,0.0000,0.0000,0.0000,0.0000,0.0000,0.0000,0.0000,0.0000,0.0000,1.0000,0.0000,0.0000,0.0000,0.0000,0.0000,0.0000,0.0000,0.0000,0.0000,0.0000,0.0000,0.0000,0.0000,0.0000,0.0000,0.0000,0.0000,0.0000,-0.1000,-0.1000,-0.1000,-0.1000
0,-1,0,-10.4136,-0.2139,0.0134,0.0110,0.6110,0.3610,1.1589,12.2215,0.0000,-0.1831,-0.1221,-0.0610,-0.1363,-0.2421,-10.5763,0.0135,0.0048,-0.0005,0.0000,0.0000,0.0000,0.0000,0.0000,0.0000,0.0000,0.0000,0.0000,0.0000,0.0000,0.0000,0.0000,0.0000,1.0000,0.0000,0.0000,0.0000,0.0000,0.0000,0.0000,0.0000,0.0000,0.0000,0.0000,0.0000,0.0000,0.0000,0.0000,0.0000,0.0000,0.0000,0.0000,-0.1000,-0.1000,-0.1000,-0.1000
0,-1,0,-10.4136,-0.2139,0.0134,0.0110,0.6110,0.3610,1.1589,12.2213,0.0000,-0.0610,-0.1221,-0.0000,-0.1721,-0.2253,-10.5787,0.0135,0.0048,-0.0005,0.0000,0.0000,0.0000,0.0000,0.0000,0.0000,0.0000,0.0000,0.0000,0.0000,0.0000,0.0000,0.0000,0.0000,1.0000,0.0000,0.0000,0.0000,0.0000,0.0000,0.0000,0.0000,0.0000,0.0000,0.0000,0.0000,0.0000,0.0000,0.0000,0.0000,0.0000,0.0000,0.0000,-0.1000,-0.1000,-0.1000,-0.1000
0,-1,0,-10.4136,-0.2139,0.0134,0.0110,0.6110,0.3610,1.1589,12.2208,0.0000,-0.0610,-0.1831,0.1221,-0.1578,-0.2541,-10.6360,0.0135,0.0047,-0.0005,0.0000,0.0000,0.0000,0.0000,0.0000,0.0000,0.0000,0.0000,0.0000,0.0000,0.0000,0.0000,0.0000,0.0000,1.0000,0.0000,0.0000,0.0000,0.0000,0.0000,0.0000,0.0000,0.0000,0.0000,0.0000,0.0000,0.0000,0.0000,0.0000,0.0000,0.0000,0.0000,0.0000,-0.1000,-0.1000,-0.1000,-0.1000
0,-1,0,-10.4129,-0.2145,0.0038,0.0110,0.6110,0.3610,1.1589,12.2208,0.0000,-0.0610,-0.1831,-0.0000,-0.1411,-0.2301,-10.6121,0.0136,0.0047,-0.0005,0.0000,0.0000,0.0000,0.0000,0.0000,0.0000,0.0000,0.0000,0.0000,0.0000,0.0000,0.0000,0.0000,0.0000,1.0000,0.0000,0.0000,0.0000,0.0000,0.0000,0.0000,0.0000,0.0000,0.0000,0.0000,0.0000,0.0000,0.0000,0.0000,0.0000,0.0000,0.0000,0.0000,-0.1000,-0.1000,-0.1000,-0.1000
0,-1,0,-10.4129,-0.2145,0.0038,0.0110,0.6110,0.3610,1.1589,12.2203,0.0000,0.0610,-0.1831,0.1221,-0.1435,-0.2685,-10.5691,0.0136,0.0047,-0.0005,0.0000,0.0000,0.0000,0.0000,0.0000,0.0000,0.0000,0.0000,0.0000,0.0000,0.0000,0.0000,0.0000,0.0000,1.0000,0.0000,0.0000,0.0000,0.0000,0.0000,0.0000,0.0000,0.0000,0.0000,0.0000,0.0000,0.0000,0.0000,0.0000,0.0000,0.0000,0.0000,0.0000,-0.1000,-0.1000,-0.1000,-0.1000
0,-1,0,-10.4129,-0.2145,0.0038,0.0110,0.6110,0.3610,1.1589,12.2191,0.0000,0.1221,0.0000,-0.0610,-0.1530,-0.2253,-10.6193,0.0137,0.0045,-0.0005,0.0000,0.0000,0.0000,0.0000,0.0000,0.0000,0.0000,0.0000,0.0000,0.0000,0.0000,0.0000,0.0000,0.0000,1.0000,0.0000,0.0000,0.0000,0.0000,0.0000,0.0000,0.0000,0.0000,0.0000,0.0000,0.0000,0.0000,0.0000,0.0000,0.0000,0.0000,0.0000,0.0000,-0.1000,-0.1000,-0.1000,-0.1000
0,-1,0,-10.4129,-0.2145,0.0038,0.0110,0.6110,0.3610,1.1589,12.2169,0.0000,-0.1221,-0.0610,-0.0000,-0.1530,-0.2349,-10.6121,0.0137,0.0045,-0.0005,0.0000,0.0000,0.0000,0.0000,0.0000,0.0000,0.0000,0.0000,0.0000,0.0000,0.0000,0.0000,0.0000,0.0000,1.0000,0.0000,0.0000,0.0000,0.0000,0.0000,0.0000,0.0000,0.0000,0.0000,0.0000,0.0000,0.0000,0.0000,0.0000,0.0000,0.0000,0.0000,0.0000,-0.1000,-0.1000,-0.1000,-0.1000
0,-1,0,-10.4129,-0.2145,0.0038,0.0110,0.6110,0.3610,1.1589,12.2174,0.0000,-0.1831,-0.1221,-0.0000,-0.1435,-0.2206,-10.6264,0.0137,0.0044,-0.0005,0.0000,0.0000,0.0000,0.0000,0.0000,0.0000,0.0000,0.0000,0.0000,0.0000,0.0000,0.0000,0.0000,0.0000,1.0000,0.0000,0.0000,0.0000,0.0000,0.0000,0.0000,0.0000,0.0000,0.0000,0.0000,0.0000,0.0000,0.0000,0.0000,0.0000,0.0000,0.0000,0.0000,-0.1000,-0.1000,-0.1000,-0.1000
0,-1,0,-10.4129,-0.2145,0.0038,0.0110,0.6110,0.3610,1.1589,12.2174,0.0000,0.0000,-0.0610,-0.0610,-0.1458,-0.2134,-10.5405,0.0137,0.0044,-0.0005,0.0000,0.0000,0.0000,0.0000,0.0000,0.0000,0.0000,0.0000,0.0000,0.0000,0.0000,0.0000,0.0000,0.0000,1.0000,0.0000,0.0000,0.0000,0.0000,0.0000,0.0000,0.0000,0.0000,0.0000,0.0000,0.0000,0.0000,0.0000,0.0000,0.0000,0.0000,0.0000,0.0000,-0.1000,-0.1000,-0.1000,-0.1000
0,-1,0,-10.4129,-0.2145,0.0038,0.0110,0.6110,0.3610,1.1589,12.2159,0.0000,0.0000,-0.0610,0.1831,-0.1674,-0.2589,-10.6312,0.0137,0.0044,-0.0005,0.0000,0.0000,0.0000,0.0000,0.0000,0.0000,0.0000,0.0000,0.0000,0.0000,0.0000,0.0000,0.0000,0.0000,1.0000,0.0000,0.0000,0.0000,0.0000,0.0000,0.0000,0.0000,0.0000,0.0000,0.0000,0.0000,0.0000,0.0000,0.0000,0.0000,0.0000,0.0000,0.0000,-0.1000,-0.1000,-0.1000,-0.1000
0,-1,0,-10.4129,-0.2145,0.0038,0.0110,0.6110,0.3610,1.1589,12.2150,0.0000,0.0000,0.0000,0.1831,-0.1698,-0.2445,-10.6766,0.0137,0.0044,-0.0005,0.0000,0.0000,0.0000,0.0000,0.0000,0.0000,0.0000,0.0000,0.0000,0.0000,0.0000,0.0000,0.0000,0.0000,1.0000,0.0000,0.0000,0.0000,0.0000,0.0000,0.0000,0.0000,0.0000,0.0000,0.0000,0.0000,0.0000,0.0000,0.0000,0.0000,0.0000,0.0000,0.0000,-0.1000,-0.1000,-0.1000,-0.1000
0,-1,0,-10.4129,-0.2145,0.0038,0.0110,0.6110,0.3610,1.1589,12.2140,0.0000,0.0000,0.0000,-0.0610,-0.1363,-0.3093,-10.5978,0.0137,0.0044,-0.0005,0.0000,0.0000,0.0000,0.0000,0.0000,0.0000,0.0000,0.0000,0.0000,0.0000,0.0000,0.0000,0.0000,0.0000,1.0000,0.0000,0.0000,0.0000,0.0000,0.0000,0.0000,0.0000,0.0000,0.0000,0.0000,0.0000,0.0000,0.0000,0.0000,0.0000,0.0000,0.0000,0.0000,-0.1000,-0.1000,-0.1000,-0.1000
0,-1,0,-10.4129,-0.2145,0.0038,0.0110,0.6110,0.3610,1.1589,12.2130,0.0000,0.0000,-0.1221,-0.0000,-0.1291,-0.2253,-10.5715,0.0138,0.0043,-0.0005,0.0000,0.0000,0.0000,0.0000,0.0000,0.0000,0.0000,0.0000,0.0000,0.0000,0.0000,0.0000,0.0000,0.0000,1.0000,0.0000,0.0000,0.0000,0.0000,0.0000,0.0000,0.0000,0.0000,0.0000,0.0000,0.0000,0.0000,0.0000,0.0000,0.0000,0.0000,0.0000,0.0000,-0.1000,-0.1000,-0.1000,-0.1000
0,-1,0,-10.4129,-0.2145,0.0038,0.0110,0.6110,0.3610,1.1589,12.2111,0.0000,-0.1831,-0.0610,-0.0000,-0.1602,-0.2781,-10.5739,0.0138,0.0043,-0.0005,0.0000,0.0000,0.0000,0.0000,0.0000,0.0000,0.0000,0.0000,0.0000,0.0000,0.0000,0.0000,0.0000,0.0000,1.0000,0.0000,0.0000,0.0000,0.0000,0.0000,0.0000,0.0000,0.0000,0.0000,0.0000,0.0000,0.0000,0.0000,0.0000,0.0000,0.0000,0.0000,0.0000,-0.1000,-0.1000,-0.1000,-0.1000
0,-1,0,-10.4129,-0.2145,0.0038,0.0110,0.6110,0.3610,1.1589,12.2113,0.0000,0.0000,-0.0610,-0.0000,-0.1506,-0.2397,-10.6193,0.0138,0.0043,-0.0005,0.0000,0.0000,0.0000,0.0000,0.0000,0.0000,0.0000,0.0000,0.0000,0.0000,0.0000,0.0000,0.0000,0.0000,1.0000,0.0000,0.0000,0.0000,0.0000,0.0000,0.0000,0.0000,0.0000,0.0000,0.0000,0.0000,0.0000,0.0000,0.0000,0.0000,0.0000,0.0000,0.0000,-0.1000,-0.1000,-0.1000,-0.1000
0,-1,0,-10.4129,-0.2145,0.0038,0.0110,0.6110,0.3610,1.1589,12.2125,0.0000,0.0000,0.0610,-0.0610,-0.2080,-0.2685,-10.6240,0.0138,0.0043,-0.0006,0.0000,0.0000,0.0000,0.0000,0.0000,0.0000,0.0000,0.0000,0.0000,0.0000,0.0000,0.0000,0.0000,0.0000,1.0000,0.0000,0.0000,0.0000,0.0000,0.0000,0.0000,0.0000,0.0000,0.0000,0.0000,0.0000,0.0000,0.0000,0.0000,0.0000,0.0000,0.0000,0.0000,-0.1000,-0.1000,-0.1000,-0.1000
0,-1,0,-10.4129,-0.2145,0.0038,0.0110,0.6110,0.3610,1.1589,12.2138,0.0000,0.0000,-0.0610,-0.0610,-0.1745,-0.2421,-10.5906,0.0138,0.0042,-0.0006,0.0000,0.0000,0.0000,0.0000,0.0000,0.0000,0.0000,0.0000,0.0000,0.0000,0.0000,0.0000,0.0000,0.0000,1.0000,0.0000,0.0000,0.0000,0.0000,0.0000,0.0000,0.0000,0.0000,0.0000,0.0000,0.0000,0.0000,0.0000,0.0000,0.0000,0.0000,0.0000,0.0000,-0.1000,-0.1000,-0.1000,-0.1000
0,-1,0,-10.4129,-0.2145,0.0038,0.0110,0.6110,0.3610,1.1589,12.2150,0.0000,-0.0610,-0.1831,-0.0610,-0.1602,-0.2397,-10.5930,0.0138,0.0042,-0.0006,0.0000,0.0000,0.0000,0.0000,0.0000,0.0000,0.0000,0.0000,0.0000,0.0000,0.0000,0.0000,0.0000,0.0000,1.0000,0.0000,0.0000,0.0000,0.0000,0.0000,0.0000,0.0000,0.0000,0.0000,0.0000,0.0000,0.0000,0.0000,0.0000,0.0000,0.0000,0.0000,0.0000,-0.1000,-0.1000,-0.1000,-0.1000
0,-1,0,-10.4129,-0.2145,0.0038,0.0110,0.6110,0.3610,1.1589,12.2164,0.0000,-0.0610,-0.2441,-0.0000,-0.1339,-0.2134,-10.5835,0.0138,0.0042,-0.0006,0.0000,0.0000,0.0000,0.0000,0.0000,0.0000,0.0000,0.0000,0.0000,0.0000,0.0000,0.0000,0.0000,0.0000,1.0000,0.0000,0.0000,0.0000,0.0000,0.0000,0.0000,0.0000,0.0000,0.0000,0.0000,0.0000,0.0000,0.0000,0.0000,0.0000,0.0000,0.0000,0.0000,-0.1000,-0.1000,-0.1000,-0.1000
0,-1,0,-10.4129,-0.2145,0.0038,0.0110,0.6110,0.3610,1.1589,12.2179,0.0000,-0.1221,-0.0610,-0.0000,-0.1387,-0.2349,-10.6145,0.0138,0.0042,-0.0006,0.0000,0.0000,0.0000,0.0000,0.0000,0.0000,0.0000,0.0000,0.0000,0.0000,0.0000,0.0000,0.0000,0.0000,1.0000,0.0000,0.0000,0.0000,0.0000,0.0000,0.0000,0.0000,0.0000,0.0000,0.0000,0.0000,0.0000,0.0000,0.0000,0.0000,0.0000,0.0000,0.0000,-0.1000,-0.1000,-0.1000,-0.1000
0,-1,0,-10.4129,-0.2145,0.0038,-0.0090,0.2210,0.0910,1.1589,12.2188,0.0000,0.0000,-0.0610,-0.0000,-0.1530,-0.2589,-10.6336,0.0139,0.0041,-0.0006,0.0000,0.0000,0.0000,0.0000,0.0000,0.0000,0.0000,0.0000,0.0000,0.0000,0.0000,0.0000,0.0000,0.0000,1.0000,0.0000,0.0000,0.0000,0.0000,0.0000,0.0000,0.0000,0.0000,0.0000,0.0000,0.0000,0.0000,0.0000,0.0000,0.0000,0.0000,0.0000,0.0000,-0.1000,-0.1000,-0.1000,-0.1000
0,-1,0,-10.4129,-0.2145,0.0038,-0.0090,0.2210,0.0910,1.1589,12.2205,0.0000,0.0000,0.0000,-0.0610,-0.1698,-0.2637,-10.6026,0.0139,0.0041,-0.0006,0.0000,0.0000,0.0000,0.0000,0.0000,0.0000,0.0000,0.0000,0.0000,0.0000,0.0000,0.0000,0.0000,0.0000,1.0000,0.0000,0.0000,0.0000,0.0000,0.0000,0.0000,0.0000,0.0000,0.0000,0.0000,0.0000,0.0000,0.0000,0.0000,0.0000,0.0000,0.0000,0.0000,-0.1000,-0.1000,-0.1000,-0.1000
0,-1,0,-10.4129,-0.2145,0.0038,-0.0090,0.2210,0.0910,1.1589,12.2222,0.0000,0.0000,0.0000,-0.0000,-0.1339,-0.2253,-10.6002,0.0139,0.0041,-0.0006,0.0000,0.0000,0.0000,0.0000,0.0000,0.0000,0.0000,0.0000,0.0000,0.0000,0.0000,0.0000,0.0000,0.0000,1.0000,0.0000,0.0000,0.0000,0.0000,0.0000,0.0000,0.0000,0.0000,0.0000,0.0000,0.0000,0.0000,0.0000,0.0000,0.0000,0.0000,0.0000,0.0000,-0.1000,-0.1000,-0.1000,-0.1000
0,-1,0,-10.4129,-0.2145,0.0038,-0.0090,0.2210,0.0910,1.1589,12.2237,0.0000,-0.0610,-0.1831,-0.0000,-0.1698,-0.2589,-10.5620,0.0139,0.0041,-0.0006,0.0000,0.0000,0.0000,0.0000,0.0000,0.0000,0.0000,0.0000,0.0000,0.0000,0.0000,0.0000,0.0000,0.0000,1.0000,0.0000,0.0000,0.0000,0.0000,0.0000,0.0000,0.0000,0.0000,0.0000,0.0000,0.0000,0.0000,0.0000,0.0000,0.0000,0.0000,0.0000,0.0000,-0.1000,-0.1000,-0.1000,-0.1000
0,-1,0,-10.4129,-0.2145,0.0038,-0.0090,0.2210,0.0910,1.1589,12.2254,0.0000,-0.0610,-0.1831,-0.0000,-0.1841,-0.2493,-10.6193,0.0139,0.0040,-0.0006,0.0000,0.0000,0.0000,0.0000,0.0000,0.0000,0.0000,0.0000,0.0000,0.0000,0.0000,0.0000,0.0000,0.0000,1.0000,0.0000,0.0000,0.0000,0.0000,0.0000,0.0000,0.0000,0.0000,0.0000,0.0000,0.0000,0.0000,0.0000,0.0000,0.0000,0.0000,0.0000,0.0000,-0.1000,-0.1000,-0.1000,-0.1000
0,-1,0,-10.4129,-0.2145,0.0038,-0.0090,0.2210,0.0910,1.1589,12.2268,0.0000,-0.3052,-0.1831,-0.0610,-0.1195,-0.2301,-10.5668,0.0139,0.0040,-0.0006,0.0000,0.0000,0.0000,0.0000,0.0000,0.0000,0.0000,0.0000,0.0000,0.0000,0.0000,0.0000,0.0000,0.0000,1.0000,0.0000,0.0000,0.0000,0.0000,0.0000,0.0000,0.0000,0.0000,0.0000,0.0000,0.0000,0.0000,0.0000,0.0000,0.0000,0.0000,0.0000,0.0000,-0.1000,-0.1000,-0.1000,-0.1000
0,-1,0,-10.4405,-0.2012,-0.0081,-0.0090,0.2210,0.0910,1.1589,12.2300,0.0000,-0.0610,-0.1221,-0.0610,-0.1530,-0.2493,-10.5548,0.0139,0.0040,-0.0006,0.0000,0.0000,0.0000,0.0000,0.0000,0.0000,0.0000,0.0000,0.0000,0.0000,0.0000,0.0000,0.0000,0.0000,1.0000,0.0000,0.0000,0.0000,0.0000,0.0000,0.0000,0.0000,0.0000,0.0000,0.0000,0.0000,0.0000,0.0000,0.0000,0.0000,0.0000,0.0000,0.0000,-0.1000,-0.1000,-0.1000,-0.1000
0,-1,0,-10.4405,-0.2012,-0.0081,-0.0090,0.2210,0.0910,1.1589,12.2300,0.0000,-0.0610,-0.1221,-0.0000,-0.1578,-0.2541,-10.5882,0.0139,0.0040,-0.0006,0.0000,0.0000,0.0000,0.0000,0.0000,0.0000,0.0000,0.0000,0.0000,0.0000,0.0000,0.0000,0.0000,0.0000,1.0000,0.0000,0.0000,0.0000,0.0000,0.0000,0.0000,0.0000,0.0000,0.0000,0.0000,0.0000,0.0000,0.0000,0.0000,0.0000,0.0000,0.0000,0.0000,-0.1000,-0.1000,-0.1000,-0.1000
0,-1,0,-10.4405,-0.2012,-0.0081,-0.0090,0.2210,0.0910,1.1589,12.2307,0.0000,-0.0610,-0.1831,0.2441,-0.1817,-0.2158,-10.5739,0.0139,0.0039,-0.0006,0.0000,0.0000,0.0000,0.0000,0.0000,0.0000,0.0000,0.0000,0.0000,0.0000,0.0000,0.0000,0.0000,0.0000,1.0000,0.0000,0.0000,0.0000,0.0000,0.0000,0.0000,0.0000,0.0000,0.0000,0.0000,0.0000,0.0000,0.0000,0.0000,0.0000,0.0000,0.0000,0.0000,-0.1000,-0.1000,-0.1000,-0.1000
0,-1,0,-10.4405,-0.2012,-0.0081,-0.0090,0.2210,0.0910,1.1589,12.2331,0.0000,-0.1831,-0.0610,-0.0000,-0.1650,-0.2397,-10.5882,0.0139,0.0039,-0.0006,0.0000,0.0000,0.0000,0.0000,0.0000,0.0000,0.0000,0.0000,0.0000,0.0000,0.0000,0.0000,0.0000,0.0000,1.0000,0.0000,0.0000,0.0000,0.0000,0.0000,0.0000,0.0000,0.0000,0.0000,0.0000,0.0000,0.0000,0.0000,0.0000,0.0000,0.0000,0.0000,0.0000,-0.1000,-0.1000,-0.1000,-0.1000
0,-1,0,-10.4405,-0.2012,-0.0081,-0.0090,0.2210,0.0910,1.1589,12.2355,0.0000,-0.0610,-0.1221,-0.0000,-0.1052,-0.2565,-10.6073,0.0140,0.0039,-0.0006,0.0000,0.0000,0.0000,0.0000,0.0000,0.0000,0.0000,0.0000,0.0000,0.0000,0.0000,0.0000,0.0000,0.0000,1.0000,0.0000,0.0000,0.0000,0.0000,0.0000,0.0000,0.0000,0.0000,0.0000,0.0000,0.0000,0.0000,0.0000,0.0000,0.0000,0.0000,0.0000,0.0000,-0.1000,-0.1000,-0.1000,-0.1000
0,-1,0,-10.4405,-0.2012,-0.0081,-0.0090,0.2210,0.0910,1.1589,12.2372,0.0000,-0.0610,-0.2441,0.1221,-0.1602,-0.2685,-10.5477,0.0140,0.0038,-0.0006,0.0000,0.0000,0.0000,0.0000,0.0000,0.0000,0.0000,0.0000,0.0000,0.0000,0.0000,0.0000,0.0000,0.0000,1.0000,0.0000,0.0000,0.0000,0.0000,0.0000,0.0000,0.0000,0.0000,0.0000,0.0000,0.0000,0.0000,0.0000,0.0000,0.0000,0.0000,0.0000,0.0000,-0.1000,-0.1000,-0.1000,-0.1000
0,-1,0,-10.4405,-0.2012,-0.0081,-0.0090,0.2210,0.0910,1.1589,12.2394,0.0000,0.0000,0.0000,-0.0000,-0.1172,-0.3021,-10.6217,0.0140,0.0037,-0.0006,0.0000,0.0000,0.0000,0.0000,0.0000,0.0000,0.0000,0.0000,0.0000,0.0000,0.0000,0.0000,0.0000,0.0000,1.0000,0.0000,0.0000,0.0000,0.0000,0.0000,0.0000,0.0000,0.0000,0.0000,0.0000,0.0000,0.0000,0.0000,0.0000,0.0000,0.0000,0.0000,0.0000,-0.1000,-0.1000,-0.1000,-0.1000
0,-1,0,-10.4405,-0.2012,-0.0081,-0.0090,0.2210,0.0910,1.1589,12.2418,0.0000,0.0000,-0.1221,-0.0000,-0.1435,-0.2253,-10.6073,0.0141,0.0037,-0.0006,0.0000,0.0000,0.0000,0.0000,0.0000,0.0000,0.0000,0.0000,0.0000,0.0000,0.0000,0.0000,0.0000,0.0000,1.0000,0.0000,0.0000,0.0000,0.0000,0.0000,0.0000,0.0000,0.0000,0.0000,0.0000,0.0000,0.0000,0.0000,0.0000,0.0000,0.0000,0.0000,0.0000,-0.1000,-0.1000,-0.1000,-0.1000
0,-1,0,-10.4405,-0.2012,-0.0081,-0.0090,0.2210,0.0910,1.1589,12.2428,0.0000,-0.0610,-0.2441,-0.0000,-0.1650,-0.2158,-10.5739,0.0141,0.0036,-0.0006,0.0000,0.0000,0.0000,0.0000,0.0000,0.0000,0.0000,0.0000,0.0000,0.0000,0.0000,0.0000,0.0000,0.0000,1.0000,0.0000,0.0000,0.0000,0.0000,0.0000,0.0000,0.0000,0.0000,0.0000,0.0000,0.0000,0.0000,0.0000,0.0000,0.0000,0.0000,0.0000,0.0000,-0.1000,-0.1000,-0.1000,-0.1000
0,-1,0,-10.4405,-0.2012,-0.0081,-0.0090,0.2210,0.0910,1.1589,12.2428,0.0000,0.0610,0.0000,0.1831,-0.1674,-0.2637,-10.6050,0.0141,0.0036,-0.0006,0.0000,0.0000,0.0000,0.0000,0.0000,0.0000,0.0000,0.0000,0.0000,0.0000,0.0000,0.0000,0.0000,0.0000,1.0000,0.0000,0.0000,0.0000,0.0000,0.0000,0.0000,0.0000,0.0000,0.0000,0.0000,0.0000,0.0000,0.0000,0.0000,0.0000,0.0000,0.0000,0.0000,-0.1000,-0.1000,-0.1000,-0.1000
0,-1,0,-10.4405,-0.2012,-0.0081,-0.0090,0.2210,0.0910,1.1589,12.2425,0.0000,0.0610,-0.0610,-0.0000,-0.1458,-0.2589,-10.6121,0.0141,0.0036,-0.0006,0.0000,0.0000,0.0000,0.0000,0.0000,0.0000,0.0000,0.0000,0.0000,0.0000,0.0000,0.0000,0.0000,0.0000,1.0000,0.0000,0.0000,0.0000,0.0000,0.0000,0.0000,0.0000,0.0000,0.0000,0.0000,0.0000,0.0000,0.0000,0.0000,0.0000,0.0000,0.0000,0.0000,-0.1000,-0.1000,-0.1000,-0.1000
0,-1,0,-10.4405,-0.2012,-0.0081,-0.0090,0.2210,0.0910,1.1589,12.2428,0.0000,0.0000,0.0000,0.1221,-0.1841,-0.2757,-10.6264,0.0141,0.0036,-0.0006,0.0000,0.0000,0.0000,0.0000,0.0000,0.0000,0.0000,0.0000,0.0000,0.0000,0.0000,0.0000,0.0000,0.0000,1.0000,0.0000,0.0000,0.0000,0.0000,0.0000,0.0000,0.0000,0.0000,0.0000,0.0000,0.0000,0.0000,0.0000,0.0000,0.0000,0.0000,0.0000,0.0000,-0.1000,-0.1000,-0.1000,-0.1000
0,-1,0,-10.4405,-0.2012,-0.0081,-0.0090,0.2210,0.0910,1.1589,12.2430,0.0000,-0.1221,-0.0610,0.1221,-0.1076,-0.2589,-10.5572,0.0141,0.0036,-0.0006,0.0000,0.0000,0.0000,0.0000,0.0000,0.0000,0.0000,0.0000,0.0000,0.0000,0.0000,0.0000,0.0000,0.0000,1.0000,0.0000,0.0000,0.0000,0.0000,0.0000,0.0000,0.0000,0.0000,0.0000,0.0000,0.0000,0.0000,0.0000,0.0000,0.0000,0.0000,0.0000,0.0000,-0.1000,-0.1000,-0.1000,-0.1000
0,-1,0,-10.4405,-0.2012,-0.0081,-0.0090,0.2210,0.0910,1.1589,12.2428,0.0000,0.0000,-0.0610,0.1221,-0.1650,-0.2421,-10.6312,0.0142,0.0035,-0.0006,0.0000,0.0000,0.0000,0.0000,0.0000,0.0000,0.0000,0.0000,0.0000,0.0000,0.0000,0.0000,0.0000,0.0000,1.0000,0.0000,0.0000,0.0000,0.0000,0.0000,0.0000,0.0000,0.0000,0.0000,0.0000,0.0000,0.0000,0.0000,0.0000,0.0000,0.0000,0.0000,0.0000,-0.1000,-0.1000,-0.1000,-0.1000
0,-1,0,-10.4405,-0.2012,-0.0081,-0.0090,0.2210,0.0910,1.1589,12.2433,0.0000,0.2441,0.0000,-0.0610,-0.1506,-0.2469,-10.5286,0.0142,0.0035,-0.0006,0.0000,0.0000,0.0000,0.0000,0.0000,0.0000,0.0000,0.0000,0.0000,0.0000,0.0000,0.0000,0.0000,0.0000,1.0000,0.0000,0.0000,0.0000,0.0000,0.0000,0.0000,0.0000,0.0000,0.0000,0.0000,0.0000,0.0000,0.0000,0.0000,0.0000,0.0000,0.0000,0.0000,-0.1000,-0.1000,-0.1000,-0.1000
0,-1,0,-10.4405,-0.2012,-0.0081,-0.0090,0.2210,0.0910,1.1589,12.2428,0.0000,0.0000,0.0000,-0.0000,-0.1458,-0.2517,-10.6312,0.0142,0.0035,-0.0006,0.0000,0.0000,0.0000,0.0000,0.0000,0.0000,0.0000,0.0000,0.0000,0.0000,0.0000,0.0000,0.0000,0.0000,1.0000,0.0000,0.0000,0.0000,0.0000,0.0000,0.0000,0.0000,0.0000,0.0000,0.0000,0.0000,0.0000,0.0000,0.0000,0.0000,0.0000,0.0000,0.0000,-0.1000,-0.1000,-0.1000,-0.1000
0,-1,0,-10.4405,-0.2012,-0.0081,-0.0090,0.2210,0.0910,1.1589,12.2425,0.0000,-0.0610,-0.1221,-0.0000,-0.1506,-0.2517,-10.6336,0.0142,0.0035,-0.0006,0.0000,0.0000,0.0000,0.0000,0.0000,0.0000,0.0000,0.0000,0.0000,0.0000,0.0000,0.0000,0.0000,0.0000,1.0000,0.0000,0.0000,0.0000,0.0000,0.0000,0.0000,0.0000,0.0000,0.0000,0.0000,0.0000,0.0000,0.0000,0.0000,0.0000,0.0000,0.0000,0.0000,-0.1000,-0.1000,-0.1000,-0.1000
0,-1,0,-10.4405,-0.2012,-0.0081,-0.0090,0.2210,0.0910,1.1589,12.2423,0.0000,0.0000,0.0000,-0.0000,-0.1626,-0.2541,-10.6073,0.0142,0.0035,-0.0006,0.0000,0.0000,0.0000,0.0000,0.0000,0.0000,0.0000,0.0000,0.0000,0.0000,0.0000,0.0000,0.0000,0.0000,1.0000,0.0000,0.0000,0.0000,0.0000,0.0000,0.0000,0.0000,0.0000,0.0000,0.0000,0.0000,0.0000,0.0000,0.0000,0.0000,0.0000,0.0000,0.0000,-0.1000,-0.1000,-0.1000,-0.1000
0,-1,0,-10.4405,-0.2012,-0.0081,-0.0090,0.2210,0.0910,1.1589,12.2425,0.0000,-0.0610,-0.1831,0.2441,-0.1387,-0.2877,-10.6742,0.0143,0.0034,-0.0006,0.0000,0.0000,0.0000,0.0000,0.0000,0.0000,0.0000,0.0000,0.0000,0.0000,0.0000,0.0000,0.0000,0.0000,1.0000,0.0000,0.0000,0.0000,0.0000,0.0000,0.0000,0.0000,0.0000,0.0000,0.0000,0.0000,0.0000,0.0000,0.0000,0.0000,0.0000,0.0000,0.0000,-0.1000,-0.1000,-0.1000,-0.1000
0,-1,0,-10.4405,-0.2012,-0.0081,-0.0090,0.2210,0.0910,1.1589,12.2428,0.0000,-0.0610,-0.1221,-0.0000,-0.1506,-0.2397,-10.5978,0.0143,0.0034,-0.0006,0.0000,0.0000,0.0000,0.0000,0.0000,0.0000,0.0000,0.0000,0.0000,0.0000,0.0000,0.0000,0.0000,0.0000,1.0000,0.0000,0.0000,0.0000,0.0000,0.0000,0.0000,0.0000,0.0000,0.0000,0.0000,0.0000,0.0000,0.0000,0.0000,0.0000,0.0000,0.0000,0.0000,-0.1000,-0.1000,-0.1000,-0.1000
0,-1,0,-10.4405,-0.2012,-0.0081,-0.0090,0.2210,0.0910,1.1589,12.2430,0.0000,-0.0610,-0.1831,0.1831,-0.1674,-0.2277,-10.6026,0.0143,0.0034,-0.0006,0.0000,0.0000,0.0000,0.0000,0.0000,0.0000,0.0000,0.0000,0.0000,0.0000,0.0000,0.0000,0.0000,0.0000,1.0000,0.0000,0.0000,0.0000,0.0000,0.0000,0.0000,0.0000,0.0000,0.0000,0.0000,0.0000,0.0000,0.0000,0.0000,0.0000,0.0000,0.0000,0.0000,-0.1000,-0.1000,-0.1000,-0.1000
0,-1,0,-10.4405,-0.2012,-0.0081,-0.0090,0.2210,0.0910,1.1589,12.2435,0.0000,-0.0610,-0.1221,-0.0000,-0.1411,-0.2541,-10.5596,0.0143,0.0034,-0.0006,0.0000,0.0000,0.0000,0.0000,0.0000,0.0000,0.0000,0.0000,0.0000,0.0000,0.0000,0.0000,0.0000,0.0000,1.0000,0.0000,0.0000,0.0000,0.0000,0.0000,0.0000,0.0000,0.0000,0.0000,0.0000,0.0000,0.0000,0.0000,0.0000,0.0000,0.0000,0.0000,0.0000,-0.1000,-0.1000,-0.1000,-0.1000
0,-1,0,-10.4405,-0.2012,-0.0081,-0.0090,0.2210,0.0910,1.1589,12.2440,0.0000,0.0000,0.0000,-0.0000,-0.1817,-0.2565,-10.5835,0.0143,0.0033,-0.0006,0.0000,0.0000,0.0000,0.0000,0.0000,0.0000,0.0000,0.0000,0.0000,0.0000,0.0000,0.0000,0.0000,0.0000,1.0000,0.0000,0.0000,0.0000,0.0000,0.0000,0.0000,0.0000,0.0000,0.0000,0.0000,0.0000,0.0000,0.0000,0.0000,0.0000,0.0000,0.0000,0.0000,-0.1000,-0.1000,-0.1000,-0.1000
0,-1,0,-10.4405,-0.2012,-0.0081,-0.0090,0.2210,0.0910,1.1589,12.2442,0.0000,-0.0610,-0.1221,-0.0000,-0.1626,-0.2661,-10.6145,0.0143,0.0033,-0.0006,0.0000,0.0000,0.0000,0.0000,0.0000,0.0000,0.0000,0.0000,0.0000,0.0000,0.0000,0.0000,0.0000,0.0000,1.0000,0.0000,0.0000,0.0000,0.0000,0.0000,0.0000,0.0000,0.0000,0.0000,0.0000,0.0000,0.0000,0.0000,0.0000,0.0000,0.0000,0.0000,0.0000,-0.1000,-0.1000,-0.1000,-0.1000
0,-1,0,-10.4405,-0.2012,-0.0081,-0.0090,0.2210,0.0910,1.1589,12.2440,0.0000,-0.0610,-0.1221,0.1221,-0.1435,-0.2086,-10.5668,0.0143,0.0033,-0.0006,0.0000,0.0000,0.0000,0.0000,0.0000,0.0000,0.0000,0.0000,0.0000,0.0000,0.0000,0.0000,0.0000,0.0000,1.0000,0.0000,0.0000,0.0000,0.0000,0.0000,0.0000,0.0000,0.0000,0.0000,0.0000,0.0000,0.0000,0.0000,0.0000,0.0000,0.0000,0.0000,0.0000,-0.1000,-0.1000,-0.1000,-0.1000
0,-1,0,-10.4405,-0.2012,-0.0081,-0.0090,0.2210,0.0910,1.1589,12.2442,0.0000,-0.1831,-0.1221,0.1221,-0.1315,-0.2589,-10.5930,0.0143,0.0033,-0.0006,0.0000,0.0000,0.0000,0.0000,0.0000,0.0000,0.0000,0.0000,0.0000,0.0000,0.0000,0.0000,0.0000,0.0000,1.0000,0.0000,0.0000,0.0000,0.0000,0.0000,0.0000,0.0000,0.0000,0.0000,0.0000,0.0000,0.0000,0.0000,0.0000,0.0000,0.0000,0.0000,0.0000,-0.1000,-0.1000,-0.1000,-0.1000
0,-1,0,-10.4405,-0.2012,-0.0081,-0.0090,0.2210,0.0910,1.1589,12.2440,0.0000,-0.0610,-0.1221,-0.0000,-0.0956,-0.2565,-10.5906,0.0143,0.0032,-0.0006,0.0000,0.0000,0.0000,0.0000,0.0000,0.0000,0.0000,0.0000,0.0000,0.0000,0.0000,0.0000,0.0000,0.0000,1.0000,0.0000,0.0000,0.0000,0.0000,0.0000,0.0000,0.0000,0.0000,0.0000,0.0000,0.0000,0.0000,0.0000,0.0000,0.0000,0.0000,0.0000,0.0000,-0.1000,-0.1000,-0.1000,-0.1000
0,-1,0,-10.4405,-0.2012,-0.0081,-0.0090,0.2210,0.0910,1.1589,12.2440,0.0000,0.0000,0.0000,-0.0000,-0.1411,-0.2086,-10.6240,0.0143,0.0032,-0.0006,0.0000,0.0000,0.0000,0.0000,0.0000,0.0000,0.0000,0.0000,0.0000,0.0000,0.0000,0.0000,0.0000,0.0000,1.0000,0.0000,0.0000,0.0000,0.0000,0.0000,0.0000,0.0000,0.0000,0.0000,0.0000,0.0000,0.0000,0.0000,0.0000,0.0000,0.0000,0.0000,0.0000,-0.1000,-0.1000,-0.1000,-0.1000
0,-1,0,-10.4405,-0.2012,-0.0081,-0.0090,0.2210,0.0910,1.1589,12.2437,0.0000,-0.1831,-0.1831,0.1221,-0.1554,-0.2062,-10.5930,0.0143,0.0032,-0.0006,0.0000,0.0000,0.0000,0.0000,0.0000,0.0000,0.0000,0.0000,0.0000,0.0000,0.0000,0.0000,0.0000,0.0000,1.0000,0.0000,0.0000,0.0000,0.0000,0.0000,0.0000,0.0000,0.0000,0.0000,0.0000,0.0000,0.0000,0.0000,0.0000,0.0000,0.0000,0.0000,0.0000,-0.1000,-0.1000,-0.1000,-0.1000
0,-1,0,-10.4405,-0.2012,-0.0081,0.0210,-0.1290,-0.0790,1.1589,12.2435,0.0000,-0.1221,-0.0610,-0.0000,-0.1698,-0.2134,-10.5691,0.0143,0.0032,-0.0006,0.0000,0.0000,0.0000,0.0000,0.0000,0.0000,0.0000,0.0000,0.0000,0.0000,0.0000,0.0000,0.0000,0.0000,1.0000,0.0000,0.0000,0.0000,0.0000,0.0000,0.0000,0.0000,0.0000,0.0000,0.0000,0.0000,0.0000,0.0000,0.0000,0.0000,0.0000,0.0000,0.0000,-0.1000,-0.1000,-0.1000,-0.1000
0,-1,0,-10.4405,-0.2012,-0.0081,0.0210,-0.1290,-0.0790,1.1589,12.2435,0.0000,0.0000,0.0000,-0.0000,-0.1554,-0.2637,-10.5859,0.0144,0.0032,-0.0006,0.0000,0.0000,0.0000,0.0000,0.0000,0.0000,0.0000,0.0000,0.0000,0.0000,0.0000,0.0000,0.0000,0.0000,1.0000,0.0000,0.0000,0.0000,0.0000,0.0000,0.0000,0.0000,0.0000,0.0000,0.0000,0.0000,0.0000,0.0000,0.0000,0.0000,0.0000,0.0000,0.0000,-0.1000,-0.1000,-0.1000,-0.1000
0,-1,0,-10.4405,-0.2012,-0.0081,0.0210,-0.1290,-0.0790,1.1589,12.2433,0.0000,-0.0610,-0.1221,-0.0000,-0.1482,-0.2445,-10.6312,0.0144,0.0031,-0.0006,0.0000,0.0000,0.0000,0.0000,0.0000,0.0000,0.0000,0.0000,0.0000,0.0000,0.0000,0.0000,0.0000,0.0000,1.0000,0.0000,0.0000,0.0000,0.0000,0.0000,0.0000,0.0000,0.0000,0.0000,0.0000,0.0000,0.0000,0.0000,0.0000,0.0000,0.0000,0.0000,0.0000,-0.1000,-0.1000,-0.1000,-0.1000
0,-1,0,-10.4405,-0.2012,-0.0081,0.0210,-0.1290,-0.0790,1.1589,12.2433,0.0000,0.0610,0.0000,0.1221,-0.1530,-0.2973,-10.6551,0.0144,0.0031,-0.0006,0.0000,0.0000,0.0000,0.0000,0.0000,0.0000,0.0000,0.0000,0.0000,0.0000,0.0000,0.0000,0.0000,0.0000,1.0000,0.0000,0.0000,0.0000,0.0000,0.0000,0.0000,0.0000,0.0000,0.0000,0.0000,0.0000,0.0000,0.0000,0.0000,0.0000,0.0000,0.0000,0.0000,-0.1000,-0.1000,-0.1000,-0.1000
0,-1,0,-10.4112,0.2119,0.0342,0.0210,-0.1290,-0.0790,1.1589,12.2437,0.0000,0.0000,0.0000,-0.0000,-0.1626,-0.2253,-10.5310,0.0144,0.0031,-0.0006,0.0000,0.0000,0.0000,0.0000,0.0000,0.0000,0.0000,0.0000,0.0000,0.0000,0.0000,0.0000,0.0000,0.0000,1.0000,0.0000,0.0000,0.0000,0.0000,0.0000,0.0000,0.0000,0.0000,0.0000,0.0000,0.0000,0.0000,0.0000,0.0000,0.0000,0.0000,0.0000,0.0000,-0.1000,-0.1000,-0.1000,-0.1000
0,-1,0,-10.4112,0.2119,0.0342,0.0210,-0.1290,-0.0790,1.1589,12.2433,0.0000,-0.0610,-0.1221,0.1831,-0.1411,-0.2469,-10.6217,0.0144,0.0030,-0.0006,0.0000,0.0000,0.0000,0.0000,0.0000,0.0000,0.0000,0.0000,0.0000,0.0000,0.0000,0.0000,0.0000,0.0000,1.0000,0.0000,0.0000,0.0000,0.0000,0.0000,0.0000,0.0000,0.0000,0.0000,0.0000,0.0000,0.0000,0.0000,0.0000,0.0000,0.0000,0.0000,0.0000,-0.1000,-0.1000,-0.1000,-0.1000
0,-1,0,-10.4112,0.2119,0.0342,0.0210,-0.1290,-0.0790,1.1589,12.2433,0.0000,-0.0610,-0.1221,0.1221,-0.1530,-0.2517,-10.6073,0.0144,0.0030,-0.0006,0.0000,0.0000,0.0000,0.0000,0.0000,0.0000,0.0000,0.0000,0.0000,0.0000,0.0000,0.0000,0.0000,0.0000,1.0000,0.0000,0.0000,0.0000,0.0000,0.0000,0.0000,0.0000,0.0000,0.0000,0.0000,0.0000,0.0000,0.0000,0.0000,0.0000,0.0000,0.0000,0.0000,-0.1000,-0.1000,-0.1000,-0.1000
0,-1,0,-10.4112,0.2119,0.0342,0.0210,-0.1290,-0.0790,1.1589,12.2430,0.0000,-0.1831,-0.1221,-0.0000,-0.1578,-0.2901,-10.6264,0.0144,0.0030,-0.0006,0.0000,0.0000,0.0000,0.0000,0.0000,0.0000,0.0000,0.0000,0.0000,0.0000,0.0000,0.0000,0.0000,0.0000,1.0000,0.0000,0.0000,0.0000,0.0000,0.0000,0.0000,0.0000,0.0000,0.0000,0.0000,0.0000,0.0000,0.0000,0.0000,0.0000,0.0000,0.0000,0.0000,-0.1000,-0.1000,-0.1000,-0.1000
0,-1,0,-10.4112,0.2119,0.0342,0.0210,-0.1290,-0.0790,1.1589,12.2430,0.0000,-0.0610,-0.1831,-0.0610,-0.1674,-0.2709,-10.6264,0.0145,0.0030,-0.0006,0.0000,0.0000,0.0000,0.0000,0.0000,0.0000,0.0000,0.0000,0.0000,0.0000,0.0000,0.0000,0.0000,0.0000,1.0000,0.0000,0.0000,0.0000,0.0000,0.0000,0.0000,0.0000,0.0000,0.0000,0.0000,0.0000,0.0000,0.0000,0.0000,0.0000,0.0000,0.0000,0.0000,-0.1000,-0.1000,-0.1000,-0.1000
0,-1,0,-10.4112,0.2119,0.0342,0.0210,-0.1290,-0.0790,1.1589,12.2425,0.0000,-0.1221,-0.0610,0.1221,-0.1721,-0.2757,-10.6384,0.0145,0.0029,-0.0006,0.0000,0.0000,0.0000,0.0000,0.0000,0.0000,0.0000,0.0000,0.0000,0.0000,0.0000,0.0000,0.0000,0.0000,1.0000,0.0000,0.0000,0.0000,0.0000,0.0000,0.0000,0.0000,0.0000,0.0000,0.0000,0.0000,0.0000,0.0000,0.0000,0.0000,0.0000,0.0000,0.0000,-0.1000,-0.1000,-0.1000,-0.1000
0,-1,0,-10.4112,0.2119,0.0342,0.0210,-0.1290,-0.0790,1.1589,12.2423,0.0000,-0.0610,-0.1831,-0.0000,-0.1411,-0.2469,-10.5381,0.0145,0.0029,-0.0006,0.0000,0.0000,0.0000,0.0000,0.0000,0.0000,0.0000,0.0000,0.0000,0.0000,0.0000,0.0000,0.0000,0.0000,1.0000,0.0000,0.0000,0.0000,0.0000,0.0000,0.0000,0.0000,0.0000,0.0000,0.0000,0.0000,0.0000,0.0000,0.0000,0.0000,0.0000,0.0000,0.0000,-0.1000,-0.1000,-0.1000,-0.1000
0,-1,0,-10.4112,0.2119,0.0342,0.0210,-0.1290,-0.0790,1.1589,12.2418,0.0000,-0.1831,-0.1831,0.1221,-0.1698,-0.2421,-10.5811,0.0145,0.0028,-0.0006,0.0000,0.0000,0.0000,0.0000,0.0000,0.0000,0.0000,0.0000,0.0000,0.0000,0.0000,0.0000,0.0000,0.0000,1.0000,0.0000,0.0000,0.0000,0.0000,0.0000,0.0000,0.0000,0.0000,0.0000,0.0000,0.0000,0.0000,0.0000,0.0000,0.0000,0.0000,0.0000,0.0000,-0.1000,-0.1000,-0.1000,-0.1000
0,-1,0,-10.4112,0.2119,0.0342,0.0210,-0.1290,-0.0790,1.1589,12.2416,0.0000,0.0000,0.0000,0.1221,-0.1411,-0.2589,-10.5739,0.0146,0.0028,-0.0006,0.0000,0.0000,0.0000,0.0000,0.0000,0.0000,0.0000,0.0000,0.0000,0.0000,0.0000,0.0000,0.0000,0.0000,1.0000,0.0000,0.0000,0.0000,0.0000,0.0000,0.0000,0.0000,0.0000,0.0000,0.0000,0.0000,0.0000,0.0000,0.0000,0.0000,0.0000,0.0000,0.0000,-0.1000,-0.1000,-0.1000,-0.1000
0,-1,0,-10.4112,0.2119,0.0342,0.0210,-0.1290,-0.0790,1.1589,12.2416,0.0000,-0.0610,-0.1221,0.1831,-0.1721,-0.2829,-10.5548,0.0146,0.0028,-0.0006,0.0000,0.0000,0.0000,0.0000,0.0000,0.0000,0.0000,0.0000,0.0000,0.0000,0.0000,0.0000,0.0000,0.0000,1.0000,0.0000,0.0000,0.0000,0.0000,0.0000,0.0000,0.0000,0.0000,0.0000,0.0000,0.0000,0.0000,0.0000,0.0000,0.0000,0.0000,0.0000,0.0000,-0.1000,-0.1000,-0.1000,-0.1000
0,-1,0,-10.4112,0.2119,0.0342,0.0210,-0.1290,-0.0790,1.1589,12.2411,0.0000,0.0610,0.0000,-0.0000,-0.1626,-0.2373,-10.6312,0.0146,0.0027,-0.0006,0.0000,0.0000,0.0000,0.0000,0.0000,0.0000,0.0000,0.0000,0.0000,0.0000,0.0000,0.0000,0.0000,0.0000,1.0000,0.0000,0.0000,0.0000,0.0000,0.0000,0.0000,0.0000,0.0000,0.0000,0.0000,0.0000,0.0000,0.0000,0.0000,0.0000,0.0000,0.0000,0.0000,-0.1000,-0.1000,-0.1000,-0.1000
0,-1,0,-10.4112,0.2119,0.0342,0.0210,-0.1290,-0.0790,1.1589,12.2411,0.0000,-0.0610,-0.1831,-0.0000,-0.1387,-0.2637,-10.6073,0.0146,0.0027,-0.0006,0.0000,0.0000,0.0000,0.0000,0.0000,0.0000,0.0000,0.0000,0.0000,0.0000,0.0000,0.0000,0.0000,0.0000,1.0000,0.0000,0.0000,0.0000,0.0000,0.0000,0.0000,0.0000,0.0000,0.0000,0.0000,0.0000,0.0000,0.0000,0.0000,0.0000,0.0000,0.0000,0.0000,-0.1000,-0.1000,-0.1000,-0.1000
0,-1,0,-10.4112,0.2119,0.0342,0.0210,-0.1290,-0.0790,1.1589,12.2411,0.0000,-0.1831,-0.1831,-0.0610,-0.1339,-0.2589,-10.6479,0.0146,0.0027,-0.0006,0.0000,0.0000,0.0000,0.0000,0.0000,0.0000,0.0000,0.0000,0.0000,0.0000,0.0000,0.0000,0.0000,0.0000,1.0000,0.0000,0.0000,0.0000,0.0000,0.0000,0.0000,0.0000,0.0000,0.0000,0.0000,0.0000,0.0000,0.0000,0.0000,0.0000,0.0000,0.0000,0.0000,-0.1000,-0.1000,-0.1000,-0.1000
0,-1,0,-10.4112,0.2119,0.0342,0.0210,-0.1290,-0.0790,1.1589,12.2408,0.0000,-0.0610,-0.1221,-0.0000,-0.1482,-0.2661,-10.5739,0.0146,0.0027,-0.0006,0.0000,0.0000,0.0000,0.0000,0.0000,0.0000,0.0000,0.0000,0.0000,0.0000,0.0000,0.0000,0.0000,0.0000,1.0000,0.0000,0.0000,0.0000,0.0000,0.0000,0.0000,0.0000,0.0000,0.0000,0.0000,0.0000,0.0000,0.0000,0.0000,0.0000,0.0000,0.0000,0.0000,-0.1000,-0.1000,-0.1000,-0.1000
0,-1,0,-10.4112,0.2119,0.0342,0.0210,-0.1290,-0.0790,1.1589,12.2406,0.0000,0.0000,-0.2441,0.1831,-0.1674,-0.2781,-10.5906,0.0146,0.0026,-0.0006,0.0000,0.0000,0.0000,0.0000,0.0000,0.0000,0.0000,0.0000,0.0000,0.0000,0.0000,0.0000,0.0000,0.0000,1.0000,0.0000,0.0000,0.0000,0.0000,0.0000,0.0000,0.0000,0.0000,0.0000,0.0000,0.0000,0.0000,0.0000,0.0000,0.0000,0.0000,0.0000,0.0000,-0.1000,-0.1000,-0.1000,-0.1000
0,-1,0,-10.4112,0.2119,0.0342,0.0210,-0.1290,-0.0790,1.1589,12.2416,0.0000,-0.0610,-0.1221,-0.0000,-0.1482,-0.2421,-10.5644,0.0147,0.0026,-0.0006,0.0000,0.0000,0.0000,0.0000,0.0000,0.0000,0.0000,0.0000,0.0000,0.0000,0.0000,0.0000,0.0000,0.0000,1.0000,0.0000,0.0000,0.0000,0.0000,0.0000,0.0000,0.0000,0.0000,0.0000,0.0000,0.0000,0.0000,0.0000,0.0000,0.0000,0.0000,0.0000,0.0000,-0.1000,-0.1000,-0.1000,-0.1000
0,-1,0,-10.4112,0.2119,0.0342,0.0210,-0.1290,-0.0790,1.1589,12.2418,0.0000,0.0000,-0.1221,0.1221,-0.1363,-0.2373,-10.6312,0.0147,0.0026,-0.0006,0.0000,0.0000,0.0000,0.0000,0.0000,0.0000,0.0000,0.0000,0.0000,0.0000,0.0000,0.0000,0.0000,0.0000,1.0000,0.0000,0.0000,0.0000,0.0000,0.0000,0.0000,0.0000,0.0000,0.0000,0.0000,0.0000,0.0000,0.0000,0.0000,0.0000,0.0000,0.0000,0.0000,-0.1000,-0.1000,-0.1000,-0.1000
0,-1,0,-10.4112,0.2119,0.0342,0.0210,-0.1290,-0.0790,1.1589,12.2416,0.0000,-0.0610,-0.1221,0.1221,-0.1363,-0.2565,-10.6240,0.0147,0.0026,-0.0006,0.0000,0.0000,0.0000,0.0000,0.0000,0.0000,0.0000,0.0000,0.0000,0.0000,0.0000,0.0000,0.0000,0.0000,1.0000,0.0000,0.0000,0.0000,0.0000,0.0000,0.0000,0.0000,0.0000,0.0000,0.0000,0.0000,0.0000,0.0000,0.0000,0.0000,0.0000,0.0000,0.0000,-0.1000,-0.1000,-0.1000,-0.1000
0,-1,0,-10.4112,0.2119,0.0342,0.0210,-0.1290,-0.0790,1.1589,12.2413,0.0000,0.0000,0.0000,-0.0000,-0.1411,-0.2541,-10.6002,0.0147,0.0025,-0.0006,0.0000,0.0000,0.0000,0.0000,0.0000,0.0000,0.0000,0.0000,0.0000,0.0000,0.0000,0.0000,0.0000,0.0000,1.0000,0.0000,0.0000,0.0000,0.0000,0.0000,0.0000,0.0000,0.0000,0.0000,0.0000,0.0000,0.0000,0.0000,0.0000,0.0000,0.0000,0.0000,0.0000,-0.1000,-0.1000,-0.1000,-0.1000
