loop_index, counter, last_step_ns, T_ref, theta_ref, phi_ref, uwind, vwind, wwind, rho, rpm1, rpm2, rpm3, rpm4,v_batt,alt,gyro_roll,gyro_pitch,gyro_yaw,accel_X,accel_Y,accel_Z,roll,pitch,yaw,X,Y,Z,Xdot,Ydot,Zdot,x0,y0,z0,e.xbee_time,xbee_time_received_ns,xbee_x,xbee_y,xbee_z,xbee_qw,xbee_qx,xbee_qy,xbee_qz,sp_roll,sp_pitch,sp_yaw,sp_X,sp_Y,sp_Z,sp_Xdot,sp_Ydot,sp_Zdot,u_roll,u_pitch,u_yaw,u_X,u_Y,u_Z,mot_1,mot_2,mot_3,mot_4,thrust_mot1,thrust_mot2,thrust_mot3,thrust_mot4,flight_mode
0,-1,0,-10.4329,-0.0675,0.1935,0.0610,0.0210,-0.0290,1.1667,8025.5859,8025.5859,8025.5859,8025.5859,12.2002,0.0000,-0.0610,-0.1831,0.1221,-0.1339,-0.1151,-10.5095,0.0088,-0.0017,0.0002,0.0000,0.0000,0.0000,0.0000,0.0000,0.0000,0.0000,0.0000,0.0000,0.0000,0.0000,0.0000,0.0000,0.0000,1.0000,0.0000,0.0000,0.0000,0.0000,0.0000,0.0000,0.0000,0.0000,0.0000,0.0000,0.0000,0.0000,0.0000,0.0000,0.0000,0.0000,0.0000,0.0000,-0.1000,-0.1000,-0.1000,-0.1000,0.0000,0.0000,0.0000,0.0000,4
0,-1,0,-10.4329,-0.0675,0.1935,0.0610,0.0210,-0.0290,1.1667,8025.5859,8025.5859,8025.5859,8025.5859,12.2009,0.0000,-0.0610,-0.1831,-0.0610,-0.1961,-0.2110,-10.6002,0.0088,-0.0017,0.0001,0.0000,0.0000,0.0000,0.0000,0.0000,0.0000,0.0000,0.0000,0.0000,0.0000,0.0000,0.0000,0.0000,0.0000,1.0000,0.0000,0.0000,0.0000,0.0000,0.0000,0.0000,0.0000,0.0000,0.0000,0.0000,0.0000,0.0000,0.0000,0.0000,0.0000,0.0000,0.0000,0.0000,-0.1000,-0.1000,-0.1000,-0.1000,0.0000,0.0000,0.0000,0.0000,4
0,-1,0,-10.4329,-0.0675,0.1935,0.0610,0.0210,-0.0290,1.1667,8025.5859,8025.5859,8025.5859,8025.5859,12.2014,0.0000,0.0000,0.0000,0.1221,-0.0980,-0.1271,-10.5930,0.0088,-0.0017,0.0002,0.0000,0.0000,0.0000,0.0000,0.0000,0.0000,0.0000,0.0000,0.0000,0.0000,0.0000,0.0000,0.0000,0.0000,1.0000,0.0000,0.0000,0.0000,0.0000,0.0000,0.0000,0.0000,0.0000,0.0000,0.0000,0.0000,0.0000,0.0000,0.0000,0.0000,0.0000,0.0000,0.0000,-0.1000,-0.1000,-0.1000,-0.1000,0.0000,0.0000,0.0000,0.0000,4
0,-1,0,-10.4329,-0.0675,0.1935,0.0610,0.0210,-0.0290,1.1667,8025.5859,8025.5859,8025.5859,8025.5859,12.2009,0.0000,0.0000,-0.1831,0.1831,-0.1745,-0.1390,-10.5620,0.0089,-0.0017,0.0002,0.0000,0.0000,0.0000,0.0000,0.0000,0.0000,0.0000,0.0000,0.0000,0.0000,0.0000,0.0000,0.0000,0.0000,1.0000,0.0000,0.0000,0.0000,0.0000,0.0000,0.0000,0.0000,0.0000,0.0000,0.0000,0.0000,0.0000,0.0000,0.0000,0.0000,0.0000,0.0000,0.0000,-0.1000,-0.1000,-0.1000,-0.1000,0.0000,0.0000,0.0000,0.0000,4
0,-1,0,-10.4329,-0.0675,0.1935,0.0710,0.0410,-0.0190,1.1667,8025.5859,8025.5859,8025.5859,8025.5859,12.2005,0.0000,-0.1831,-0.2441,-0.0000,-0.1698,-0.2110,-10.5429,0.0089,-0.0018,0.0002,0.0000,0.0000,0.0000,0.0000,0.0000,0.0000,0.0000,0.0000,0.0000,0.0000,0.0000,0.0000,0.0000,0.0000,1.0000,0.0000,0.0000,0.0000,0.0000,0.0000,0.0000,0.0000,0.0000,0.0000,0.0000,0.0000,0.0000,0.0000,0.0000,0.0000,0.0000,0.0000,0.0000,-0.1000,-0.1000,-0.1000,-0.1000,0.0000,0.0000,0.0000,0.0000,4
0,-1,0,-10.4329,-0.0675,0.1935,0.0710,0.0410,-0.0190,1.1667,8025.5859,8025.5859,8025.5859,8025.5859,12.2014,0.0000,-0.1221,-0.0610,-0.0000,-0.1195,-0.0911,-10.5859,0.0089,-0.0018,0.0002,0.0000,0.0000,0.0000,0.0000,0.0000,0.0000,0.0000,0.0000,0.0000,0.0000,0.0000,0.0000,0.0000,0.0000,1.0000,0.0000,0.0000,0.0000,0.0000,0.0000,0.0000,0.0000,0.0000,0.0000,0.0000,0.0000,0.0000,0.0000,0.0000,0.0000,0.0000,0.0000,0.0000,-0.1000,-0.1000,-0.1000,-0.1000,0.0000,0.0000,0.0000,0.0000,4
0,-1,0,-10.4329,-0.0675,0.1935,0.0710,0.0410,-0.0190,1.1667,8025.5859,8025.5859,8025.5859,8025.5859,12.2024,0.0000,-0.1831,-0.2441,0.1221,-0.1435,-0.2253,-10.5787,0.0089,-0.0018,0.0002,0.0000,0.0000,0.0000,0.0000,0.0000,0.0000,0.0000,0.0000,0.0000,0.0000,0.0000,0.0000,0.0000,0.0000,1.0000,0.0000,0.0000,0.0000,0.0000,0.0000,0.0000,0.0000,0.0000,0.0000,0.0000,0.0000,0.0000,0.0000,0.0000,0.0000,0.0000,0.0000,0.0000,-0.1000,-0.1000,-0.1000,-0.1000,0.0000,0.0000,0.0000,0.0000,4
0,-1,0,-10.4329,-0.0675,0.1935,0.0710,0.0410,-0.0190,1.1667,8025.5859,8025.5859,8025.5859,8025.5859,12.2026,0.0000,-0.0610,-0.1221,-0.0000,-0.1602,-0.1462,-10.5930,0.0089,-0.0018,0.0002,0.0000,0.0000,0.0000,0.0000,0.0000,0.0000,0.0000,0.0000,0.0000,0.0000,0.0000,0.0000,0.0000,0.0000,1.0000,0.0000,0.0000,0.0000,0.0000,0.0000,0.0000,0.0000,0.0000,0.0000,0.0000,0.0000,0.0000,0.0000,0.0000,0.0000,0.0000,0.0000,0.0000,-0.1000,-0.1000,-0.1000,-0.1000,0.0000,0.0000,0.0000,0.0000,4
0,-1,0,-10.4329,-0.0675,0.1935,0.0710,0.0410,-0.0190,1.1667,8025.5859,8025.5859,8025.5859,8025.5859,12.2034,0.0000,-0.1221,-0.0610,0.1221,-0.1267,-0.2014,-10.6742,0.0089,-0.0018,0.0002,0.0000,0.0000,0.0000,0.0000,0.0000,0.0000,0.0000,0.0000,0.0000,0.0000,0.0000,0.0000,0.0000,0.0000,1.0000,0.0000,0.0000,0.0000,0.0000,0.0000,0.0000,0.0000,0.0000,0.0000,0.0000,0.0000,0.0000,0.0000,0.0000,0.0000,0.0000,0.0000,0.0000,-0.1000,-0.1000,-0.1000,-0.1000,0.0000,0.0000,0.0000,0.0000,4
0,-1,0,-10.4329,-0.0675,0.1935,0.0710,0.0410,-0.0190,1.1667,8025.5859,8025.5859,8025.5859,8025.5859,12.2038,0.0000,-0.0610,-0.2441,0.2441,-0.1769,-0.1366,-10.5453,0.0089,-0.0019,0.0002,0.0000,0.0000,0.0000,0.0000,0.0000,0.0000,0.0000,0.0000,0.0000,0.0000,0.0000,0.0000,0.0000,0.0000,1.0000,0.0000,0.0000,0.0000,0.0000,0.0000,0.0000,0.0000,0.0000,0.0000,0.0000,0.0000,0.0000,0.0000,0.0000,0.0000,0.0000,0.0000,0.0000,-0.1000,-0.1000,-0.1000,-0.1000,0.0000,0.0000,0.0000,0.0000,4
0,-1,0,-10.4329,-0.0675,0.1935,0.0710,0.0410,-0.0190,1.1667,8025.5859,8025.5859,8025.5859,8025.5859,12.2051,0.0000,-0.1831,-0.0610,0.1221,-0.1243,-0.1510,-10.5882,0.0089,-0.0019,0.0002,0.0000,0.0000,0.0000,0.0000,0.0000,0.0000,0.0000,0.0000,0.0000,0.0000,0.0000,0.0000,0.0000,0.0000,1.0000,0.0000,0.0000,0.0000,0.0000,0.0000,0.0000,0.0000,0.0000,0.0000,0.0000,0.0000,0.0000,0.0000,0.0000,0.0000,0.0000,0.0000,0.0000,-0.1000,-0.1000,-0.1000,-0.1000,0.0000,0.0000,0.0000,0.0000,4
0,-1,0,-10.4329,-0.0675,0.1935,0.0710,0.0410,-0.0190,1.1667,8025.5859,8025.5859,8025.5859,8025.5859,12.2055,0.0000,0.0610,0.0000,-0.0000,-0.1698,-0.1966,-10.5859,0.0089,-0.0019,0.0002,0.0000,0.0000,0.0000,0.0000,0.0000,0.0000,0.0000,0.0000,0.0000,0.0000,0.0000,0.0000,0.0000,0.0000,1.0000,0.0000,0.0000,0.0000,0.0000,0.0000,0.0000,0.0000,0.0000,0.0000,0.0000,0.0000,0.0000,0.0000,0.0000,0.0000,0.0000,0.0000,0.0000,-0.1000,-0.1000,-0.1000,-0.1000,0.0000,0.0000,0.0000,0.0000,4
0,-1,0,-10.4329,-0.0675,0.1935,0.0710,0.0410,-0.0190,1.1667,8025.5859,8025.5859,8025.5859,8025.5859,12.2051,0.0000,-0.0610,-0.1831,-0.0000,-0.2128,-0.1534,-10.5524,0.0089,-0.0019,0.0002,0.0000,0.0000,0.0000,0.0000,0.0000,0.0000,0.0000,0.0000,0.0000,0.0000,0.0000,0.0000,0.0000,0.0000,1.0000,0.0000,0.0000,0.0000,0.0000,0.0000,0.0000,0.0000,0.0000,0.0000,0.0000,0.0000,0.0000,0.0000,0.0000,0.0000,0.0000,0.0000,0.0000,-0.1000,-0.1000,-0.1000,-0.1000,0.0000,0.0000,0.0000,0.0000,4
0,-1,0,-10.4329,-0.0675,0.1935,0.0710,0.0410,-0.0190,1.1667,8025.5859,8025.5859,8025.5859,8025.5859,12.2055,0.0000,-0.0610,-0.1831,-0.0000,-0.1530,-0.1654,-10.5405,0.0089,-0.0019,0.0002,0.0000,0.0000,0.0000,0.0000,0.0000,0.0000,0.0000,0.0000,0.0000,0.0000,0.0000,0.0000,0.0000,0.0000,1.0000,0.0000,0.0000,0.0000,0.0000,0.0000,0.0000,0.0000,0.0000,0.0000,0.0000,0.0000,0.0000,0.0000,0.0000,0.0000,0.0000,0.0000,0.0000,-0.1000,-0.1000,-0.1000,-0.1000,0.0000,0.0000,0.0000,0.0000,4
0,-1,0,-10.4329,-0.0675,0.1935,0.0710,0.0410,-0.0190,1.1667,8025.5859,8025.5859,8025.5859,8025.5859,12.2065,0.0000,0.0000,-0.0610,-0.0000,-0.1698,-0.1822,-10.6240,0.0089,-0.0019,0.0002,0.0000,0.0000,0.0000,0.0000,0.0000,0.0000,0.0000,0.0000,0.0000,0.0000,0.0000,0.0000,0.0000,0.0000,1.0000,0.0000,0.0000,0.0000,0.0000,0.0000,0.0000,0.0000,0.0000,0.0000,0.0000,0.0000,0.0000,0.0000,0.0000,0.0000,0.0000,0.0000,0.0000,-0.1000,-0.1000,-0.1000,-0.1000,0.0000,0.0000,0.0000,0.0000,4
0,-1,0,-10.4329,-0.0675,0.1935,0.0710,0.0410,-0.0190,1.1667,8025.5859,8025.5859,8025.5859,8025.5859,12.2075,0.0000,-0.0610,-0.1221,0.1221,-0.1769,-0.1798,-10.4808,0.0089,-0.0020,0.0002,0.0000,0.0000,0.0000,0.0000,0.0000,0.0000,0.0000,0.0000,0.0000,0.0000,0.0000,0.0000,0.0000,0.0000,1.0000,0.0000,0.0000,0.0000,0.0000,0.0000,0.0000,0.0000,0.0000,0.0000,0.0000,0.0000,0.0000,0.0000,0.0000,0.0000,0.0000,0.0000,0.0000,-0.1000,-0.1000,-0.1000,-0.1000,0.0000,0.0000,0.0000,0.0000,4
0,-1,0,-10.4329,-0.0675,0.1935,0.0710,0.0410,-0.0190,1.1667,8025.5859,8025.5859,8025.5859,8025.5859,12.2082,0.0000,-0.0610,-0.1221,-0.0000,-0.2008,-0.1462,-10.6264,0.0089,-0.0020,0.0002,0.0000,0.0000,0.0000,0.0000,0.0000,0.0000,0.0000,0.0000,0.0000,0.0000,0.0000,0.0000,0.0000,0.0000,1.0000,0.0000,0.0000,0.0000,0.0000,0.0000,0.0000,0.0000,0.0000,0.0000,0.0000,0.0000,0.0000,0.0000,0.0000,0.0000,0.0000,0.0000,0.0000,-0.1000,-0.1000,-0.1000,-0.1000,0.0000,0.0000,0.0000,0.0000,4
0,-1,0,-10.4896,-0.0891,0.1528,0.0710,0.0410,-0.0190,1.1667,8025.5859,8025.5859,8025.5859,8025.5859,12.2087,0.0000,-0.0610,-0.3052,0.1831,-0.1004,-0.1918,-10.6336,0.0089,-0.0020,0.0002,0.0000,0.0000,0.0000,0.0000,0.0000,0.0000,0.0000,0.0000,0.0000,0.0000,0.0000,0.0000,0.0000,0.0000,1.0000,0.0000,0.0000,0.0000,0.0000,0.0000,0.0000,0.0000,0.0000,0.0000,0.0000,0.0000,0.0000,0.0000,0.0000,0.0000,0.0000,0.0000,0.0000,-0.1000,-0.1000,-0.1000,-0.1000,0.0000,0.0000,0.0000,0.0000,4
0,-1,0,-10.4896,-0.0891,0.1528,0.0710,0.0410,-0.0190,1.1667,8025.5859,8025.5859,8025.5859,8025.5859,12.2096,0.0000,-0.1831,-0.0610,-0.0000,-0.1482,-0.1582,-10.5668,0.0090,-0.0022,0.0002,0.0000,0.0000,0.0000,0.0000,0.0000,0.0000,0.0000,0.0000,0.0000,0.0000,0.0000,0.0000,0.0000,0.0000,1.0000,0.0000,0.0000,0.0000,0.0000,0.0000,0.0000,0.0000,0.0000,0.0000,0.0000,0.0000,0.0000,0.0000,0.0000,0.0000,0.0000,0.0000,0.0000,-0.1000,-0.1000,-0.1000,-0.1000,0.0000,0.0000,0.0000,0.0000,4
0,-1,0,-10.4896,-0.0891,0.1528,0.0710,0.0410,-0.0190,1.1667,8025.5859,8025.5859,8025.5859,8025.5859,12.2111,0.0000,0.1221,0.0000,-0.0000,-0.1698,-0.1798,-10.6145,0.0090,-0.0022,0.0002,0.0000,0.0000,0.0000,0.0000,0.0000,0.0000,0.0000,0.0000,0.0000,0.0000,0.0000,0.0000,0.0000,0.0000,1.0000,0.0000,0.0000,0.0000,0.0000,0.0000,0.0000,0.0000,0.0000,0.0000,0.0000,0.0000,0.0000,0.0000,0.0000,0.0000,0.0000,0.0000,0.0000,-0.1000,-0.1000,-0.1000,-0.1000,0.0000,0.0000,0.0000,0.0000,4
0,-1,0,-10.4896,-0.0891,0.1528,0.0710,0.0410,-0.0190,1.1667,8025.5859,8025.5859,8025.5859,8025.5859,12.2116,0.0000,-0.0610,-0.2441,-0.0000,-0.1435,-0.1343,-10.5357,0.0090,-0.0022,0.0002,0.0000,0.0000,0.0000,0.0000,0.0000,0.0000,0.0000,0.0000,0.0000,0.0000,0.0000,0.0000,0.0000,0.0000,1.0000,0.0000,0.0000,0.0000,0.0000,0.0000,0.0000,0.0000,0.0000,0.0000,0.0000,0.0000,0.0000,0.0000,0.0000,0.0000,0.0000,0.0000,0.0000,-0.1000,-0.1000,-0.1000,-0.1000,0.0000,0.0000,0.0000,0.0000,4
0,-1,0,-10.4896,-0.0891,0.1528,0.0710,0.0410,-0.0190,1.1667,8025.5859,8025.5859,8025.5859,8025.5859,12.2121,0.0000,-0.0610,-0.1221,-0.0000,-0.1458,-0.1630,-10.5811,0.0090,-0.0022,0.0002,0.0000,0.0000,0.0000,0.0000,0.0000,0.0000,0.0000,0.0000,0.0000,0.0000,0.0000,0.0000,0.0000,0.0000,1.0000,0.0000,0.0000,0.0000,0.0000,0.0000,0.0000,0.0000,0.0000,0.0000,0.0000,0.0000,0.0000,0.0000,0.0000,0.0000,0.0000,0.0000,0.0000,-0.1000,-0.1000,-0.1000,-0.1000,0.0000,0.0000,0.0000,0.0000,4
0,-1,0,-10.4896,-0.0891,0.1528,0.0710,0.0410,-0.0190,1.1667,8025.5859,8025.5859,8025.5859,8025.5859,12.2133,0.0000,0.0000,-0.0610,0.1221,-0.1124,-0.1630,-10.5524,0.0090,-0.0023,0.0002,0.0000,0.0000,0.0000,0.0000,0.0000,0.0000,0.0000,0.0000,0.0000,0.0000,0.0000,0.0000,0.0000,0.0000,1.0000,0.0000,0.0000,0.0000,0.0000,0.0000,0.0000,0.0000,0.0000,0.0000,0.0000,0.0000,0.0000,0.0000,0.0000,0.0000,0.0000,0.0000,0.0000,-0.1000,-0.1000,-0.1000,-0.1000,0.0000,0.0000,0.0000,0.0000,4
0,-1,0,-10.4896,-0.0891,0.1528,0.0710,0.0410,-0.0190,1.1667,8025.5859,8025.5859,8025.5859,8025.5859,12.2152,0.0000,-0.1831,-0.1831,-0.0000,-0.1291,-0.1606,-10.6026,0.0090,-0.0023,0.0002,0.0000,0.0000,0.0000,0.0000,0.0000,0.0000,0.0000,0.0000,0.0000,0.0000,0.0000,0.0000,0.0000,0.0000,1.0000,0.0000,0.0000,0.0000,0.0000,0.0000,0.0000,0.0000,0.0000,0.0000,0.0000,0.0000,0.0000,0.0000,0.0000,0.0000,0.0000,0.0000,0.0000,-0.1000,-0.1000,-0.1000,-0.1000,0.0000,0.0000,0.0000,0.0000,4
0,-1,0,-10.4896,-0.0891,0.1528,0.0710,0.0410,-0.0190,1.1667,8025.5859,8025.5859,8025.5859,8025.5859,12.2169,0.0000,-0.0610,-0.1221,0.3052,-0.1243,-0.1462,-10.5954,0.0091,-0.0023,0.0002,0.0000,0.0000,0.0000,0.0000,0.0000,0.0000,0.0000,0.0000,0.0000,0.0000,0.0000,0.0000,0.0000,0.0000,1.0000,0.0000,0.0000,0.0000,0.0000,0.0000,0.0000,0.0000,0.0000,0.0000,0.0000,0.0000,0.0000,0.0000,0.0000,0.0000,0.0000,0.0000,0.0000,-0.1000,-0.1000,-0.1000,-0.1000,0.0000,0.0000,0.0000,0.0000,4
0,-1,0,-10.4896,-0.0891,0.1528,0.0710,0.0410,-0.0190,1.1667,8025.5859,8025.5859,8025.5859,8025.5859,12.2169,0.0000,0.0610,0.0000,-0.0000,-0.1387,-0.1774,-10.6575,0.0091,-0.0023,0.0002,0.0000,0.0000,0.0000,0.0000,0.0000,0.0000,0.0000,0.0000,0.0000,0.0000,0.0000,0.0000,0.0000,0.0000,1.0000,0.0000,0.0000,0.0000,0.0000,0.0000,0.0000,0.0000,0.0000,0.0000,0.0000,0.0000,0.0000,0.0000,0.0000,0.0000,0.0000,0.0000,0.0000,-0.1000,-0.1000,-0.1000,-0.1000,0.0000,0.0000,0.0000,0.0000,4
0,-1,0,-10.4896,-0.0891,0.1528,0.0810,0.0610,-0.0290,1.1667,8025.5859,8025.5859,8025.5859,8025.5859,12.2171,0.0000,-0.2441,-0.1831,-0.0000,-0.1745,-0.1414,-10.6193,0.0091,-0.0023,0.0002,0.0000,0.0000,0.0000,0.0000,0.0000,0.0000,0.0000,0.0000,0.0000,0.0000,0.0000,0.0000,0.0000,0.0000,1.0000,0.0000,0.0000,0.0000,0.0000,0.0000,0.0000,0.0000,0.0000,0.0000,0.0000,0.0000,0.0000,0.0000,0.0000,0.0000,0.0000,0.0000,0.0000,-0.1000,-0.1000,-0.1000,-0.1000,0.0000,0.0000,0.0000,0.0000,4
0,-1,0,-10.4896,-0.0891,0.1528,0.0810,0.0610,-0.0290,1.1667,8025.5859,8025.5859,8025.5859,8025.5859,12.2184,0.0000,0.0000,-0.0610,0.1831,-0.1339,-0.1606,-10.6002,0.0091,-0.0023,0.0002,0.0000,0.0000,0.0000,0.0000,0.0000,0.0000,0.0000,0.0000,0.0000,0.0000,0.0000,0.0000,0.0000,0.0000,1.0000,0.0000,0.0000,0.0000,0.0000,0.0000,0.0000,0.0000,0.0000,0.0000,0.0000,0.0000,0.0000,0.0000,0.0000,0.0000,0.0000,0.0000,0.0000,-0.1000,-0.1000,-0.1000,-0.1000,0.0000,0.0000,0.0000,0.0000,4
0,-1,0,-10.4896,-0.0891,0.1528,0.0810,0.0610,-0.0290,1.1667,8025.5859,8025.5859,8025.5859,8025.5859,12.2191,0.0000,0.0610,-0.1831,-0.1221,-0.1458,-0.1702,-10.5691,0.0091,-0.0024,0.0002,0.0000,0.0000,0.0000,0.0000,0.0000,0.0000,0.0000,0.0000,0.0000,0.0000,0.0000,0.0000,0.0000,0.0000,1.0000,0.0000,0.0000,0.0000,0.0000,0.0000,0.0000,0.0000,0.0000,0.0000,0.0000,0.0000,0.0000,0.0000,0.0000,0.0000,0.0000,0.0000,0.0000,-0.1000,-0.1000,-0.1000,-0.1000,0.0000,0.0000,0.0000,0.0000,4
0,-1,0,-10.4896,-0.0891,0.1528,0.0810,0.0610,-0.0290,1.1667,8025.5859,8025.5859,8025.5859,8025.5859,12.2200,0.0000,-0.0610,-0.1831,0.1221,-0.1554,-0.1271,-10.6264,0.0091,-0.0024,0.0002,0.0000,0.0000,0.0000,0.0000,0.0000,0.0000,0.0000,0.0000,0.0000,0.0000,0.0000,0.0000,0.0000,0.0000,1.0000,0.0000,0.0000,0.0000,0.0000,0.0000,0.0000,0.0000,0.0000,0.0000,0.0000,0.0000,0.0000,0.0000,0.0000,0.0000,0.0000,0.0000,0.0000,-0.1000,-0.1000,-0.1000,-0.1000,0.0000,0.0000,0.0000,0.0000,4
0,-1,0,-10.4896,-0.0891,0.1528,0.0810,0.0610,-0.0290,1.1667,8025.5859,8025.5859,8025.5859,8025.5859,12.2203,0.0000,0.0000,0.0000,-0.0000,-0.1578,-0.1846,-10.6121,0.0091,-0.0024,0.0002,0.0000,0.0000,0.0000,0.0000,0.0000,0.0000,0.0000,0.0000,0.0000,0.0000,0.0000,0.0000,0.0000,0.0000,1.0000,0.0000,0.0000,0.0000,0.0000,0.0000,0.0000,0.0000,0.0000,0.0000,0.0000,0.0000,0.0000,0.0000,0.0000,0.0000,0.0000,0.0000,0.0000,-0.1000,-0.1000,-0.1000,-0.1000,0.0000,0.0000,0.0000,0.0000,4
0,-1,0,-10.4896,-0.0891,0.1528,0.0810,0.0610,-0.0290,1.1667,8025.5859,8025.5859,8025.5859,8025.5859,12.2213,0.0000,-0.0610,-0.1831,-0.0000,-0.1172,-0.1438,-10.5739,0.0091,-0.0024,0.0002,0.0000,0.0000,0.0000,0.0000,0.0000,0.0000,0.0000,0.0000,0.0000,0.0000,0.0000,0.0000,0.0000,0.0000,1.0000,0.0000,0.0000,0.0000,0.0000,0.0000,0.0000,0.0000,0.0000,0.0000,0.0000,0.0000,0.0000,0.0000,0.0000,0.0000,0.0000,0.0000,0.0000,-0.1000,-0.1000,-0.1000,-0.1000,0.0000,0.0000,0.0000,0.0000,4
0,-1,0,-10.4896,-0.0891,0.1528,0.0810,0.0610,-0.0290,1.1667,8025.5859,8025.5859,8025.5859,8025.5859,12.2232,0.0000,-0.1831,-0.2441,0.1221,-0.1793,-0.1319,-10.5548,0.0091,-0.0024,0.0002,0.0000,0.0000,0.0000,0.0000,0.0000,0.0000,0.0000,0.0000,0.0000,0.0000,0.0000,0.0000,0.0000,0.0000,1.0000,0.0000,0.0000,0.0000,0.0000,0.0000,0.0000,0.0000,0.0000,0.0000,0.0000,0.0000,0.0000,0.0000,0.0000,0.0000,0.0000,0.0000,0.0000,-0.1000,-0.1000,-0.1000,-0.1000,0.0000,0.0000,0.0000,0.0000,4
0,-1,0,-10.4725,-0.1125,0.1480,0.0810,0.0610,-0.0290,1.1667,8025.5859,8025.5859,8025.5859,8025.5859,12.2239,0.0000,-0.1831,-0.1831,-0.0610,-0.1769,-0.1558,-10.5548,0.0091,-0.0025,0.0002,0.0000,0.0000,0.0000,0.0000,0.0000,0.0000,0.0000,0.0000,0.0000,0.0000,0.0000,0.0000,0.0000,0.0000,1.0000,0.0000,0.0000,0.0000,0.0000,0.0000,0.0000,0.0000,0.0000,0.0000,0.0000,0.0000,0.0000,0.0000,0.0000,0.0000,0.0000,0.0000,0.0000,-0.1000,-0.1000,-0.1000,-0.1000,0.0000,0.0000,0.0000,0.0000,4
0,-1,0,-10.4725,-0.1125,0.1480,0.0810,0.0610,-0.0290,1.1667,8025.5859,8025.5859,8025.5859,8025.5859,12.2229,0.0000,0.0000,-0.2441,0.1221,-0.1482,-0.1510,-10.6050,0.0092,-0.0025,0.0002,0.0000,0.0000,0.0000,0.0000,0.0000,0.0000,0.0000,0.0000,0.0000,0.0000,0.0000,0.0000,0.0000,0.0000,1.0000,0.0000,0.0000,0.0000,0.0000,0.0000,0.0000,0.0000,0.0000,0.0000,0.0000,0.0000,0.0000,0.0000,0.0000,0.0000,0.0000,0.0000,0.0000,-0.1000,-0.1000,-0.1000,-0.1000,0.0000,0.0000,0.0000,0.0000,4
0,-1,0,-10.4725,-0.1125,0.1480,0.0810,0.0610,-0.0290,1.1667,8025.5859,8025.5859,8025.5859,8025.5859,12.2220,0.0000,0.0610,0.0000,0.1221,-0.1578,-0.2086,-10.5739,0.0092,-0.0026,0.0002,0.0000,0.0000,0.0000,0.0000,0.0000,0.0000,0.0000,0.0000,0.0000,0.0000,0.0000,0.0000,0.0000,0.0000,1.0000,0.0000,0.0000,0.0000,0.0000,0.0000,0.0000,0.0000,0.0000,0.0000,0.0000,0.0000,0.0000,0.0000,0.0000,0.0000,0.0000,0.0000,0.0000,-0.1000,-0.1000,-0.1000,-0.1000,0.0000,0.0000,0.0000,0.0000,4
0,-1,0,-10.4725,-0.1125,0.1480,0.0810,0.0610,-0.0290,1.1667,8025.5859,8025.5859,8025.5859,8025.5859,12.2215,0.0000,-0.1831,-0.1831,0.1831,-0.1793,-0.1822,-10.5763,0.0092,-0.0026,0.0002,0.0000,0.0000,0.0000,0.0000,0.0000,0.0000,0.0000,0.0000,0.0000,0.0000,0.0000,0.0000,0.0000,0.0000,1.0000,0.0000,0.0000,0.0000,0.0000,0.0000,0.0000,0.0000,0.0000,0.0000,0.0000,0.0000,0.0000,0.0000,0.0000,0.0000,0.0000,0.0000,0.0000,-0.1000,-0.1000,-0.1000,-0.1000,0.0000,0.0000,0.0000,0.0000,4
0,-1,0,-10.4725,-0.1125,0.1480,0.0810,0.0610,-0.0290,1.1667,8025.5859,8025.5859,8025.5859,8025.5859,12.2210,0.0000,-0.0610,-0.1221,0.1221,-0.1172,-0.1798,-10.5668,0.0092,-0.0027,0.0002,0.0000,0.0000,0.0000,0.0000,0.0000,0.0000,0.0000,0.0000,0.0000,0.0000,0.0000,0.0000,0.0000,0.0000,1.0000,0.0000,0.0000,0.0000,0.0000,0.0000,0.0000,0.0000,0.0000,0.0000,0.0000,0.0000,0.0000,0.0000,0.0000,0.0000,0.0000,0.0000,0.0000,-0.1000,-0.1000,-0.1000,-0.1000,0.0000,0.0000,0.0000,0.0000,4
0,-1,0,-10.4725,-0.1125,0.1480,0.0810,0.0610,-0.0290,1.1667,8025.5859,8025.5859,8025.5859,8025.5859,12.2200,0.0000,-0.0610,-0.1221,0.1221,-0.1387,-0.1510,-10.5739,0.0093,-0.0027,0.0002,0.0000,0.0000,0.0000,0.0000,0.0000,0.0000,0.0000,0.0000,0.0000,0.0000,0.0000,0.0000,0.0000,0.0000,1.0000,0.0000,0.0000,0.0000,0.0000,0.0000,0.0000,0.0000,0.0000,0.0000,0.0000,0.0000,0.0000,0.0000,0.0000,0.0000,0.0000,0.0000,0.0000,-0.1000,-0.1000,-0.1000,-0.1000,0.0000,0.0000,0.0000,0.0000,4
0,-1,0,-10.4725,-0.1125,0.1480,0.0810,0.0610,-0.0290,1.1667,8025.5859,8025.5859,8025.5859,8025.5859,12.2191,0.0000,0.0000,0.0000,0.1221,-0.1435,-0.1798,-10.5835,0.0093,-0.0027,0.0002,0.0000,0.0000,0.0000,0.0000,0.0000,0.0000,0.0000,0.0000,0.0000,0.0000,0.0000,0.0000,0.0000,0.0000,1.0000,0.0000,0.0000,0.0000,0.0000,0.0000,0.0000,0.0000,0.0000,0.0000,0.0000,0.0000,0.0000,0.0000,0.0000,0.0000,0.0000,0.0000,0.0000,-0.1000,-0.1000,-0.1000,-0.1000,0.0000,0.0000,0.0000,0.0000,4
0,-1,0,-10.4725,-0.1125,0.1480,0.0810,0.0610,-0.0290,1.1667,8025.5859,8025.5859,8025.5859,8025.5859,12.2174,0.0000,0.0610,0.0000,0.1831,-0.1291,-0.1199,-10.6002,0.0093,-0.0028,0.0002,0.0000,0.0000,0.0000,0.0000,0.0000,0.0000,0.0000,0.0000,0.0000,0.0000,0.0000,0.0000,0.0000,0.0000,1.0000,0.0000,0.0000,0.0000,0.0000,0.0000,0.0000,0.0000,0.0000,0.0000,0.0000,0.0000,0.0000,0.0000,0.0000,0.0000,0.0000,0.0000,0.0000,-0.1000,-0.1000,-0.1000,-0.1000,0.0000,0.0000,0.0000,0.0000,4
0,-1,0,-10.4725,-0.1125,0.1480,0.0810,0.0610,-0.0290,1.1667,8025.5859,8025.5859,8025.5859,8025.5859,12.2167,0.0000,0.0610,0.0000,-0.0610,-0.1267,-0.1990,-10.5620,0.0093,-0.0028,0.0002,0.0000,0.0000,0.0000,0.0000,0.0000,0.0000,0.0000,0.0000,0.0000,0.0000,0.0000,0.0000,0.0000,0.0000,1.0000,0.0000,0.0000,0.0000,0.0000,0.0000,0.0000,0.0000,0.0000,0.0000,0.0000,0.0000,0.0000,0.0000,0.0000,0.0000,0.0000,0.0000,0.0000,-0.1000,-0.1000,-0.1000,-0.1000,0.0000,0.0000,0.0000,0.0000,4
0,-1,0,-10.4725,-0.1125,0.1480,0.0810,0.0610,-0.0290,1.1667,8025.5859,8025.5859,8025.5859,8025.5859,12.2157,0.0000,0.0000,0.0000,-0.0000,-0.1411,-0.1247,-10.6169,0.0093,-0.0028,0.0002,0.0000,0.0000,0.0000,0.0000,0.0000,0.0000,0.0000,0.0000,0.0000,0.0000,0.0000,0.0000,0.0000,0.0000,1.0000,0.0000,0.0000,0.0000,0.0000,0.0000,0.0000,0.0000,0.0000,0.0000,0.0000,0.0000,0.0000,0.0000,0.0000,0.0000,0.0000,0.0000,0.0000,-0.1000,-0.1000,-0.1000,-0.1000,0.0000,0.0000,0.0000,0.0000,4
0,-1,0,-10.4725,-0.1125,0.1480,0.0810,0.0610,-0.0290,1.1667,8025.5859,8025.5859,8025.5859,8025.5859,12.2147,0.0000,-0.0610,-0.1831,-0.0000,-0.1482,-0.1702,-10.5357,0.0093,-0.0028,0.0002,0.0000,0.0000,0.0000,0.0000,0.0000,0.0000,0.0000,0.0000,0.0000,0.0000,0.0000,0.0000,0.0000,0.0000,1.0000,0.0000,0.0000,0.0000,0.0000,0.0000,0.0000,0.0000,0.0000,0.0000,0.0000,0.0000,0.0000,0.0000,0.0000,0.0000,0.0000,0.0000,0.0000,-0.1000,-0.1000,-0.1000,-0.1000,0.0000,0.0000,0.0000,0.0000,4
0,-1,0,-10.4725,-0.1125,0.1480,0.0810,0.0610,-0.0290,1.1667,8025.5859,8025.5859,8025.5859,8025.5859,12.2138,0.0000,-0.0610,-0.1221,-0.0000,-0.1578,-0.1486,-10.5930,0.0093,-0.0028,0.0002,0.0000,0.0000,0.0000,0.0000,0.0000,0.0000,0.0000,0.0000,0.0000,0.0000,0.0000,0.0000,0.0000,0.0000,1.0000,0.0000,0.0000,0.0000,0.0000,0.0000,0.0000,0.0000,0.0000,0.0000,0.0000,0.0000,0.0000,0.0000,0.0000,0.0000,0.0000,0.0000,0.0000,-0.1000,-0.1000,-0.1000,-0.1000,0.0000,0.0000,0.0000,0.0000,4
0,-1,0,-10.4725,-0.1125,0.1480,0.0810,0.0610,-0.0290,1.1667,8025.5859,8025.5859,8025.5859,8025.5859,12.2130,0.0000,-0.0610,-0.1221,0.1221,-0.1004,-0.1702,-10.6360,0.0093,-0.0028,0.0002,0.0000,0.0000,0.0000,0.0000,0.0000,0.0000,0.0000,0.0000,0.0000,0.0000,0.0000,0.0000,0.0000,0.0000,1.0000,0.0000,0.0000,0.0000,0.0000,0.0000,0.0000,0.0000,0.0000,0.0000,0.0000,0.0000,0.0000,0.0000,0.0000,0.0000,0.0000,0.0000,0.0000,-0.1000,-0.1000,-0.1000,-0.1000,0.0000,0.0000,0.0000,0.0000,4
0,-1,0,-10.4725,-0.1125,0.1480,0.0810,0.0610,-0.0290,1.1667,8025.5859,8025.5859,8025.5859,8025.5859,12.2118,0.0000,-0.0610,-0.1221,0.1221,-0.1698,-0.1606,-10.5954,0.0093,-0.0028,0.0002,0.0000,0.0000,0.0000,0.0000,0.0000,0.0000,0.0000,0.0000,0.0000,0.0000,0.0000,0.0000,0.0000,0.0000,1.0000,0.0000,0.0000,0.0000,0.0000,0.0000,0.0000,0.0000,0.0000,0.0000,0.0000,0.0000,0.0000,0.0000,0.0000,0.0000,0.0000,0.0000,0.0000,-0.1000,-0.1000,-0.1000,-0.1000,0.0000,0.0000,0.0000,0.0000,4
0,-1,0,-10.4725,-0.1125,0.1480,0.0810,0.0610,-0.0290,1.1667,8025.5859,8025.5859,8025.5859,8025.5859,12.2104,0.0000,-0.0610,-0.1831,-0.0000,-0.1291,-0.1654,-10.5572,0.0093,-0.0029,0.0002,0.0000,0.0000,0.0000,0.0000,0.0000,0.0000,0.0000,0.0000,0.0000,0.0000,0.0000,0.0000,0.0000,0.0000,1.0000,0.0000,0.0000,0.0000,0.0000,0.0000,0.0000,0.0000,0.0000,0.0000,0.0000,0.0000,0.0000,0.0000,0.0000,0.0000,0.0000,0.0000,0.0000,-0.1000,-0.1000,-0.1000,-0.1000,0.0000,0.0000,0.0000,0.0000,4
0,-1,0,-10.4725,-0.1125,0.1480,0.0810,0.0610,-0.0290,1.1667,8025.5859,8025.5859,8025.5859,8025.5859,12.2092,0.0000,-0.2441,-0.1831,-0.0000,-0.1124,-0.1606,-10.5739,0.0093,-0.0029,0.0002,0.0000,0.0000,0.0000,0.0000,0.0000,0.0000,0.0000,0.0000,0.0000,0.0000,0.0000,0.0000,0.0000,0.0000,1.0000,0.0000,0.0000,0.0000,0.0000,0.0000,0.0000,0.0000,0.0000,0.0000,0.0000,0.0000,0.0000,0.0000,0.0000,0.0000,0.0000,0.0000,0.0000,-0.1000,-0.1000,-0.1000,-0.1000,0.0000,0.0000,0.0000,0.0000,4
0,-1,0,-10.4725,-0.1125,0.1480,0.0810,0.0610,-0.0290,1.1667,8025.5859,8025.5859,8025.5859,8025.5859,12.2082,0.0000,-0.0610,-0.1221,0.1221,-0.1291,-0.1175,-10.5978,0.0093,-0.0029,0.0002,0.0000,0.0000,0.0000,0.0000,0.0000,0.0000,0.0000,0.0000,0.0000,0.0000,0.0000,0.0000,0.0000,0.0000,1.0000,0.0000,0.0000,0.0000,0.0000,0.0000,0.0000,0.0000,0.0000,0.0000,0.0000,0.0000,0.0000,0.0000,0.0000,0.0000,0.0000,0.0000,0.0000,-0.1000,-0.1000,-0.1000,-0.1000,0.0000,0.0000,0.0000,0.0000,4
0,-1,0,-10.4725,-0.1125,0.1480,0.0810,0.0610,-0.0290,1.1667,8025.5859,8025.5859,8025.5859,8025.5859,12.2067,0.0000,-0.0610,-0.1831,-0.0000,-0.1315,-0.1942,-10.6193,0.0094,-0.0029,0.0002,0.0000,0.0000,0.0000,0.0000,0.0000,0.0000,0.0000,0.0000,0.0000,0.0000,0.0000,0.0000,0.0000,0.0000,1.0000,0.0000,0.0000,0.0000,0.0000,0.0000,0.0000,0.0000,0.0000,0.0000,0.0000,0.0000,0.0000,0.0000,0.0000,0.0000,0.0000,0.0000,0.0000,-0.1000,-0.1000,-0.1000,-0.1000,0.0000,0.0000,0.0000,0.0000,4
0,-1,0,-10.4725,-0.1125,0.1480,0.0810,0.0610,-0.0290,1.1667,8025.5859,8025.5859,8025.5859,8025.5859,12.2058,0.0000,-0.1221,-0.0610,0.1221,-0.1435,-0.1558,-10.6193,0.0094,-0.0029,0.0002,0.0000,0.0000,0.0000,0.0000,0.0000,0.0000,0.0000,0.0000,0.0000,0.0000,0.0000,0.0000,0.0000,0.0000,1.0000,0.0000,0.0000,0.0000,0.0000,0.0000,0.0000,0.0000,0.0000,0.0000,0.0000,0.0000,0.0000,0.0000,0.0000,0.0000,0.0000,0.0000,0.0000,-0.1000,-0.1000,-0.1000,-0.1000,0.0000,0.0000,0.0000,0.0000,4
0,-1,0,-10.4725,-0.1125,0.1480,0.0810,0.0610,-0.0290,1.1667,8025.5859,8025.5859,8025.5859,8025.5859,12.2046,0.0000,-0.0610,-0.1221,-0.0000,-0.1387,-0.1510,-10.6145,0.0094,-0.0029,0.0002,0.0000,0.0000,0.0000,0.0000,0.0000,0.0000,0.0000,0.0000,0.0000,0.0000,0.0000,0.0000,0.0000,0.0000,1.0000,0.0000,0.0000,0.0000,0.0000,0.0000,0.0000,0.0000,0.0000,0.0000,0.0000,0.0000,0.0000,0.0000,0.0000,0.0000,0.0000,0.0000,0.0000,-0.1000,-0.1000,-0.1000,-0.1000,0.0000,0.0000,0.0000,0.0000,4
0,-1,0,-10.4725,-0.1125,0.1480,0.0810,0.0610,-0.0290,1.1667,8025.5859,8025.5859,8025.5859,8025.5859,12.2036,0.0000,-0.2441,-0.1831,0.2441,-0.1172,-0.1726,-10.5715,0.0094,-0.0030,0.0002,0.0000,0.0000,0.0000,0.0000,0.0000,0.0000,0.0000,0.0000,0.0000,0.0000,0.0000,0.0000,0.0000,0.0000,1.0000,0.0000,0.0000,0.0000,0.0000,0.0000,0.0000,0.0000,0.0000,0.0000,0.0000,0.0000,0.0000,0.0000,0.0000,0.0000,0.0000,0.0000,0.0000,-0.1000,-0.1000,-0.1000,-0.1000,0.0000,0.0000,0.0000,0.0000,4
0,-1,0,-10.4725,-0.1125,0.1480,0.0810,0.0610,-0.0290,1.1667,8025.5859,8025.5859,8025.5859,8025.5859,12.2038,0.0000,-0.0610,-0.1831,-0.0000,-0.1698,-0.1870,-10.6169,0.0094,-0.0030,0.0002,0.0000,0.0000,0.0000,0.0000,0.0000,0.0000,0.0000,0.0000,0.0000,0.0000,0.0000,0.0000,0.0000,0.0000,1.0000,0.0000,0.0000,0.0000,0.0000,0.0000,0.0000,0.0000,0.0000,0.0000,0.0000,0.0000,0.0000,0.0000,0.0000,0.0000,0.0000,0.0000,0.0000,-0.1000,-0.1000,-0.1000,-0.1000,0.0000,0.0000,0.0000,0.0000,4
0,-1,0,-10.4725,-0.1125,0.1480,0.0810,0.0610,-0.0290,1.1667,8025.5859,8025.5859,8025.5859,8025.5859,12.2038,0.0000,0.0000,0.0000,-0.0000,-0.1482,-0.1894,-10.5620,0.0094,-0.0030,0.0002,0.0000,0.0000,0.0000,0.0000,0.0000,0.0000,0.0000,0.0000,0.0000,0.0000,0.0000,0.0000,0.0000,0.0000,1.0000,0.0000,0.0000,0.0000,0.0000,0.0000,0.0000,0.0000,0.0000,0.0000,0.0000,0.0000,0.0000,0.0000,0.0000,0.0000,0.0000,0.0000,0.0000,-0.1000,-0.1000,-0.1000,-0.1000,0.0000,0.0000,0.0000,0.0000,4
0,-1,0,-10.4725,-0.1125,0.1480,0.0810,0.0610,-0.0290,1.1667,8025.5859,8025.5859,8025.5859,8025.5859,12.2043,0.0000,-0.0610,-0.1831,-0.0610,-0.1435,-0.1750,-10.5357,0.0094,-0.0030,0.0002,0.0000,0.0000,0.0000,0.0000,0.0000,0.0000,0.0000,0.0000,0.0000,0.0000,0.0000,0.0000,0.0000,0.0000,1.0000,0.0000,0.0000,0.0000,0.0000,0.0000,0.0000,0.0000,0.0000,0.0000,0.0000,0.0000,0.0000,0.0000,0.0000,0.0000,0.0000,0.0000,0.0000,-0.1000,-0.1000,-0.1000,-0.1000,0.0000,0.0000,0.0000,0.0000,4
0,-1,0,-10.4725,-0.1125,0.1480,0.0810,0.0610,-0.0290,1.1667,8025.5859,8025.5859,8025.5859,8025.5859,12.2043,0.0000,0.0000,0.0000,-0.0000,-0.1172,-0.1462,-10.5357,0.0094,-0.0030,0.0002,0.0000,0.0000,0.0000,0.0000,0.0000,0.0000,0.0000,0.0000,0.0000,0.0000,0.0000,0.0000,0.0000,0.0000,1.0000,0.0000,0.0000,0.0000,0.0000,0.0000,0.0000,0.0000,0.0000,0.0000,0.0000,0.0000,0.0000,0.0000,0.0000,0.0000,0.0000,0.0000,0.0000,-0.1000,-0.1000,-0.1000,-0.1000,0.0000,0.0000,0.0000,0.0000,4
0,-1,0,-10.4725,-0.1125,0.1480,0.0710,0.0410,-0.0290,1.1667,8025.5859,8025.5859,8025.5859,8025.5859,12.2048,0.0000,0.0000,-0.0610,-0.0000,-0.1387,-0.1558,-10.6026,0.0094,-0.0030,0.0002,0.0000,0.0000,0.0000,0.0000,0.0000,0.0000,0.0000,0.0000,0.0000,0.0000,0.0000,0.0000,0.0000,0.0000,1.0000,0.0000,0.0000,0.0000,0.0000,0.0000,0.0000,0.0000,0.0000,0.0000,0.0000,0.0000,0.0000,0.0000,0.0000,0.0000,0.0000,0.0000,0.0000,-0.1000,-0.1000,-0.1000,-0.1000,0.0000,0.0000,0.0000,0.0000,4
0,-1,0,-10.4539,-0.0984,0.1685,0.0710,0.0410,-0.0290,1.1667,8025.5859,8025.5859,8025.5859,8025.5859,12.2046,0.0000,-0.0610,-0.1221,-0.0000,-0.1458,-0.1726,-10.5763,0.0094,-0.0031,0.0002,0.0000,0.0000,0.0000,0.0000,0.0000,0.0000,0.0000,0.0000,0.0000,0.0000,0.0000,0.0000,0.0000,0.0000,1.0000,0.0000,0.0000,0.0000,0.0000,0.0000,0.0000,0.0000,0.0000,0.0000,0.0000,0.0000,0.0000,0.0000,0.0000,0.0000,0.0000,0.0000,0.0000,-0.1000,-0.1000,-0.1000,-0.1000,0.0000,0.0000,0.0000,0.0000,4
0,-1,0,-10.4539,-0.0984,0.1685,0.0710,0.0410,-0.0290,1.1667,8025.5859,8025.5859,8025.5859,8025.5859,12.2051,0.0000,-0.0610,-0.2441,0.1221,-0.1602,-0.1438,-10.6050,0.0095,-0.0032,0.0002,0.0000,0.0000,0.0000,0.0000,0.0000,0.0000,0.0000,0.0000,0.0000,0.0000,0.0000,0.0000,0.0000,0.0000,1.0000,0.0000,0.0000,0.0000,0.0000,0.0000,0.0000,0.0000,0.0000,0.0000,0.0000,0.0000,0.0000,0.0000,0.0000,0.0000,0.0000,0.0000,0.0000,-0.1000,-0.1000,-0.1000,-0.1000,0.0000,0.0000,0.0000,0.0000,4
0,-1,0,-10.4539,-0.0984,0.1685,0.0710,0.0410,-0.0290,1.1667,8025.5859,8025.5859,8025.5859,8025.5859,12.2051,0.0000,0.0000,-0.1831,-0.0000,-0.1411,-0.1798,-10.6073,0.0095,-0.0032,0.0002,0.0000,0.0000,0.0000,0.0000,0.0000,0.0000,0.0000,0.0000,0.0000,0.0000,0.0000,0.0000,0.0000,0.0000,1.0000,0.0000,0.0000,0.0000,0.0000,0.0000,0.0000,0.0000,0.0000,0.0000,0.0000,0.0000,0.0000,0.0000,0.0000,0.0000,0.0000,0.0000,0.0000,-0.1000,-0.1000,-0.1000,-0.1000,0.0000,0.0000,0.0000,0.0000,4
0,-1,0,-10.4539,-0.0984,0.1685,0.0710,0.0410,-0.0290,1.1667,8025.5859,8025.5859,8025.5859,8025.5859,12.2046,0.0000,-0.1831,-0.2441,-0.0610,-0.1339,-0.1606,-10.4975,0.0095,-0.0033,0.0002,0.0000,0.0000,0.0000,0.0000,0.0000,0.0000,0.0000,0.0000,0.0000,0.0000,0.0000,0.0000,0.0000,0.0000,1.0000,0.0000,0.0000,0.0000,0.0000,0.0000,0.0000,0.0000,0.0000,0.0000,0.0000,0.0000,0.0000,0.0000,0.0000,0.0000,0.0000,0.0000,0.0000,-0.1000,-0.1000,-0.1000,-0.1000,0.0000,0.0000,0.0000,0.0000,4
0,-1,0,-10.4539,-0.0984,0.1685,0.0710,0.0410,-0.0290,1.1667,8025.5859,8025.5859,8025.5859,8025.5859,12.2043,0.0000,-0.0610,-0.2441,-0.0000,-0.1411,-0.1295,-10.5501,0.0095,-0.0033,0.0002,0.0000,0.0000,0.0000,0.0000,0.0000,0.0000,0.0000,0.0000,0.0000,0.0000,0.0000,0.0000,0.0000,0.0000,1.0000,0.0000,0.0000,0.0000,0.0000,0.0000,0.0000,0.0000,0.0000,0.0000,0.0000,0.0000,0.0000,0.0000,0.0000,0.0000,0.0000,0.0000,0.0000,-0.1000,-0.1000,-0.1000,-0.1000,0.0000,0.0000,0.0000,0.0000,4
0,-1,0,-10.4539,-0.0984,0.1685,0.0710,0.0410,-0.0290,1.1667,8025.5859,8025.5859,8025.5859,8025.5859,12.2046,0.0000,-0.1221,-0.0610,-0.0000,-0.1411,-0.1582,-10.5811,0.0095,-0.0033,0.0002,0.0000,0.0000,0.0000,0.0000,0.0000,0.0000,0.0000,0.0000,0.0000,0.0000,0.0000,0.0000,0.0000,0.0000,1.0000,0.0000,0.0000,0.0000,0.0000,0.0000,0.0000,0.0000,0.0000,0.0000,0.0000,0.0000,0.0000,0.0000,0.0000,0.0000,0.0000,0.0000,0.0000,-0.1000,-0.1000,-0.1000,-0.1000,0.0000,0.0000,0.0000,0.0000,4
0,-1,0,-10.4539,-0.0984,0.1685,0.0710,0.0410,-0.0290,1.1667,8025.5859,8025.5859,8025.5859,8025.5859,12.2043,0.0000,-0.0610,-0.2441,-0.0610,-0.1602,-0.1726,-10.5095,0.0095,-0.0033,0.0001,0.0000,0.0000,0.0000,0.0000,0.0000,0.0000,0.0000,0.0000,0.0000,0.0000,0.0000,0.0000,0.0000,0.0000,1.0000,0.0000,0.0000,0.0000,0.0000,0.0000,0.0000,0.0000,0.0000,0.0000,0.0000,0.0000,0.0000,0.0000,0.0000,0.0000,0.0000,0.0000,0.0000,-0.1000,-0.1000,-0.1000,-0.1000,0.0000,0.0000,0.0000,0.0000,4
0,-1,0,-10.4539,-0.0984,0.1685,0.0710,0.0410,-0.0290,1.1667,8025.5859,8025.5859,8025.5859,8025.5859,12.2046,0.0000,0.0000,-0.0610,0.1831,-0.1219,-0.2253,-10.5811,0.0095,-0.0033,0.0002,0.0000,0.0000,0.0000,0.0000,0.0000,0.0000,0.0000,0.0000,0.0000,0.0000,0.0000,0.0000,0.0000,0.0000,1.0000,0.0000,0.0000,0.0000,0.0000,0.0000,0.0000,0.0000,0.0000,0.0000,0.0000,0.0000,0.0000,0.0000,0.0000,0.0000,0.0000,0.0000,0.0000,-0.1000,-0.1000,-0.1000,-0.1000,0.0000,0.0000,0.0000,0.0000,4
0,-1,0,-10.4539,-0.0984,0.1685,0.0710,0.0410,-0.0290,1.1667,8025.5859,8025.5859,8025.5859,8025.5859,12.2051,0.0000,-0.0610,-0.1221,-0.0000,-0.1841,-0.1534,-10.5859,0.0096,-0.0033,0.0002,0.0000,0.0000,0.0000,0.0000,0.0000,0.0000,0.0000,0.0000,0.0000,0.0000,0.0000,0.0000,0.0000,0.0000,1.0000,0.0000,0.0000,0.0000,0.0000,0.0000,0.0000,0.0000,0.0000,0.0000,0.0000,0.0000,0.0000,0.0000,0.0000,0.0000,0.0000,0.0000,0.0000,-0.1000,-0.1000,-0.1000,-0.1000,0.0000,0.0000,0.0000,0.0000,4
0,-1,0,-10.4539,-0.0984,0.1685,0.0710,0.0410,-0.0290,1.1667,8025.5859,8025.5859,8025.5859,8025.5859,12.2053,0.0000,0.0000,-0.1221,-0.0000,-0.1124,-0.1151,-10.5477,0.0096,-0.0034,0.0002,0.0000,0.0000,0.0000,0.0000,0.0000,0.0000,0.0000,0.0000,0.0000,0.0000,0.0000,0.0000,0.0000,0.0000,1.0000,0.0000,0.0000,0.0000,0.0000,0.0000,0.0000,0.0000,0.0000,0.0000,0.0000,0.0000,0.0000,0.0000,0.0000,0.0000,0.0000,0.0000,0.0000,-0.1000,-0.1000,-0.1000,-0.1000,0.0000,0.0000,0.0000,0.0000,4
0,-1,0,-10.4539,-0.0984,0.1685,0.0710,0.0410,-0.0290,1.1667,8025.5859,8025.5859,8025.5859,8025.5859,12.2046,0.0000,-0.1221,-0.0610,-0.0000,-0.1148,-0.1774,-10.5787,0.0096,-0.0034,0.0002,0.0000,0.0000,0.0000,0.0000,0.0000,0.0000,0.0000,0.0000,0.0000,0.0000,0.0000,0.0000,0.0000,0.0000,1.0000,0.0000,0.0000,0.0000,0.0000,0.0000,0.0000,0.0000,0.0000,0.0000,0.0000,0.0000,0.0000,0.0000,0.0000,0.0000,0.0000,0.0000,0.0000,-0.1000,-0.1000,-0.1000,-0.1000,0.0000,0.0000,0.0000,0.0000,4
0,-1,0,-10.4539,-0.0984,0.1685,0.0710,0.0410,-0.0290,1.1667,8025.5859,8025.5859,8025.5859,8025.5859,12.2048,0.0000,-0.1221,-0.0610,-0.0000,-0.0765,-0.1271,-10.5811,0.0096,-0.0034,0.0001,0.0000,0.0000,0.0000,0.0000,0.0000,0.0000,0.0000,0.0000,0.0000,0.0000,0.0000,0.0000,0.0000,0.0000,1.0000,0.0000,0.0000,0.0000,0.0000,0.0000,0.0000,0.0000,0.0000,0.0000,0.0000,0.0000,0.0000,0.0000,0.0000,0.0000,0.0000,0.0000,0.0000,-0.1000,-0.1000,-0.1000,-0.1000,0.0000,0.0000,0.0000,0.0000,4
0,-1,0,-10.4539,-0.0984,0.1685,0.0710,0.0410,-0.0290,1.1667,8025.5859,8025.5859,8025.5859,8025.5859,12.2048,0.0000,0.0610,-0.1221,0.1221,-0.1387,-0.1606,-10.5859,0.0096,-0.0034,0.0002,0.0000,0.0000,0.0000,0.0000,0.0000,0.0000,0.0000,0.0000,0.0000,0.0000,0.0000,0.0000,0.0000,0.0000,1.0000,0.0000,0.0000,0.0000,0.0000,0.0000,0.0000,0.0000,0.0000,0.0000,0.0000,0.0000,0.0000,0.0000,0.0000,0.0000,0.0000,0.0000,0.0000,-0.1000,-0.1000,-0.1000,-0.1000,0.0000,0.0000,0.0000,0.0000,4
0,-1,0,-10.4539,-0.0984,0.1685,0.0710,0.0410,-0.0290,1.1667,8025.5859,8025.5859,8025.5859,8025.5859,12.2046,0.0000,-0.0610,-0.1831,-0.0000,-0.1172,-0.1414,-10.6050,0.0096,-0.0034,0.0002,0.0000,0.0000,0.0000,0.0000,0.0000,0.0000,0.0000,0.0000,0.0000,0.0000,0.0000,0.0000,0.0000,0.0000,1.0000,0.0000,0.0000,0.0000,0.0000,0.0000,0.0000,0.0000,0.0000,0.0000,0.0000,0.0000,0.0000,0.0000,0.0000,0.0000,0.0000,0.0000,0.0000,-0.1000,-0.1000,-0.1000,-0.1000,0.0000,0.0000,0.0000,0.0000,4
0,-1,0,-10.4539,-0.0984,0.1685,0.0710,0.0410,-0.0290,1.1667,8025.5859,8025.5859,8025.5859,8025.5859,12.2046,0.0000,-0.0610,-0.1221,-0.0000,-0.1411,-0.1271,-10.5238,0.0096,-0.0034,0.0001,0.0000,0.0000,0.0000,0.0000,0.0000,0.0000,0.0000,0.0000,0.0000,0.0000,0.0000,0.0000,0.0000,0.0000,1.0000,0.0000,0.0000,0.0000,0.0000,0.0000,0.0000,0.0000,0.0000,0.0000,0.0000,0.0000,0.0000,0.0000,0.0000,0.0000,0.0000,0.0000,0.0000,-0.1000,-0.1000,-0.1000,-0.1000,0.0000,0.0000,0.0000,0.0000,4
0,-1,0,-10.4539,-0.0984,0.1685,0.0710,0.0410,-0.0290,1.1667,8025.5859,8025.5859,8025.5859,8025.5859,12.2048,0.0000,0.0000,0.0000,-0.1221,-0.1721,-0.2158,-10.5835,0.0096,-0.0034,0.0001,0.0000,0.0000,0.0000,0.0000,0.0000,0.0000,0.0000,0.0000,0.0000,0.0000,0.0000,0.0000,0.0000,0.0000,1.0000,0.0000,0.0000,0.0000,0.0000,0.0000,0.0000,0.0000,0.0000,0.0000,0.0000,0.0000,0.0000,0.0000,0.0000,0.0000,0.0000,0.0000,0.0000,-0.1000,-0.1000,-0.1000,-0.1000,0.0000,0.0000,0.0000,0.0000,4
0,-1,0,-10.4539,-0.0984,0.1685,0.0710,0.0410,-0.0290,1.1667,8025.5859,8025.5859,8025.5859,8025.5859,12.2053,0.0000,0.0000,-0.1831,-0.0000,-0.1841,-0.1822,-10.5143,0.0096,-0.0035,0.0001,0.0000,0.0000,0.0000,0.0000,0.0000,0.0000,0.0000,0.0000,0.0000,0.0000,0.0000,0.0000,0.0000,0.0000,1.0000,0.0000,0.0000,0.0000,0.0000,0.0000,0.0000,0.0000,0.0000,0.0000,0.0000,0.0000,0.0000,0.0000,0.0000,0.0000,0.0000,0.0000,0.0000,-0.1000,-0.1000,-0.1000,-0.1000,0.0000,0.0000,0.0000,0.0000,4
0,-1,0,-10.4539,-0.0984,0.1685,0.0710,0.0410,-0.0290,1.1667,8025.5859,8025.5859,8025.5859,8025.5859,12.2048,0.0000,0.0000,0.0000,0.1221,-0.1004,-0.1654,-10.5930,0.0097,-0.0035,0.0001,0.0000,0.0000,0.0000,0.0000,0.0000,0.0000,0.0000,0.0000,0.0000,0.0000,0.0000,0.0000,0.0000,0.0000,1.0000,0.0000,0.0000,0.0000,0.0000,0.0000,0.0000,0.0000,0.0000,0.0000,0.0000,0.0000,0.0000,0.0000,0.0000,0.0000,0.0000,0.0000,0.0000,-0.1000,-0.1000,-0.1000,-0.1000,0.0000,0.0000,0.0000,0.0000,4
0,-1,0,-10.4539,-0.0984,0.1685,0.0710,0.0410,-0.0290,1.1667,8025.5859,8025.5859,8025.5859,8025.5859,12.2048,0.0000,-0.1221,-0.0610,0.1831,-0.1841,-0.1534,-10.5763,0.0097,-0.0035,0.0001,0.0000,0.0000,0.0000,0.0000,0.0000,0.0000,0.0000,0.0000,0.0000,0.0000,0.0000,0.0000,0.0000,0.0000,1.0000,0.0000,0.0000,0.0000,0.0000,0.0000,0.0000,0.0000,0.0000,0.0000,0.0000,0.0000,0.0000,0.0000,0.0000,0.0000,0.0000,0.0000,0.0000,-0.1000,-0.1000,-0.1000,-0.1000,0.0000,0.0000,0.0000,0.0000,4
0,-1,0,-10.4539,-0.0984,0.1685,0.0710,0.0410,-0.0290,1.1667,8025.5859,8025.5859,8025.5859,8025.5859,12.2063,0.0000,-0.1831,-0.1221,-0.0000,-0.1052,-0.0695,-10.5811,0.0097,-0.0035,0.0001,0.0000,0.0000,0.0000,0.0000,0.0000,0.0000,0.0000,0.0000,0.0000,0.0000,0.0000,0.0000,0.0000,0.0000,1.0000,0.0000,0.0000,0.0000,0.0000,0.0000,0.0000,0.0000,0.0000,0.0000,0.0000,0.0000,0.0000,0.0000,0.0000,0.0000,0.0000,0.0000,0.0000,-0.1000,-0.1000,-0.1000,-0.1000,0.0000,0.0000,0.0000,0.0000,4
0,-1,0,-10.4539,-0.0984,0.1685,0.0710,0.0410,-0.0290,1.1667,8025.5859,8025.5859,8025.5859,8025.5859,12.2063,0.0000,0.0000,0.0610,0.1221,-0.0932,-0.2493,-10.6121,0.0097,-0.0035,0.0001,0.0000,0.0000,0.0000,0.0000,0.0000,0.0000,0.0000,0.0000,0.0000,0.0000,0.0000,0.0000,0.0000,0.0000,1.0000,0.0000,0.0000,0.0000,0.0000,0.0000,0.0000,0.0000,0.0000,0.0000,0.0000,0.0000,0.0000,0.0000,0.0000,0.0000,0.0000,0.0000,0.0000,-0.1000,-0.1000,-0.1000,-0.1000,0.0000,0.0000,0.0000,0.0000,4
0,-1,0,-10.4539,-0.0984,0.1685,0.0710,0.0410,-0.0290,1.1667,8025.5859,8025.5859,8025.5859,8025.5859,12.2058,0.0000,-0.0610,-0.1831,0.1831,-0.1482,-0.1702,-10.5214,0.0097,-0.0035,0.0002,0.0000,0.0000,0.0000,0.0000,0.0000,0.0000,0.0000,0.0000,0.0000,0.0000,0.0000,0.0000,0.0000,0.0000,1.0000,0.0000,0.0000,0.0000,0.0000,0.0000,0.0000,0.0000,0.0000,0.0000,0.0000,0.0000,0.0000,0.0000,0.0000,0.0000,0.0000,0.0000,0.0000,-0.1000,-0.1000,-0.1000,-0.1000,0.0000,0.0000,0.0000,0.0000,4
0,-1,0,-10.4539,-0.0984,0.1685,0.0710,0.0310,-0.0190,1.1667,8025.5859,8025.5859,8025.5859,8025.5859,12.2053,0.0000,-0.0610,-0.2441,-0.0610,-0.1363,-0.1343,-10.6050,0.0097,-0.0035,0.0001,0.0000,0.0000,0.0000,0.0000,0.0000,0.0000,0.0000,0.0000,0.0000,0.0000,0.0000,0.0000,0.0000,0.0000,1.0000,0.0000,0.0000,0.0000,0.0000,0.0000,0.0000,0.0000,0.0000,0.0000,0.0000,0.0000,0.0000,0.0000,0.0000,0.0000,0.0000,0.0000,0.0000,-0.1000,-0.1000,-0.1000,-0.1000,0.0000,0.0000,0.0000,0.0000,4
0,-1,0,-10.4539,-0.0984,0.1685,0.0710,0.0310,-0.0190,1.1667,8025.5859,8025.5859,8025.5859,8025.5859,12.2055,0.0000,0.0000,0.0000,0.1221,-0.1458,-0.1750,-10.6073,0.0097,-0.0035,0.0002,0.0000,0.0000,0.0000,0.0000,0.0000,0.0000,0.0000,0.0000,0.0000,0.0000,0.0000,0.0000,0.0000,0.0000,1.0000,0.0000,0.0000,0.0000,0.0000,0.0000,0.0000,0.0000,0.0000,0.0000,0.0000,0.0000,0.0000,0.0000,0.0000,0.0000,0.0000,0.0000,0.0000,-0.1000,-0.1000,-0.1000,-0.1000,0.0000,0.0000,0.0000,0.0000,4
0,-1,0,-10.4852,-0.0723,0.1640,0.0710,0.0310,-0.0190,1.1667,8025.5859,8025.5859,8025.5859,8025.5859,12.2060,0.0000,-0.1831,-0.1221,-0.0610,-0.1267,-0.1295,-10.6336,0.0097,-0.0036,0.0001,0.0000,0.0000,0.0000,0.0000,0.0000,0.0000,0.0000,0.0000,0.0000,0.0000,0.0000,0.0000,0.0000,0.0000,1.0000,0.0000,0.0000,0.0000,0.0000,0.0000,0.0000,0.0000,0.0000,0.0000,0.0000,0.0000,0.0000,0.0000,0.0000,0.0000,0.0000,0.0000,0.0000,-0.1000,-0.1000,-0.1000,-0.1000,0.0000,0.0000,0.0000,0.0000,4
0,-1,0,-10.4852,-0.0723,0.1640,0.0710,0.0310,-0.0190,1.1667,8025.5859,8025.5859,8025.5859,8025.5859,12.2055,0.0000,-0.0610,-0.1831,-0.0000,-0.1172,-0.1630,-10.6169,0.0097,-0.0036,0.0001,0.0000,0.0000,0.0000,0.0000,0.0000,0.0000,0.0000,0.0000,0.0000,0.0000,0.0000,0.0000,0.0000,0.0000,1.0000,0.0000,0.0000,0.0000,0.0000,0.0000,0.0000,0.0000,0.0000,0.0000,0.0000,0.0000,0.0000,0.0000,0.0000,0.0000,0.0000,0.0000,0.0000,-0.1000,-0.1000,-0.1000,-0.1000,0.0000,0.0000,0.0000,0.0000,4
0,-1,0,-10.4852,-0.0723,0.1640,0.0710,0.0310,-0.0190,1.1667,8025.5859,8025.5859,8025.5859,8025.5859,12.2058,0.0000,-0.1831,-0.1831,-0.0000,-0.1721,-0.1822,-10.5620,0.0097,-0.0037,0.0001,0.0000,0.0000,0.0000,0.0000,0.0000,0.0000,0.0000,0.0000,0.0000,0.0000,0.0000,0.0000,0.0000,0.0000,1.0000,0.0000,0.0000,0.0000,0.0000,0.0000,0.0000,0.0000,0.0000,0.0000,0.0000,0.0000,0.0000,0.0000,0.0000,0.0000,0.0000,0.0000,0.0000,-0.1000,-0.1000,-0.1000,-0.1000,0.0000,0.0000,0.0000,0.0000,4
0,-1,0,-10.4852,-0.0723,0.1640,0.0710,0.0310,-0.0190,1.1667,8025.5859,8025.5859,8025.5859,8025.5859,12.2060,0.0000,-0.0610,-0.2441,-0.0000,-0.1387,-0.1726,-10.6073,0.0097,-0.0037,0.0001,0.0000,0.0000,0.0000,0.0000,0.0000,0.0000,0.0000,0.0000,0.0000,0.0000,0.0000,0.0000,0.0000,0.0000,1.0000,0.0000,0.0000,0.0000,0.0000,0.0000,0.0000,0.0000,0.0000,0.0000,0.0000,0.0000,0.0000,0.0000,0.0000,0.0000,0.0000,0.0000,0.0000,-0.1000,-0.1000,-0.1000,-0.1000,0.0000,0.0000,0.0000,0.0000,4
0,-1,0,-10.4852,-0.0723,0.1640,0.0710,0.0310,-0.0190,1.1667,8025.5859,8025.5859,8025.5859,8025.5859,12.2058,0.0000,-0.0610,-0.2441,0.1221,-0.1339,-0.1007,-10.5572,0.0098,-0.0038,0.0001,0.0000,0.0000,0.0000,0.0000,0.0000,0.0000,0.0000,0.0000,0.0000,0.0000,0.0000,0.0000,0.0000,0.0000,1.0000,0.0000,0.0000,0.0000,0.0000,0.0000,0.0000,0.0000,0.0000,0.0000,0.0000,0.0000,0.0000,0.0000,0.0000,0.0000,0.0000,0.0000,0.0000,-0.1000,-0.1000,-0.1000,-0.1000,0.0000,0.0000,0.0000,0.0000,4
0,-1,0,-10.4852,-0.0723,0.1640,0.0710,0.0310,-0.0190,1.1667,8025.5859,8025.5859,8025.5859,8025.5859,12.2055,0.0000,-0.0610,-0.1221,-0.0000,-0.1458,-0.1846,-10.6169,0.0098,-0.0038,0.0001,0.0000,0.0000,0.0000,0.0000,0.0000,0.0000,0.0000,0.0000,0.0000,0.0000,0.0000,0.0000,0.0000,0.0000,1.0000,0.0000,0.0000,0.0000,0.0000,0.0000,0.0000,0.0000,0.0000,0.0000,0.0000,0.0000,0.0000,0.0000,0.0000,0.0000,0.0000,0.0000,0.0000,-0.1000,-0.1000,-0.1000,-0.1000,0.0000,0.0000,0.0000,0.0000,4
0,-1,0,-10.4852,-0.0723,0.1640,0.0710,0.0310,-0.0190,1.1667,8025.5859,8025.5859,8025.5859,8025.5859,12.2058,0.0000,-0.0610,-0.1831,-0.0000,-0.1243,-0.1319,-10.5835,0.0098,-0.0039,0.0001,0.0000,0.0000,0.0000,0.0000,0.0000,0.0000,0.0000,0.0000,0.0000,0.0000,0.0000,0.0000,0.0000,0.0000,1.0000,0.0000,0.0000,0.0000,0.0000,0.0000,0.0000,0.0000,0.0000,0.0000,0.0000,0.0000,0.0000,0.0000,0.0000,0.0000,0.0000,0.0000,0.0000,-0.1000,-0.1000,-0.1000,-0.1000,0.0000,0.0000,0.0000,0.0000,4
0,-1,0,-10.4852,-0.0723,0.1640,0.0710,0.0310,-0.0190,1.1667,8025.5859,8025.5859,8025.5859,8025.5859,12.2051,0.0000,-0.1831,-0.1831,-0.0000,-0.1578,-0.1438,-10.5620,0.0098,-0.0039,0.0001,0.0000,0.0000,0.0000,0.0000,0.0000,0.0000,0.0000,0.0000,0.0000,0.0000,0.0000,0.0000,0.0000,0.0000,1.0000,0.0000,0.0000,0.0000,0.0000,0.0000,0.0000,0.0000,0.0000,0.0000,0.0000,0.0000,0.0000,0.0000,0.0000,0.0000,0.0000,0.0000,0.0000,-0.1000,-0.1000,-0.1000,-0.1000,0.0000,0.0000,0.0000,0.0000,4
0,-1,0,-10.4852,-0.0723,0.1640,0.0710,0.0310,-0.0190,1.1667,8025.5859,8025.5859,8025.5859,8025.5859,12.2048,0.0000,-0.0610,-0.1831,0.1221,-0.1291,-0.2206,-10.5310,0.0098,-0.0039,0.0001,0.0000,0.0000,0.0000,0.0000,0.0000,0.0000,0.0000,0.0000,0.0000,0.0000,0.0000,0.0000,0.0000,0.0000,1.0000,0.0000,0.0000,0.0000,0.0000,0.0000,0.0000,0.0000,0.0000,0.0000,0.0000,0.0000,0.0000,0.0000,0.0000,0.0000,0.0000,0.0000,0.0000,-0.1000,-0.1000,-0.1000,-0.1000,0.0000,0.0000,0.0000,0.0000,4
0,-1,0,-10.4852,-0.0723,0.1640,0.0710,0.0310,-0.0190,1.1667,8025.5859,8025.5859,8025.5859,8025.5859,12.2053,0.0000,-0.0610,-0.1221,-0.0610,-0.1052,-0.1630,-10.5930,0.0098,-0.0039,0.0001,0.0000,0.0000,0.0000,0.0000,0.0000,0.0000,0.0000,0.0000,0.0000,0.0000,0.0000,0.0000,0.0000,0.0000,1.0000,0.0000,0.0000,0.0000,0.0000,0.0000,0.0000,0.0000,0.0000,0.0000,0.0000,0.0000,0.0000,0.0000,0.0000,0.0000,0.0000,0.0000,0.0000,-0.1000,-0.1000,-0.1000,-0.1000,0.0000,0.0000,0.0000,0.0000,4
0,-1,0,-10.4852,-0.0723,0.1640,0.0710,0.0310,-0.0190,1.1667,8025.5859,8025.5859,8025.5859,8025.5859,12.2053,0.0000,0.0610,-0.1221,-0.0000,-0.2008,-0.2014,-10.5357,0.0099,-0.0039,0.0001,0.0000,0.0000,0.0000,0.0000,0.0000,0.0000,0.0000,0.0000,0.0000,0.0000,0.0000,0.0000,0.0000,0.0000,1.0000,0.0000,0.0000,0.0000,0.0000,0.0000,0.0000,0.0000,0.0000,0.0000,0.0000,0.0000,0.0000,0.0000,0.0000,0.0000,0.0000,0.0000,0.0000,-0.1000,-0.1000,-0.1000,-0.1000,0.0000,0.0000,0.0000,0.0000,4
0,-1,0,-10.4852,-0.0723,0.1640,0.0710,0.0310,-0.0190,1.1667,8025.5859,8025.5859,8025.5859,8025.5859,12.2051,0.0000,0.0610,0.0000,-0.0610,-0.1363,-0.1510,-10.6050,0.0099,-0.0039,0.0001,0.0000,0.0000,0.0000,0.0000,0.0000,0.0000,0.0000,0.0000,0.0000,0.0000,0.0000,0.0000,0.0000,0.0000,1.0000,0.0000,0.0000,0.0000,0.0000,0.0000,0.0000,0.0000,0.0000,0.0000,0.0000,0.0000,0.0000,0.0000,0.0000,0.0000,0.0000,0.0000,0.0000,-0.1000,-0.1000,-0.1000,-0.1000,0.0000,0.0000,0.0000,0.0000,4
0,-1,0,-10.4852,-0.0723,0.1640,0.0710,0.0310,-0.0190,1.1667,8025.5859,8025.5859,8025.5859,8025.5859,12.2048,0.0000,-0.1221,-0.0610,0.1221,-0.1745,-0.1630,-10.5405,0.0099,-0.0040,0.0001,0.0000,0.0000,0.0000,0.0000,0.0000,0.0000,0.0000,0.0000,0.0000,0.0000,0.0000,0.0000,0.0000,0.0000,1.0000,0.0000,0.0000,0.0000,0.0000,0.0000,0.0000,0.0000,0.0000,0.0000,0.0000,0.0000,0.0000,0.0000,0.0000,0.0000,0.0000,0.0000,0.0000,-0.1000,-0.1000,-0.1000,-0.1000,0.0000,0.0000,0.0000,0.0000,4
0,-1,0,-10.4852,-0.0723,0.1640,0.0710,0.0310,-0.0190,1.1667,8025.5859,8025.5859,8025.5859,8025.5859,12.2046,0.0000,-0.0610,-0.1831,0.1221,-0.1458,-0.1942,-10.6002,0.0099,-0.0040,0.0001,0.0000,0.0000,0.0000,0.0000,0.0000,0.0000,0.0000,0.0000,0.0000,0.0000,0.0000,0.0000,0.0000,0.0000,1.0000,0.0000,0.0000,0.0000,0.0000,0.0000,0.0000,0.0000,0.0000,0.0000,0.0000,0.0000,0.0000,0.0000,0.0000,0.0000,0.0000,0.0000,0.0000,-0.1000,-0.1000,-0.1000,-0.1000,0.0000,0.0000,0.0000,0.0000,4
0,-1,0,-10.4852,-0.0723,0.1640,0.0710,0.0310,-0.0190,1.1667,8025.5859,8025.5859,8025.5859,8025.5859,12.2051,0.0000,-0.0610,-0.1831,-0.0610,-0.0980,-0.1510,-10.6145,0.0099,-0.0040,0.0001,0.0000,0.0000,0.0000,0.0000,0.0000,0.0000,0.0000,0.0000,0.0000,0.0000,0.0000,0.0000,0.0000,0.0000,1.0000,0.0000,0.0000,0.0000,0.0000,0.0000,0.0000,0.0000,0.0000,0.0000,0.0000,0.0000,0.0000,0.0000,0.0000,0.0000,0.0000,0.0000,0.0000,-0.1000,-0.1000,-0.1000,-0.1000,0.0000,0.0000,0.0000,0.0000,4
0,-1,0,-10.4852,-0.0723,0.1640,0.0710,0.0310,-0.0190,1.1667,8025.5859,8025.5859,8025.5859,8025.5859,12.2031,0.0000,-0.2441,-0.1221,0.1221,-0.1267,-0.1774,-10.5763,0.0099,-0.0040,0.0001,0.0000,0.0000,0.0000,0.0000,0.0000,0.0000,0.0000,0.0000,0.0000,0.0000,0.0000,0.0000,0.0000,0.0000,1.0000,0.0000,0.0000,0.0000,0.0000,0.0000,0.0000,0.0000,0.0000,0.0000,0.0000,0.0000,0.0000,0.0000,0.0000,0.0000,0.0000,0.0000,0.0000,-0.1000,-0.1000,-0.1000,-0.1000,0.0000,0.0000,0.0000,0.0000,4
0,-1,0,-10.4852,-0.0723,0.1640,0.0710,0.0310,-0.0190,1.1667,8025.5859,8025.5859,8025.5859,8025.5859,12.2034,0.0000,-0.1831,-0.2441,-0.0000,-0.1458,-0.1295,-10.5190,0.0099,-0.0040,0.0001,0.0000,0.0000,0.0000,0.0000,0.0000,0.0000,0.0000,0.0000,0.0000,0.0000,0.0000,0.0000,0.0000,0.0000,1.0000,0.0000,0.0000,0.0000,0.0000,0.0000,0.0000,0.0000,0.0000,0.0000,0.0000,0.0000,0.0000,0.0000,0.0000,0.0000,0.0000,0.0000,0.0000,-0.1000,-0.1000,-0.1000,-0.1000,0.0000,0.0000,0.0000,0.0000,4
0,-1,0,-10.4852,-0.0723,0.1640,0.0710,0.0310,-0.0190,1.1667,8025.5859,8025.5859,8025.5859,8025.5859,12.2036,0.0000,-0.1831,-0.1221,-0.0610,-0.1363,-0.1870,-10.5835,0.0099,-0.0041,0.0001,0.0000,0.0000,0.0000,0.0000,0.0000,0.0000,0.0000,0.0000,0.0000,0.0000,0.0000,0.0000,0.0000,0.0000,1.0000,0.0000,0.0000,0.0000,0.0000,0.0000,0.0000,0.0000,0.0000,0.0000,0.0000,0.0000,0.0000,0.0000,0.0000,0.0000,0.0000,0.0000,0.0000,-0.1000,-0.1000,-0.1000,-0.1000,0.0000,0.0000,0.0000,0.0000,4
0,-1,0,-10.4852,-0.0723,0.1640,0.0710,0.0310,-0.0190,1.1667,8025.5859,8025.5859,8025.5859,8025.5859,12.2041,0.0000,-0.0610,-0.1831,0.1221,-0.1291,-0.1606,-10.5715,0.0099,-0.0041,0.0001,0.0000,0.0000,0.0000,0.0000,0.0000,0.0000,0.0000,0.0000,0.0000,0.0000,0.0000,0.0000,0.0000,0.0000,1.0000,0.0000,0.0000,0.0000,0.0000,0.0000,0.0000,0.0000,0.0000,0.0000,0.0000,0.0000,0.0000,0.0000,0.0000,0.0000,0.0000,0.0000,0.0000,-0.1000,-0.1000,-0.1000,-0.1000,0.0000,0.0000,0.0000,0.0000,4
0,-1,0,-10.4852,-0.0723,0.1640,0.0710,0.0310,-0.0190,1.1667,8025.5859,8025.5859,8025.5859,8025.5859,12.2038,0.0000,-0.1221,-0.0610,-0.0000,-0.1363,-0.1510,-10.5906,0.0099,-0.0041,0.0001,0.0000,0.0000,0.0000,0.0000,0.0000,0.0000,0.0000,0.0000,0.0000,0.0000,0.0000,0.0000,0.0000,0.0000,1.0000,0.0000,0.0000,0.0000,0.0000,0.0000,0.0000,0.0000,0.0000,0.0000,0.0000,0.0000,0.0000,0.0000,0.0000,0.0000,0.0000,0.0000,0.0000,-0.1000,-0.1000,-0.1000,-0.1000,0.0000,0.0000,0.0000,0.0000,4
0,-1,0,-10.4852,-0.0723,0.1640,0.0710,0.0310,-0.0190,1.1667,8025.5859,8025.5859,8025.5859,8025.5859,12.2036,0.0000,0.0000,0.0000,-0.0000,-0.1435,-0.1462,-10.5262,0.0099,-0.0041,0.0001,0.0000,0.0000,0.0000,0.0000,0.0000,0.0000,0.0000,0.0000,0.0000,0.0000,0.0000,0.0000,0.0000,0.0000,1.0000,0.0000,0.0000,0.0000,0.0000,0.0000,0.0000,0.0000,0.0000,0.0000,0.0000,0.0000,0.0000,0.0000,0.0000,0.0000,0.0000,0.0000,0.0000,-0.1000,-0.1000,-0.1000,-0.1000,0.0000,0.0000,0.0000,0.0000,4
0,-1,0,-10.4852,-0.0723,0.1640,0.0710,0.0310,-0.0190,1.1667,8025.5859,8025.5859,8025.5859,8025.5859,12.2038,0.0000,-0.0610,-0.1831,-0.0000,-0.1172,-0.1630,-10.6145,0.0099,-0.0041,0.0001,0.0000,0.0000,0.0000,0.0000,0.0000,0.0000,0.0000,0.0000,0.0000,0.0000,0.0000,0.0000,0.0000,0.0000,1.0000,0.0000,0.0000,0.0000,0.0000,0.0000,0.0000,0.0000,0.0000,0.0000,0.0000,0.0000,0.0000,0.0000,0.0000,0.0000,0.0000,0.0000,0.0000,-0.1000,-0.1000,-0.1000,-0.1000,0.0000,0.0000,0.0000,0.0000,4
0,-1,0,-10.4852,-0.0723,0.1640,0.0710,0.0310,-0.0190,1.1667,8025.5859,8025.5859,8025.5859,8025.5859,12.2036,0.0000,0.0000,0.0000,0.1221,-0.1482,-0.1558,-10.5787,0.0099,-0.0041,0.0001,0.0000,0.0000,0.0000,0.0000,0.0000,0.0000,0.0000,0.0000,0.0000,0.0000,0.0000,0.0000,0.0000,0.0000,1.0000,0.0000,0.0000,0.0000,0.0000,0.0000,0.0000,0.0000,0.0000,0.0000,0.0000,0.0000,0.0000,0.0000,0.0000,0.0000,0.0000,0.0000,0.0000,-0.1000,-0.1000,-0.1000,-0.1000,0.0000,0.0000,0.0000,0.0000,4
0,-1,0,-10.4852,-0.0723,0.1640,0.0710,0.0310,-0.0190,1.1667,8025.5859,8025.5859,8025.5859,8025.5859,12.2036,0.0000,-0.1831,-0.1831,0.1831,-0.1219,-0.1798,-10.5930,0.0099,-0.0041,0.0001,0.0000,0.0000,0.0000,0.0000,0.0000,0.0000,0.0000,0.0000,0.0000,0.0000,0.0000,0.0000,0.0000,0.0000,1.0000,0.0000,0.0000,0.0000,0.0000,0.0000,0.0000,0.0000,0.0000,0.0000,0.0000,0.0000,0.0000,0.0000,0.0000,0.0000,0.0000,0.0000,0.0000,-0.1000,-0.1000,-0.1000,-0.1000,0.0000,0.0000,0.0000,0.0000,4
0,-1,0,-10.4852,-0.0723,0.1640,0.0710,0.0310,-0.0190,1.1667,8025.5859,8025.5859,8025.5859,8025.5859,12.2034,0.0000,-0.0610,-0.2441,0.1221,-0.1554,-0.1438,-10.6121,0.0099,-0.0042,0.0001,0.0000,0.0000,0.0000,0.0000,0.0000,0.0000,0.0000,0.0000,0.0000,0.0000,0.0000,0.0000,0.0000,0.0000,1.0000,0.0000,0.0000,0.0000,0.0000,0.0000,0.0000,0.0000,0.0000,0.0000,0.0000,0.0000,0.0000,0.0000,0.0000,0.0000,0.0000,0.0000,0.0000,-0.1000,-0.1000,-0.1000,-0.1000,0.0000,0.0000,0.0000,0.0000,4
0,-1,0,-10.4852,-0.0723,0.1640,0.0710,0.0310,-0.0190,1.1667,8025.5859,8025.5859,8025.5859,8025.5859,12.2038,0.0000,0.0000,0.0000,-0.0000,-0.1698,-0.1606,-10.5954,0.0099,-0.0042,0.0001,0.0000,0.0000,0.0000,0.0000,0.0000,0.0000,0.0000,0.0000,0.0000,0.0000,0.0000,0.0000,0.0000,0.0000,1.0000,0.0000,0.0000,0.0000,0.0000,0.0000,0.0000,0.0000,0.0000,0.0000,0.0000,0.0000,0.0000,0.0000,0.0000,0.0000,0.0000,0.0000,0.0000,-0.1000,-0.1000,-0.1000,-0.1000,0.0000,0.0000,0.0000,0.0000,4
0,-1,0,-10.4852,-0.0723,0.1640,0.0710,0.0310,-0.0190,1.1667,8025.5859,8025.5859,8025.5859,8025.5859,12.2041,0.0000,-0.1831,-0.1831,-0.0000,-0.1602,-0.1534,-10.5930,0.0099,-0.0042,0.0001,0.0000,0.0000,0.0000,0.0000,0.0000,0.0000,0.0000,0.0000,0.0000,0.0000,0.0000,0.0000,0.0000,0.0000,1.0000,0.0000,0.0000,0.0000,0.0000,0.0000,0.0000,0.0000,0.0000,0.0000,0.0000,0.0000,0.0000,0.0000,0.0000,0.0000,0.0000,0.0000,0.0000,-0.1000,-0.1000,-0.1000,-0.1000,0.0000,0.0000,0.0000,0.0000,4
0,-1,0,-10.4852,-0.0723,0.1640,0.0710,0.0310,-0.0190,1.1667,8025.5859,8025.5859,8025.5859,8025.5859,12.2048,0.0000,0.0000,0.0000,-0.0000,-0.1195,-0.1822,-10.5501,0.0099,-0.0042,0.0001,0.0000,0.0000,0.0000,0.0000,0.0000,0.0000,0.0000,0.0000,0.0000,0.0000,0.0000,0.0000,0.0000,0.0000,1.0000,0.0000,0.0000,0.0000,0.0000,0.0000,0.0000,0.0000,0.0000,0.0000,0.0000,0.0000,0.0000,0.0000,0.0000,0.0000,0.0000,0.0000,0.0000,-0.1000,-0.1000,-0.1000,-0.1000,0.0000,0.0000,0.0000,0.0000,4
0,-1,0,-10.4852,-0.0723,0.1640,0.0710,0.0310,-0.0190,1.1667,8025.5859,8025.5859,8025.5859,8025.5859,12.2053,0.0000,0.0000,0.0000,0.1831,-0.1769,-0.1366,-10.5596,0.0099,-0.0042,0.0001,0.0000,0.0000,0.0000,0.0000,0.0000,0.0000,0.0000,0.0000,0.0000,0.0000,0.0000,0.0000,0.0000,0.0000,1.0000,0.0000,0.0000,0.0000,0.0000,0.0000,0.0000,0.0000,0.0000,0.0000,0.0000,0.0000,0.0000,0.0000,0.0000,0.0000,0.0000,0.0000,0.0000,-0.1000,-0.1000,-0.1000,-0.1000,0.0000,0.0000,0.0000,0.0000,4
0,-1,0,-10.4852,-0.0723,0.1640,0.0510,0.0310,-0.0190,1.1667,8025.5859,8025.5859,8025.5859,8025.5859,12.2055,0.0000,0.0000,-0.1831,-0.0000,-0.1291,-0.1079,-10.5477,0.0100,-0.0042,0.0001,0.0000,0.0000,0.0000,0.0000,0.0000,0.0000,0.0000,0.0000,0.0000,0.0000,0.0000,0.0000,0.0000,0.0000,1.0000,0.0000,0.0000,0.0000,0.0000,0.0000,0.0000,0.0000,0.0000,0.0000,0.0000,0.0000,0.0000,0.0000,0.0000,0.0000,0.0000,0.0000,0.0000,-0.1000,-0.1000,-0.1000,-0.1000,0.0000,0.0000,0.0000,0.0000,4
0,-1,0,-10.4852,-0.0723,0.1640,0.0510,0.0310,-0.0190,1.1667,8025.5859,8025.5859,8025.5859,8025.5859,12.2051,0.0000,-0.1831,-0.1221,-0.0000,-0.1674,-0.1271,-10.5954,0.0099,-0.0042,0.0001,0.0000,0.0000,0.0000,0.0000,0.0000,0.0000,0.0000,0.0000,0.0000,0.0000,0.0000,0.0000,0.0000,0.0000,1.0000,0.0000,0.0000,0.0000,0.0000,0.0000,0.0000,0.0000,0.0000,0.0000,0.0000,0.0000,0.0000,0.0000,0.0000,0.0000,0.0000,0.0000,0.0000,-0.1000,-0.1000,-0.1000,-0.1000,0.0000,0.0000,0.0000,0.0000,4
0,-1,0,-10.4852,-0.0723,0.1640,0.0510,0.0310,-0.0190,1.1667,8025.5859,8025.5859,8025.5859,8025.5859,12.2048,0.0000,-0.0610,-0.1831,0.1221,-0.1745,-0.1582,-10.6145,0.0100,-0.0043,0.0001,0.0000,0.0000,0.0000,0.0000,0.0000,0.0000,0.0000,0.0000,0.0000,0.0000,0.0000,0.0000,0.0000,0.0000,1.0000,0.0000,0.0000,0.0000,0.0000,0.0000,0.0000,0.0000,0.0000,0.0000,0.0000,0.0000,0.0000,0.0000,0.0000,0.0000,0.0000,0.0000,0.0000,-0.1000,-0.1000,-0.1000,-0.1000,0.0000,0.0000,0.0000,0.0000,4
0,-1,0,-10.4632,-0.0997,0.1624,0.0510,0.0310,-0.0190,1.1667,8025.5859,8025.5859,8025.5859,8025.5859,12.2046,0.0000,0.0000,0.0000,0.1831,-0.1745,-0.1295,-10.6169,0.0100,-0.0043,0.0001,0.0000,0.0000,0.0000,0.0000,0.0000,0.0000,0.0000,0.0000,0.0000,0.0000,0.0000,0.0000,0.0000,0.0000,1.0000,0.0000,0.0000,0.0000,0.0000,0.0000,0.0000,0.0000,0.0000,0.0000,0.0000,0.0000,0.0000,0.0000,0.0000,0.0000,0.0000,0.0000,0.0000,-0.1000,-0.1000,-0.1000,-0.1000,0.0000,0.0000,0.0000,0.0000,4
0,-1,0,-10.4632,-0.0997,0.1624,0.0510,0.0310,-0.0190,1.1667,8025.5859,8025.5859,8025.5859,8025.5859,12.2046,0.0000,-0.1831,-0.2441,0.1221,-0.1339,-0.1271,-10.5811,0.0100,-0.0043,0.0002,0.0000,0.0000,0.0000,0.0000,0.0000,0.0000,0.0000,0.0000,0.0000,0.0000,0.0000,0.0000,0.0000,0.0000,1.0000,0.0000,0.0000,0.0000,0.0000,0.0000,0.0000,0.0000,0.0000,0.0000,0.0000,0.0000,0.0000,0.0000,0.0000,0.0000,0.0000,0.0000,0.0000,-0.1000,-0.1000,-0.1000,-0.1000,0.0000,0.0000,0.0000,0.0000,4
0,-1,0,-10.4632,-0.0997,0.1624,0.0510,0.0310,-0.0190,1.1667,8025.5859,8025.5859,8025.5859,8025.5859,12.2043,0.0000,-0.0610,-0.1831,-0.0000,-0.1243,-0.1390,-10.5811,0.0100,-0.0044,0.0001,0.0000,0.0000,0.0000,0.0000,0.0000,0.0000,0.0000,0.0000,0.0000,0.0000,0.0000,0.0000,0.0000,0.0000,1.0000,0.0000,0.0000,0.0000,0.0000,0.0000,0.0000,0.0000,0.0000,0.0000,0.0000,0.0000,0.0000,0.0000,0.0000,0.0000,0.0000,0.0000,0.0000,-0.1000,-0.1000,-0.1000,-0.1000,0.0000,0.0000,0.0000,0.0000,4
0,-1,0,-10.4632,-0.0997,0.1624,0.0510,0.0310,-0.0190,1.1667,8025.5859,8025.5859,8025.5859,8025.5859,12.2043,0.0000,-0.0610,-0.1831,-0.0000,-0.1578,-0.1630,-10.5238,0.0100,-0.0044,0.0001,0.0000,0.0000,0.0000,0.0000,0.0000,0.0000,0.0000,0.0000,0.0000,0.0000,0.0000,0.0000,0.0000,0.0000,1.0000,0.0000,0.0000,0.0000,0.0000,0.0000,0.0000,0.0000,0.0000,0.0000,0.0000,0.0000,0.0000,0.0000,0.0000,0.0000,0.0000,0.0000,0.0000,-0.1000,-0.1000,-0.1000,-0.1000,0.0000,0.0000,0.0000,0.0000,4
0,-1,0,-10.4632,-0.0997,0.1624,0.0510,0.0310,-0.0190,1.1667,8025.5859,8025.5859,8025.5859,8025.5859,12.2041,0.0000,-0.0610,-0.1221,-0.0000,-0.1506,-0.1630,-10.6097,0.0100,-0.0044,0.0001,0.0000,0.0000,0.0000,0.0000,0.0000,0.0000,0.0000,0.0000,0.0000,0.0000,0.0000,0.0000,0.0000,0.0000,1.0000,0.0000,0.0000,0.0000,0.0000,0.0000,0.0000,0.0000,0.0000,0.0000,0.0000,0.0000,0.0000,0.0000,0.0000,0.0000,0.0000,0.0000,0.0000,-0.1000,-0.1000,-0.1000,-0.1000,0.0000,0.0000,0.0000,0.0000,4
0,-1,0,-10.4632,-0.0997,0.1624,0.0510,0.0310,-0.0190,1.1667,8025.5859,8025.5859,8025.5859,8025.5859,12.2038,0.0000,-0.0610,-0.2441,0.1831,-0.1124,-0.1822,-10.6312,0.0100,-0.0045,0.0002,0.0000,0.0000,0.0000,0.0000,0.0000,0.0000,0.0000,0.0000,0.0000,0.0000,0.0000,0.0000,0.0000,0.0000,1.0000,0.0000,0.0000,0.0000,0.0000,0.0000,0.0000,0.0000,0.0000,0.0000,0.0000,0.0000,0.0000,0.0000,0.0000,0.0000,0.0000,0.0000,0.0000,-0.1000,-0.1000,-0.1000,-0.1000,0.0000,0.0000,0.0000,0.0000,4
0,-1,0,-10.4632,-0.0997,0.1624,0.0510,0.0310,-0.0190,1.1667,8025.5859,8025.5859,8025.5859,8025.5859,12.2041,0.0000,-0.1831,-0.1831,-0.0000,-0.1578,-0.1654,-10.5596,0.0100,-0.0045,0.0002,0.0000,0.0000,0.0000,0.0000,0.0000,0.0000,0.0000,0.0000,0.0000,0.0000,0.0000,0.0000,0.0000,0.0000,1.0000,0.0000,0.0000,0.0000,0.0000,0.0000,0.0000,0.0000,0.0000,0.0000,0.0000,0.0000,0.0000,0.0000,0.0000,0.0000,0.0000,0.0000,0.0000,-0.1000,-0.1000,-0.1000,-0.1000,0.0000,0.0000,0.0000,0.0000,4
0,-1,0,-10.4632,-0.0997,0.1624,0.0510,0.0310,-0.0190,1.1667,8025.5859,8025.5859,8025.5859,8025.5859,12.2041,0.0000,-0.1221,-0.0610,0.1221,-0.1124,-0.1798,-10.5811,0.0100,-0.0045,0.0002,0.0000,0.0000,0.0000,0.0000,0.0000,0.0000,0.0000,0.0000,0.0000,0.0000,0.0000,0.0000,0.0000,0.0000,1.0000,0.0000,0.0000,0.0000,0.0000,0.0000,0.0000,0.0000,0.0000,0.0000,0.0000,0.0000,0.0000,0.0000,0.0000,0.0000,0.0000,0.0000,0.0000,-0.1000,-0.1000,-0.1000,-0.1000,0.0000,0.0000,0.0000,0.0000,4
0,-1,0,-10.4632,-0.0997,0.1624,0.0510,0.0310,-0.0190,1.1667,8025.5859,8025.5859,8025.5859,8025.5859,12.2036,0.0000,0.0000,-0.1221,-0.0610,-0.1267,-0.1534,-10.6312,0.0101,-0.0045,0.0002,0.0000,0.0000,0.0000,0.0000,0.0000,0.0000,0.0000,0.0000,0.0000,0.0000,0.0000,0.0000,0.0000,0.0000,1.0000,0.0000,0.0000,0.0000,0.0000,0.0000,0.0000,0.0000,0.0000,0.0000,0.0000,0.0000,0.0000,0.0000,0.0000,0.0000,0.0000,0.0000,0.0000,-0.1000,-0.1000,-0.1000,-0.1000,0.0000,0.0000,0.0000,0.0000,4
