loop_index, counter, last_step_ns, T_ref, theta_ref, phi_ref, uwind, vwind, wwind, rho, rpm1, rpm2, rpm3, rpm4,v_batt,alt,gyro_roll,gyro_pitch,gyro_yaw,accel_X,accel_Y,accel_Z,roll,pitch,yaw,X,Y,Z,Xdot,Ydot,Zdot,x0,y0,z0,e.xbee_time,xbee_time_received_ns,xbee_x,xbee_y,xbee_z,xbee_qw,xbee_qx,xbee_qy,xbee_qz,sp_roll,sp_pitch,sp_yaw,sp_X,sp_Y,sp_Z,sp_Xdot,sp_Ydot,sp_Zdot,u_roll,u_pitch,u_yaw,u_X,u_Y,u_Z,mot_1,mot_2,mot_3,mot_4,flight mode
1,207,1136622462293,-10.4402,-0.2019,0.0067,0.0210,0.6310,0.2610,1.1606,23.4375,23.4375,23.4375,23.4375,12.2227,0.0000,0.0000,0.0000,-0.0000,-0.1482,-0.2685,-10.6002,0.0249,-0.0158,-0.0043,0.0000,0.0000,0.0000,0.0000,0.0000,0.0000,0.0000,0.0000,0.0000,0.0000,0.0000,0.0000,0.0000,0.0000,1.0000,0.0000,0.0000,0.0000,-0.2019,0.0067,0.0000,0.0000,0.0000,0.0000,0.0000,0.0000,-0.0000,-0.0000,0.0000,0.0000,0.0000,0.0000,-0.5598,0.0025,0.0025,0.0025,0.0025,4
2,208,1136626273067,-10.4402,-0.2019,0.0067,0.0210,0.6310,0.2610,1.1606,23.4375,23.4375,23.4375,23.4375,12.2237,0.0000,0.1221,-0.1831,-0.0610,-0.1769,-0.2757,-10.5524,0.0250,-0.0158,-0.0043,0.0000,0.0000,0.0000,0.0000,0.0000,0.0000,0.0000,0.0000,0.0000,0.0000,0.0000,0.0000,0.0000,0.0000,1.0000,0.0000,0.0000,0.0000,-0.2019,0.0067,0.0000,0.0000,0.0000,0.0000,0.0000,0.0000,0.0292,-0.0020,0.0020,0.0020,0.0000,0.0000,-0.5598,0.0025,0.0025,0.0025,0.0025,4
3,209,1136631496356,-10.4402,-0.2019,0.0067,0.0210,0.6310,0.2610,1.1606,23.4375,23.4375,23.4375,23.4375,12.2249,0.0000,0.0000,0.0000,-0.0000,-0.1841,-0.2613,-10.6193,0.0250,-0.0158,-0.0043,0.0000,0.0000,0.0000,0.0000,0.0000,0.0000,0.0000,0.0000,0.0000,0.0000,0.0000,0.0000,0.0000,0.0000,1.0000,0.0000,0.0000,0.0000,-0.2019,0.0067,0.0000,0.0000,0.0000,0.0000,0.0000,0.0000,0.0292,-0.0040,0.0033,0.0036,0.0000,0.0000,-0.5598,0.0025,0.0025,0.0025,0.0025,4
4,210,1136635788358,-10.4402,-0.2019,0.0067,0.0210,0.6310,0.2610,1.1606,23.4375,23.4375,23.4375,23.4375,12.2261,0.0000,0.0000,0.0000,0.1831,-0.1698,-0.2685,-10.6312,0.0250,-0.0158,-0.0043,0.0000,0.0000,0.0000,0.0000,0.0000,0.0000,0.0000,0.0000,0.0000,0.0000,0.0000,0.0000,0.0000,0.0000,1.0000,0.0000,0.0000,0.0000,-0.2019,0.0067,0.0000,0.0000,0.0000,0.0000,0.0000,0.0000,0.0205,-0.0060,0.0042,0.0048,0.0000,0.0000,-0.5598,0.0025,0.0025,0.0025,0.0025,4
5,211,1136641191138,-10.4402,-0.2019,0.0067,0.0210,0.6310,0.2610,1.1606,23.4375,23.4375,23.4375,23.4375,12.2273,0.0000,0.0610,0.0000,-0.0000,-0.1172,-0.2709,-10.6384,0.0250,-0.0158,-0.0043,0.0000,0.0000,0.0000,0.0000,0.0000,0.0000,0.0000,0.0000,0.0000,0.0000,0.0000,0.0000,0.0000,0.0000,1.0000,0.0000,0.0000,0.0000,-0.2019,0.0067,0.0000,0.0000,0.0000,0.0000,0.0000,0.0000,0.0205,-0.0080,0.0048,0.0059,0.0000,0.0000,-0.5598,0.0025,0.0025,0.0025,0.0025,4
6,212,1136645770376,-10.4402,-0.2019,0.0067,0.0210,0.6310,0.2610,1.1606,23.4375,23.4375,23.4375,23.4375,12.2290,0.0000,0.0000,0.0000,-0.0610,-0.1219,-0.2661,-10.6312,0.0250,-0.0158,-0.0043,0.0000,0.0000,0.0000,0.0000,0.0000,0.0000,0.0000,0.0000,0.0000,0.0000,0.0000,0.0000,0.0000,0.0000,1.0000,0.0000,0.0000,0.0000,-0.2019,0.0067,0.0000,0.0000,0.0000,0.0000,0.0000,0.0000,0.0205,-0.0100,0.0052,0.0069,0.0000,0.0000,-0.5598,0.0025,0.0025,0.0025,0.0025,4
7,213,1136650740011,-10.4402,-0.2019,0.0067,0.0210,0.6310,0.2610,1.1606,23.4375,23.4375,23.4375,23.4375,12.2304,0.0000,-0.0610,-0.1221,0.1221,-0.1243,-0.2469,-10.5930,0.0250,-0.0158,-0.0043,0.0000,0.0000,0.0000,0.0000,0.0000,0.0000,0.0000,0.0000,0.0000,0.0000,0.0000,0.0000,0.0000,0.0000,1.0000,0.0000,0.0000,0.0000,-0.2019,0.0067,0.0000,0.0000,0.0000,0.0000,0.0000,0.0000,0.0205,-0.0120,0.0055,0.0076,0.0000,0.0000,-0.5598,0.0025,0.0025,0.0025,0.0025,4
8,214,1136656178082,-10.4402,-0.2019,0.0067,0.0210,0.6310,0.2610,1.1606,23.4375,23.4375,23.4375,23.4375,12.2326,0.0000,-0.0610,-0.2441,0.1221,-0.1315,-0.1822,-10.6264,0.0250,-0.0158,-0.0043,0.0000,0.0000,0.0000,0.0000,0.0000,0.0000,0.0000,0.0000,0.0000,0.0000,0.0000,0.0000,0.0000,0.0000,1.0000,0.0000,0.0000,0.0000,-0.2019,0.0067,0.0000,0.0000,0.0000,0.0000,0.0000,0.0000,0.0175,-0.0140,0.0057,0.0082,0.0000,0.0000,-0.5598,0.0025,0.0025,0.0025,0.0025,4
9,215,1136661236879,-10.4402,-0.2019,0.0067,0.0210,0.6310,0.2610,1.1606,23.4375,23.4375,23.4375,23.4375,12.2343,0.0000,-0.1831,-0.1831,-0.0000,-0.1363,-0.2517,-10.5978,0.0250,-0.0158,-0.0043,0.0000,0.0000,0.0000,0.0000,0.0000,0.0000,0.0000,0.0000,0.0000,0.0000,0.0000,0.0000,0.0000,0.0000,1.0000,0.0000,0.0000,0.0000,-0.2019,0.0067,0.0000,0.0000,0.0000,0.0000,0.0000,0.0000,0.0175,-0.0160,0.0059,0.0087,0.0000,0.0000,-0.5598,0.0025,0.0025,0.0025,0.0025,4
10,216,1136665804450,-10.4402,-0.2019,0.0067,0.0210,0.6310,0.2610,1.1606,23.4375,23.4375,23.4375,23.4375,12.2355,0.0000,0.0000,-0.1221,-0.0000,-0.1578,-0.2685,-10.5715,0.0250,-0.0159,-0.0043,0.0000,0.0000,0.0000,0.0000,0.0000,0.0000,0.0000,0.0000,0.0000,0.0000,0.0000,0.0000,0.0000,0.0000,1.0000,0.0000,0.0000,0.0000,-0.2019,0.0067,0.0000,0.0000,0.0000,0.0000,0.0000,0.0000,0.0175,-0.0180,0.0060,0.0092,0.0000,0.0000,-0.5598,0.0025,0.0025,0.0025,0.0025,4
11,217,1136670798001,-10.4402,-0.2019,0.0067,0.0210,0.6310,0.2610,1.1606,23.4375,23.4375,23.4375,23.4375,12.2362,0.0000,-0.1831,-0.2441,0.1831,-0.1602,-0.2182,-10.6169,0.0250,-0.0159,-0.0043,0.0000,0.0000,0.0000,0.0000,0.0000,0.0000,0.0000,0.0000,0.0000,0.0000,0.0000,0.0000,0.0000,0.0000,1.0000,0.0000,0.0000,0.0000,-0.2019,0.0067,0.0000,0.0000,0.0000,0.0000,0.0000,0.0000,0.0175,-0.0200,0.0061,0.0095,0.0000,0.0000,-0.5598,0.0025,0.0025,0.0025,0.0025,4
12,218,1136676152409,-10.4402,-0.2019,0.0067,0.0210,0.6310,0.2610,1.1606,23.4375,23.4375,23.4375,23.4375,12.2372,0.0000,-0.0610,-0.1831,-0.0610,-0.1172,-0.2445,-10.6360,0.0250,-0.0159,-0.0043,0.0000,0.0000,0.0000,0.0000,0.0000,0.0000,0.0000,0.0000,0.0000,0.0000,0.0000,0.0000,0.0000,0.0000,1.0000,0.0000,0.0000,0.0000,-0.2019,0.0067,0.0000,0.0000,0.0000,0.0000,0.0000,0.0000,0.0175,-0.0220,0.0062,0.0100,0.0000,0.0000,-0.5598,0.0025,0.0025,0.0025,0.0025,4
13,219,1136680797268,-10.4402,-0.2019,0.0067,0.0210,0.6310,0.2610,1.1606,23.4375,23.4375,23.4375,23.4375,12.2377,0.0000,-0.0610,-0.1221,-0.0000,-0.1148,-0.2325,-10.5787,0.0250,-0.0159,-0.0043,0.0000,0.0000,0.0000,0.0000,0.0000,0.0000,0.0000,0.0000,0.0000,0.0000,0.0000,0.0000,0.0000,0.0000,1.0000,0.0000,0.0000,0.0000,-0.2019,0.0067,0.0000,0.0000,0.0000,0.0000,0.0000,0.0000,0.0146,-0.0240,0.0062,0.0102,0.0000,0.0000,-0.5598,0.0025,0.0025,0.0025,0.0025,4
14,220,1136685802901,-10.4402,-0.2019,0.0067,0.0610,0.6210,0.3410,1.1606,23.4375,23.4375,23.4375,23.4375,12.2389,0.0000,-0.0610,-0.1831,0.1221,-0.1698,-0.2493,-10.5859,0.0250,-0.0159,-0.0043,0.0000,0.0000,0.0000,0.0000,0.0000,0.0000,0.0000,0.0000,0.0000,0.0000,0.0000,0.0000,0.0000,0.0000,1.0000,0.0000,0.0000,0.0000,-0.2019,0.0067,0.0000,0.0000,0.0000,0.0000,0.0000,0.0000,0.0146,-0.0260,0.0062,0.0104,0.0000,0.0000,-0.5598,0.0025,0.0025,0.0025,0.0025,4
15,221,1136690771078,-10.4402,-0.2019,0.0067,0.0610,0.6210,0.3410,1.1606,23.4375,23.4375,23.4375,23.4375,12.2399,0.0000,-0.1221,-0.0610,0.1221,-0.1387,-0.2206,-10.5715,0.0250,-0.0159,-0.0043,0.0000,0.0000,0.0000,0.0000,0.0000,0.0000,0.0000,0.0000,0.0000,0.0000,0.0000,0.0000,0.0000,0.0000,1.0000,0.0000,0.0000,0.0000,-0.2019,0.0067,0.0000,0.0000,0.0000,0.0000,0.0000,0.0000,0.0146,-0.0280,0.0062,0.0106,0.0000,0.0000,-0.5598,0.0025,0.0025,0.0025,0.0025,4
16,222,1136721449389,-10.4180,-0.2113,0.0206,0.0610,0.6210,0.3410,1.1606,23.4375,23.4375,23.4375,23.4375,12.2406,0.0000,-0.0610,-0.1221,0.1221,-0.1721,-0.2206,-10.5691,0.0250,-0.0159,-0.0043,0.0000,0.0000,0.0000,0.0000,0.0000,0.0000,0.0000,0.0000,0.0000,0.0000,0.0000,0.0000,0.0000,0.0000,1.0000,0.0000,0.0000,0.0000,-0.2113,0.0206,0.0000,0.0000,0.0000,0.0000,0.0000,0.0000,0.0146,-0.0300,0.0300,0.0107,0.0000,0.0000,-0.5615,0.0025,0.0025,0.0025,0.0025,4
17,223,1136761568577,-10.4180,-0.2113,0.0206,0.0610,0.6210,0.3410,1.1606,23.4375,23.4375,23.4375,23.4375,12.2423,0.0000,-0.0610,-0.1221,-0.0610,-0.1411,-0.2901,-10.6312,0.0250,-0.0159,-0.0043,0.0000,0.0000,0.0000,0.0000,0.0000,0.0000,0.0000,0.0000,0.0000,0.0000,0.0000,0.0000,0.0000,0.0000,1.0000,0.0000,0.0000,0.0000,-0.2113,0.0206,0.0000,0.0000,0.0000,0.0000,0.0000,0.0000,0.0117,-0.0320,0.0238,0.0111,0.0000,0.0000,-0.5615,0.0025,0.0025,0.0025,0.0025,4
18,224,1136816568088,-10.4180,-0.2113,0.0206,0.0610,0.6210,0.3410,1.1606,23.4375,23.4375,23.4375,23.4375,12.2433,0.0000,-0.0610,-0.1221,-0.0000,-0.1363,-0.2445,-10.6479,0.0250,-0.0159,-0.0043,0.0000,0.0000,0.0000,0.0000,0.0000,0.0000,0.0000,0.0000,0.0000,0.0000,0.0000,0.0000,0.0000,0.0000,1.0000,0.0000,0.0000,0.0000,-0.2113,0.0206,0.0000,0.0000,0.0000,0.0000,0.0000,0.0000,0.0029,-0.0340,0.0195,0.0114,0.0000,0.0000,-0.5615,0.0025,0.0025,0.0025,0.0025,4
19,225,1136821121868,-10.4180,-0.2113,0.0206,0.0610,0.6210,0.3410,1.1606,23.4375,23.4375,23.4375,23.4375,12.2440,0.0000,-0.0610,-0.1221,-0.0000,-0.1291,-0.2373,-10.6264,0.0250,-0.0159,-0.0043,0.0000,0.0000,0.0000,0.0000,0.0000,0.0000,0.0000,0.0000,0.0000,0.0000,0.0000,0.0000,0.0000,0.0000,1.0000,0.0000,0.0000,0.0000,-0.2113,0.0206,0.0000,0.0000,0.0000,0.0000,0.0000,0.0000,0.0029,-0.0360,0.0165,0.0115,0.0000,0.0000,-0.5615,0.0025,0.0025,0.0025,0.0025,4
20,226,1136825800976,-10.4180,-0.2113,0.0206,0.0610,0.6210,0.3410,1.1606,23.4375,23.4375,23.4375,23.4375,12.2449,0.0000,0.0000,0.0000,-0.1221,-0.1602,-0.2901,-10.6026,0.0250,-0.0159,-0.0043,0.0000,0.0000,0.0000,0.0000,0.0000,0.0000,0.0000,0.0000,0.0000,0.0000,0.0000,0.0000,0.0000,0.0000,1.0000,0.0000,0.0000,0.0000,-0.2113,0.0206,0.0000,0.0000,0.0000,0.0000,0.0000,0.0000,0.0029,-0.0380,0.0144,0.0117,0.0000,0.0000,-0.5615,0.0025,0.0025,0.0025,0.0025,4
21,227,1136831109595,-10.4180,-0.2113,0.0206,0.0610,0.6210,0.3410,1.1606,23.4375,23.4375,23.4375,23.4375,12.2449,0.0000,-0.1221,-0.0610,-0.0610,-0.1506,-0.2613,-10.6097,0.0250,-0.0159,-0.0044,0.0000,0.0000,0.0000,0.0000,0.0000,0.0000,0.0000,0.0000,0.0000,0.0000,0.0000,0.0000,0.0000,0.0000,1.0000,0.0000,0.0000,0.0000,-0.2113,0.0206,0.0000,0.0000,0.0000,0.0000,0.0000,0.0000,0.0029,-0.0400,0.0130,0.0118,0.0000,0.0000,-0.5615,0.0025,0.0025,0.0025,0.0025,4
22,228,1136835748662,-10.4180,-0.2113,0.0206,0.0610,0.6210,0.3410,1.1606,23.4375,23.4375,23.4375,23.4375,12.2449,0.0000,-0.0610,-0.1221,-0.0000,-0.1411,-0.2493,-10.6264,0.0250,-0.0159,-0.0044,0.0000,0.0000,0.0000,0.0000,0.0000,0.0000,0.0000,0.0000,0.0000,0.0000,0.0000,0.0000,0.0000,0.0000,1.0000,0.0000,0.0000,0.0000,-0.2113,0.0206,0.0000,0.0000,0.0000,0.0000,0.0000,0.0000,0.0029,-0.0420,0.0121,0.0118,0.0000,0.0000,-0.5615,0.0025,0.0025,0.0025,0.0025,4
23,229,1136840713214,-10.4180,-0.2113,0.0206,0.0610,0.6210,0.3410,1.1606,23.4375,23.4375,23.4375,23.4375,12.2447,0.0000,-0.1831,-0.3052,-0.0610,-0.1554,-0.2493,-10.5859,0.0250,-0.0159,-0.0044,0.0000,0.0000,0.0000,0.0000,0.0000,0.0000,0.0000,0.0000,0.0000,0.0000,0.0000,0.0000,0.0000,0.0000,1.0000,0.0000,0.0000,0.0000,-0.2113,0.0206,0.0000,0.0000,0.0000,0.0000,0.0000,0.0000,0.0029,-0.0440,0.0115,0.0119,0.0000,0.0000,-0.5615,0.0025,0.0025,0.0025,0.0025,4
24,230,1136846083497,-10.4180,-0.2113,0.0206,0.0610,0.6210,0.3410,1.1606,23.4375,23.4375,23.4375,23.4375,12.2454,0.0000,-0.1221,-0.0610,-0.0000,-0.1458,-0.2469,-10.5763,0.0250,-0.0159,-0.0044,0.0000,0.0000,0.0000,0.0000,0.0000,0.0000,0.0000,0.0000,0.0000,0.0000,0.0000,0.0000,0.0000,0.0000,1.0000,0.0000,0.0000,0.0000,-0.2113,0.0206,0.0000,0.0000,0.0000,0.0000,0.0000,0.0000,0.0029,-0.0460,0.0110,0.0119,0.0000,0.0000,-0.5615,0.0025,0.0025,0.0025,0.0025,4
25,231,1136850702440,-10.4180,-0.2113,0.0206,0.0610,0.6210,0.3410,1.1606,23.4375,23.4375,23.4375,23.4375,12.2454,0.0000,0.0000,0.0000,-0.0000,-0.1339,-0.2637,-10.6503,0.0250,-0.0159,-0.0044,0.0000,0.0000,0.0000,0.0000,0.0000,0.0000,0.0000,0.0000,0.0000,0.0000,0.0000,0.0000,0.0000,0.0000,1.0000,0.0000,0.0000,0.0000,-0.2113,0.0206,0.0000,0.0000,0.0000,0.0000,0.0000,0.0000,0.0029,-0.0480,0.0106,0.0120,0.0000,0.0000,-0.5615,0.0025,0.0025,0.0025,0.0025,4
26,232,1136855916355,-10.4180,-0.2113,0.0206,0.0610,0.6210,0.3410,1.1606,23.4375,23.4375,23.4375,23.4375,12.2452,0.0000,0.0000,0.0000,-0.0000,-0.1411,-0.2637,-10.6026,0.0250,-0.0159,-0.0044,0.0000,0.0000,0.0000,0.0000,0.0000,0.0000,0.0000,0.0000,0.0000,0.0000,0.0000,0.0000,0.0000,0.0000,1.0000,0.0000,0.0000,0.0000,-0.2113,0.0206,0.0000,0.0000,0.0000,0.0000,0.0000,0.0000,0.0029,-0.0500,0.0104,0.0120,0.0000,0.0000,-0.5615,0.0025,0.0025,0.0025,0.0025,4
27,233,1136860829826,-10.4180,-0.2113,0.0206,0.0610,0.6210,0.3410,1.1606,23.4375,23.4375,23.4375,23.4375,12.2457,0.0000,0.0610,-0.1221,-0.0610,-0.1315,-0.2565,-10.5978,0.0250,-0.0159,-0.0044,0.0000,0.0000,0.0000,0.0000,0.0000,0.0000,0.0000,0.0000,0.0000,0.0000,0.0000,0.0000,0.0000,0.0000,1.0000,0.0000,0.0000,0.0000,-0.2113,0.0206,0.0000,0.0000,0.0000,0.0000,0.0000,0.0000,0.0029,-0.0520,0.0103,0.0120,0.0000,0.0000,-0.5615,0.0025,0.0025,0.0025,0.0025,4
28,234,1136866181276,-10.4180,-0.2113,0.0206,0.0610,0.6210,0.3410,1.1606,23.4375,23.4375,23.4375,23.4375,12.2442,0.0000,-0.0610,-0.2441,-0.0000,-0.1650,-0.2589,-10.6957,0.0250,-0.0160,-0.0044,0.0000,0.0000,0.0000,0.0000,0.0000,0.0000,0.0000,0.0000,0.0000,0.0000,0.0000,0.0000,0.0000,0.0000,1.0000,0.0000,0.0000,0.0000,-0.2113,0.0206,0.0000,0.0000,0.0000,0.0000,0.0000,0.0000,0.0029,-0.0540,0.0103,0.0121,0.0000,0.0000,-0.5615,0.0025,0.0025,0.0025,0.0025,4
29,235,1136871004002,-10.4180,-0.2113,0.0206,0.0610,0.6210,0.3410,1.1606,23.4375,23.4375,23.4375,23.4375,12.2430,0.0000,-0.1831,-0.1221,-0.0000,-0.1339,-0.2973,-10.5620,0.0250,-0.0160,-0.0044,0.0000,0.0000,0.0000,0.0000,0.0000,0.0000,0.0000,0.0000,0.0000,0.0000,0.0000,0.0000,0.0000,0.0000,1.0000,0.0000,0.0000,0.0000,-0.2113,0.0206,0.0000,0.0000,0.0000,0.0000,0.0000,0.0000,0.0029,-0.0560,0.0102,0.0121,0.0000,0.0000,-0.5615,0.0025,0.0025,0.0025,0.0025,4
30,236,1136875853018,-10.4180,-0.2113,0.0206,0.0610,0.6210,0.3410,1.1606,23.4375,23.4375,23.4375,23.4375,12.2425,0.0000,-0.1221,-0.0610,-0.0610,-0.1291,-0.2253,-10.6193,0.0250,-0.0160,-0.0044,0.0000,0.0000,0.0000,0.0000,0.0000,0.0000,0.0000,0.0000,0.0000,0.0000,0.0000,0.0000,0.0000,0.0000,1.0000,0.0000,0.0000,0.0000,-0.2113,0.0206,0.0000,0.0000,0.0000,0.0000,0.0000,0.0000,0.0029,-0.0580,0.0101,0.0121,0.0000,0.0000,-0.5615,0.0025,0.0025,0.0025,0.0025,4
31,237,1136881213217,-10.4180,-0.2113,0.0206,0.0610,0.6210,0.3410,1.1606,23.4375,23.4375,23.4375,23.4375,12.2425,0.0000,-0.0610,-0.1831,-0.0000,-0.1052,-0.2541,-10.6073,0.0250,-0.0160,-0.0044,0.0000,0.0000,0.0000,0.0000,0.0000,0.0000,0.0000,0.0000,0.0000,0.0000,0.0000,0.0000,0.0000,0.0000,1.0000,0.0000,0.0000,0.0000,-0.2113,0.0206,0.0000,0.0000,0.0000,0.0000,0.0000,0.0000,0.0029,-0.0600,0.0101,0.0122,0.0000,0.0000,-0.5615,0.0025,0.0025,0.0025,0.0025,4
32,238,1136885824120,-10.4180,-0.2113,0.0206,-0.0290,0.5310,0.1410,1.1606,23.4375,23.4375,23.4375,23.4375,12.2418,0.0000,-0.1831,-0.1221,0.1221,-0.1745,-0.2781,-10.5882,0.0250,-0.0160,-0.0044,0.0000,0.0000,0.0000,0.0000,0.0000,0.0000,0.0000,0.0000,0.0000,0.0000,0.0000,0.0000,0.0000,0.0000,1.0000,0.0000,0.0000,0.0000,-0.2113,0.0206,0.0000,0.0000,0.0000,0.0000,0.0000,0.0000,0.0029,-0.0613,0.0100,0.0121,0.0000,0.0000,-0.5615,0.0025,0.0025,0.0025,0.0025,4
33,239,1136890757673,-10.4180,-0.2113,0.0206,-0.0290,0.5310,0.1410,1.1606,23.4375,23.4375,23.4375,23.4375,12.2420,0.0000,-0.2441,-0.1831,-0.0610,-0.1435,-0.2206,-10.5668,0.0250,-0.0160,-0.0044,0.0000,0.0000,0.0000,0.0000,0.0000,0.0000,0.0000,0.0000,0.0000,0.0000,0.0000,0.0000,0.0000,0.0000,1.0000,0.0000,0.0000,0.0000,-0.2113,0.0206,0.0000,0.0000,0.0000,0.0000,0.0000,0.0000,0.0029,-0.0622,0.0101,0.0122,0.0000,0.0000,-0.5615,0.0025,0.0025,0.0025,0.0025,4
34,240,1136895718392,-10.4180,-0.2113,0.0206,-0.0290,0.5310,0.1410,1.1606,23.4375,23.4375,23.4375,23.4375,12.2418,0.0000,-0.0610,-0.1831,-0.0610,-0.1578,-0.2469,-10.5524,0.0250,-0.0160,-0.0044,0.0000,0.0000,0.0000,0.0000,0.0000,0.0000,0.0000,0.0000,0.0000,0.0000,0.0000,0.0000,0.0000,0.0000,1.0000,0.0000,0.0000,0.0000,-0.2113,0.0206,0.0000,0.0000,0.0000,0.0000,0.0000,0.0000,0.0029,-0.0628,0.0101,0.0122,0.0000,0.0000,-0.5615,0.0025,0.0025,0.0025,0.0025,4
35,241,1136924370551,-10.4789,-0.1824,-0.0099,-0.0290,0.5310,0.1410,1.1606,23.4375,23.4375,23.4375,23.4375,12.2418,0.0000,-0.1831,0.0000,-0.0000,-0.1602,-0.2469,-10.5954,0.0250,-0.0160,-0.0044,0.0000,0.0000,0.0000,0.0000,0.0000,0.0000,0.0000,0.0000,0.0000,0.0000,0.0000,0.0000,0.0000,0.0000,1.0000,0.0000,0.0000,0.0000,-0.1824,-0.0099,0.0000,0.0000,0.0000,0.0000,0.0000,0.0000,0.0029,0.0680,-0.0680,0.0122,0.0000,0.0000,-0.5613,0.0025,0.0025,0.0025,0.0025,4
36,242,1136928834168,-10.4789,-0.1824,-0.0099,-0.0290,0.5310,0.1410,1.1606,23.4375,23.4375,23.4375,23.4375,12.2416,0.0000,-0.0610,-0.1831,0.1221,-0.1530,-0.2469,-10.6073,0.0250,-0.0160,-0.0044,0.0000,0.0000,0.0000,0.0000,0.0000,0.0000,0.0000,0.0000,0.0000,0.0000,0.0000,0.0000,0.0000,0.0000,1.0000,0.0000,0.0000,0.0000,-0.1824,-0.0099,0.0000,0.0000,0.0000,0.0000,0.0000,0.0000,0.0029,0.0289,-0.0459,0.0121,0.0000,0.0000,-0.5613,0.0025,0.0025,0.0025,0.0025,4
37,243,1136930743243,-10.4789,-0.1824,-0.0099,-0.0290,0.5310,0.1410,1.1606,23.4375,23.4375,23.4375,23.4375,12.2411,0.0000,-0.0610,-0.1221,-0.0000,-0.0956,-0.2757,-10.5715,0.0250,-0.0160,-0.0044,0.0000,0.0000,0.0000,0.0000,0.0000,0.0000,0.0000,0.0000,0.0000,0.0000,0.0000,0.0000,0.0000,0.0000,1.0000,0.0000,0.0000,0.0000,-0.1824,-0.0099,0.0000,0.0000,0.0000,0.0000,0.0000,0.0000,0.0029,0.0021,-0.0309,0.0122,0.0000,0.0000,-0.5613,0.0025,0.0025,0.0025,0.0025,4
38,244,1136966370773,-10.4789,-0.1824,-0.0099,-0.0290,0.5310,0.1410,1.1606,23.4375,23.4375,23.4375,23.4375,12.2416,0.0000,-0.1831,-0.1221,-0.0000,-0.1363,-0.2493,-10.6646,0.0250,-0.0160,-0.0044,0.0000,0.0000,0.0000,0.0000,0.0000,0.0000,0.0000,0.0000,0.0000,0.0000,0.0000,0.0000,0.0000,0.0000,1.0000,0.0000,0.0000,0.0000,-0.1824,-0.0099,0.0000,0.0000,0.0000,0.0000,0.0000,0.0000,0.0029,-0.0163,-0.0207,0.0122,0.0000,0.0000,-0.5613,0.0025,0.0025,0.0025,0.0025,4
39,245,1137022120998,-10.4789,-0.1824,-0.0099,-0.0290,0.5310,0.1410,1.1606,23.4375,23.4375,23.4375,23.4375,12.2416,0.0000,-0.1221,-0.0610,-0.0000,-0.2056,-0.2829,-10.5620,0.0250,-0.0160,-0.0045,0.0000,0.0000,0.0000,0.0000,0.0000,0.0000,0.0000,0.0000,0.0000,0.0000,0.0000,0.0000,0.0000,0.0000,1.0000,0.0000,0.0000,0.0000,-0.1824,-0.0099,0.0000,0.0000,0.0000,0.0000,0.0000,0.0000,0.0029,-0.0288,-0.0135,0.0127,0.0000,0.0000,-0.5613,0.0025,0.0025,0.0025,0.0025,4
40,246,1137025730990,-10.4789,-0.1824,-0.0099,-0.0290,0.5310,0.1410,1.1606,23.4375,23.4375,23.4375,23.4375,12.2416,0.0000,-0.0610,-0.1831,-0.0000,-0.1315,-0.2589,-10.6169,0.0250,-0.0160,-0.0045,0.0000,0.0000,0.0000,0.0000,0.0000,0.0000,0.0000,0.0000,0.0000,0.0000,0.0000,0.0000,0.0000,0.0000,1.0000,0.0000,0.0000,0.0000,-0.1824,-0.0099,0.0000,0.0000,0.0000,0.0000,0.0000,0.0000,0.0029,-0.0375,-0.0087,0.0126,0.0000,0.0000,-0.5613,0.0025,0.0025,0.0025,0.0025,4
41,247,1137030732749,-10.4789,-0.1824,-0.0099,-0.0290,0.5310,0.1410,1.1606,23.4375,23.4375,23.4375,23.4375,12.2420,0.0000,-0.1831,-0.1831,-0.0000,-0.1889,-0.2517,-10.5739,0.0250,-0.0160,-0.0045,0.0000,0.0000,0.0000,0.0000,0.0000,0.0000,0.0000,0.0000,0.0000,0.0000,0.0000,0.0000,0.0000,0.0000,1.0000,0.0000,0.0000,0.0000,-0.1824,-0.0099,0.0000,0.0000,0.0000,0.0000,0.0000,0.0000,0.0029,-0.0434,-0.0054,0.0126,0.0000,0.0000,-0.5613,0.0025,0.0025,0.0025,0.0025,4
42,248,1137036000661,-10.4789,-0.1824,-0.0099,-0.0290,0.5310,0.1410,1.1606,23.4375,23.4375,23.4375,23.4375,12.2423,0.0000,0.0000,0.0000,-0.0610,-0.1458,-0.2421,-10.5787,0.0250,-0.0161,-0.0045,0.0000,0.0000,0.0000,0.0000,0.0000,0.0000,0.0000,0.0000,0.0000,0.0000,0.0000,0.0000,0.0000,0.0000,1.0000,0.0000,0.0000,0.0000,-0.1824,-0.0099,0.0000,0.0000,0.0000,0.0000,0.0000,0.0000,0.0029,-0.0475,-0.0032,0.0126,0.0000,0.0000,-0.5613,0.0025,0.0025,0.0025,0.0025,4
43,249,1137040712517,-10.4789,-0.1824,-0.0099,-0.0290,0.5310,0.1410,1.1606,23.4375,23.4375,23.4375,23.4375,12.2425,0.0000,-0.0610,-0.1221,0.2441,-0.1458,-0.2541,-10.5835,0.0250,-0.0161,-0.0045,0.0000,0.0000,0.0000,0.0000,0.0000,0.0000,0.0000,0.0000,0.0000,0.0000,0.0000,0.0000,0.0000,0.0000,1.0000,0.0000,0.0000,0.0000,-0.1824,-0.0099,0.0000,0.0000,0.0000,0.0000,0.0000,0.0000,0.0029,-0.0503,-0.0016,0.0124,0.0000,0.0000,-0.5613,0.0025,0.0025,0.0025,0.0025,4
44,250,1137045654904,-10.4789,-0.1824,-0.0099,-0.0290,0.5310,0.1410,1.1606,23.4375,23.4375,23.4375,23.4375,12.2420,0.0000,-0.0610,-0.1221,-0.0000,-0.1578,-0.2277,-10.5787,0.0250,-0.0161,-0.0045,0.0000,0.0000,0.0000,0.0000,0.0000,0.0000,0.0000,0.0000,0.0000,0.0000,0.0000,0.0000,0.0000,0.0000,1.0000,0.0000,0.0000,0.0000,-0.1824,-0.0099,0.0000,0.0000,0.0000,0.0000,0.0000,0.0000,0.0029,-0.0522,-0.0006,0.0124,0.0000,0.0000,-0.5613,0.0025,0.0025,0.0025,0.0025,4
45,251,1137050726242,-10.4789,-0.1824,-0.0099,-0.0290,0.5310,0.1410,1.1606,23.4375,23.4375,23.4375,23.4375,12.2416,0.0000,-0.0610,-0.1221,0.1831,-0.1363,-0.2373,-10.5763,0.0250,-0.0161,-0.0045,0.0000,0.0000,0.0000,0.0000,0.0000,0.0000,0.0000,0.0000,0.0000,0.0000,0.0000,0.0000,0.0000,0.0000,1.0000,0.0000,0.0000,0.0000,-0.1824,-0.0099,0.0000,0.0000,0.0000,0.0000,0.0000,0.0000,0.0029,-0.0535,0.0002,0.0123,0.0000,0.0000,-0.5613,0.0025,0.0025,0.0025,0.0025,4
46,252,1137056244976,-10.4789,-0.1824,-0.0099,-0.0290,0.5310,0.1410,1.1606,23.4375,23.4375,23.4375,23.4375,12.2418,0.0000,0.0000,0.0000,-0.0000,-0.1411,-0.2877,-10.6455,0.0250,-0.0161,-0.0045,0.0000,0.0000,0.0000,0.0000,0.0000,0.0000,0.0000,0.0000,0.0000,0.0000,0.0000,0.0000,0.0000,0.0000,1.0000,0.0000,0.0000,0.0000,-0.1824,-0.0099,0.0000,0.0000,0.0000,0.0000,0.0000,0.0000,0.0029,-0.0544,0.0006,0.0123,0.0000,0.0000,-0.5613,0.0025,0.0025,0.0025,0.0025,4
47,253,1137060777715,-10.4789,-0.1824,-0.0099,-0.0290,0.5310,0.1410,1.1606,23.4375,23.4375,23.4375,23.4375,12.2413,0.0000,0.0000,0.0000,-0.0000,-0.1243,-0.2445,-10.6050,0.0250,-0.0161,-0.0045,0.0000,0.0000,0.0000,0.0000,0.0000,0.0000,0.0000,0.0000,0.0000,0.0000,0.0000,0.0000,0.0000,0.0000,1.0000,0.0000,0.0000,0.0000,-0.1824,-0.0099,0.0000,0.0000,0.0000,0.0000,0.0000,0.0000,0.0029,-0.0551,0.0009,0.0123,0.0000,0.0000,-0.5613,0.0025,0.0025,0.0025,0.0025,4
48,254,1137065898760,-10.4789,-0.1824,-0.0099,-0.0290,0.5310,0.1410,1.1606,23.4375,23.4375,23.4375,23.4375,12.2416,0.0000,-0.0610,-0.1221,-0.0000,-0.1578,-0.2277,-10.5906,0.0250,-0.0161,-0.0045,0.0000,0.0000,0.0000,0.0000,0.0000,0.0000,0.0000,0.0000,0.0000,0.0000,0.0000,0.0000,0.0000,0.0000,1.0000,0.0000,0.0000,0.0000,-0.1824,-0.0099,0.0000,0.0000,0.0000,0.0000,0.0000,0.0000,0.0029,-0.0555,0.0011,0.0123,0.0000,0.0000,-0.5613,0.0025,0.0025,0.0025,0.0025,4
49,255,1137071154048,-10.4789,-0.1824,-0.0099,-0.0290,0.5310,0.1410,1.1606,23.4375,23.4375,23.4375,23.4375,12.2420,0.0000,0.0000,-0.1221,-0.0000,-0.1172,-0.2421,-10.5453,0.0250,-0.0161,-0.0045,0.0000,0.0000,0.0000,0.0000,0.0000,0.0000,0.0000,0.0000,0.0000,0.0000,0.0000,0.0000,0.0000,0.0000,1.0000,0.0000,0.0000,0.0000,-0.1824,-0.0099,0.0000,0.0000,0.0000,0.0000,0.0000,0.0000,0.0029,-0.0558,0.0014,0.0123,0.0000,0.0000,-0.5613,0.0025,0.0025,0.0025,0.0025,4
50,256,1137075714786,-10.4789,-0.1824,-0.0099,-0.0290,0.5310,0.1410,1.1606,23.4375,23.4375,23.4375,23.4375,12.2425,0.0000,0.0000,0.0000,-0.0000,-0.1124,-0.2853,-10.5859,0.0250,-0.0161,-0.0045,0.0000,0.0000,0.0000,0.0000,0.0000,0.0000,0.0000,0.0000,0.0000,0.0000,0.0000,0.0000,0.0000,0.0000,1.0000,0.0000,0.0000,0.0000,-0.1824,-0.0099,0.0000,0.0000,0.0000,0.0000,0.0000,0.0000,0.0029,-0.0560,0.0014,0.0123,0.0000,0.0000,-0.5613,0.0025,0.0025,0.0025,0.0025,4
51,257,1137080784541,-10.4789,-0.1824,-0.0099,-0.0290,0.5310,0.1410,1.1606,23.4375,23.4375,23.4375,23.4375,12.2433,0.0000,0.0610,0.0000,-0.0610,-0.1387,-0.2565,-10.5930,0.0250,-0.0160,-0.0045,0.0000,0.0000,0.0000,0.0000,0.0000,0.0000,0.0000,0.0000,0.0000,0.0000,0.0000,0.0000,0.0000,0.0000,1.0000,0.0000,0.0000,0.0000,-0.1824,-0.0099,0.0000,0.0000,0.0000,0.0000,0.0000,0.0000,0.0029,-0.0562,0.0015,0.0123,0.0000,0.0000,-0.5613,0.0025,0.0025,0.0025,0.0025,4
52,258,1137085836797,-10.4789,-0.1824,-0.0099,0.0910,0.3510,0.1810,1.1606,23.4375,23.4375,23.4375,23.4375,12.2430,0.0000,0.0000,0.0000,-0.0610,-0.1267,-0.2230,-10.6026,0.0250,-0.0160,-0.0045,0.0000,0.0000,0.0000,0.0000,0.0000,0.0000,0.0000,0.0000,0.0000,0.0000,0.0000,0.0000,0.0000,0.0000,1.0000,0.0000,0.0000,0.0000,-0.1824,-0.0099,0.0000,0.0000,0.0000,0.0000,0.0000,0.0000,0.0029,-0.0562,0.0015,0.0124,0.0000,0.0000,-0.5613,0.0025,0.0025,0.0025,0.0025,4
53,259,1137133937683,-10.4246,-0.2023,0.0521,0.0910,0.3510,0.1810,1.1606,23.4375,23.4375,23.4375,23.4375,12.2430,0.0000,-0.0610,-0.1831,0.1221,-0.1052,-0.2901,-10.6193,0.0250,-0.0160,-0.0045,0.0000,0.0000,0.0000,0.0000,0.0000,0.0000,0.0000,0.0000,0.0000,0.0000,0.0000,0.0000,0.0000,0.0000,1.0000,0.0000,0.0000,0.0000,-0.2023,0.0521,0.0000,0.0000,0.0000,0.0000,0.0000,0.0000,0.0029,-0.1040,0.1040,0.0123,0.0000,0.0000,-0.5644,0.0025,0.0025,0.0025,0.0025,4
54,260,1137192315990,-10.4246,-0.2023,0.0521,0.0910,0.3510,0.1810,1.1606,23.4375,23.4375,23.4375,23.4375,12.2418,0.0000,-0.0610,-0.2441,-0.0000,-0.1195,-0.2661,-10.5691,0.0250,-0.0161,-0.0045,0.0000,0.0000,0.0000,0.0000,0.0000,0.0000,0.0000,0.0000,0.0000,0.0000,0.0000,0.0000,0.0000,0.0000,1.0000,0.0000,0.0000,0.0000,-0.2023,0.0521,0.0000,0.0000,0.0000,0.0000,0.0000,0.0000,0.0029,-0.0910,0.0775,0.0124,0.0000,0.0000,-0.5644,0.0025,0.0025,0.0025,0.0025,4
55,261,1137195790280,-10.4246,-0.2023,0.0521,0.0910,0.3510,0.1810,1.1606,23.4375,23.4375,23.4375,23.4375,12.2406,0.0000,0.0000,-0.0610,0.1831,-0.1769,-0.2709,-10.6193,0.0250,-0.0161,-0.0045,0.0000,0.0000,0.0000,0.0000,0.0000,0.0000,0.0000,0.0000,0.0000,0.0000,0.0000,0.0000,0.0000,0.0000,1.0000,0.0000,0.0000,0.0000,-0.2023,0.0521,0.0000,0.0000,0.0000,0.0000,0.0000,0.0000,0.0029,-0.0819,0.0590,0.0123,0.0000,0.0000,-0.5644,0.0025,0.0025,0.0025,0.0025,4
56,262,1137200826746,-10.4246,-0.2023,0.0521,0.0910,0.3510,0.1810,1.1606,23.4375,23.4375,23.4375,23.4375,12.2396,0.0000,-0.2441,-0.3052,-0.1221,-0.1554,-0.2445,-10.5715,0.0250,-0.0161,-0.0045,0.0000,0.0000,0.0000,0.0000,0.0000,0.0000,0.0000,0.0000,0.0000,0.0000,0.0000,0.0000,0.0000,0.0000,1.0000,0.0000,0.0000,0.0000,-0.2023,0.0521,0.0000,0.0000,0.0000,0.0000,0.0000,0.0000,0.0029,-0.0755,0.0464,0.0125,0.0000,0.0000,-0.5644,0.0025,0.0025,0.0025,0.0025,4
57,263,1137206111032,-10.4246,-0.2023,0.0521,0.0910,0.3510,0.1810,1.1606,23.4375,23.4375,23.4375,23.4375,12.2384,0.0000,-0.1831,-0.1831,-0.0610,-0.1387,-0.2541,-10.6050,0.0250,-0.0161,-0.0045,0.0000,0.0000,0.0000,0.0000,0.0000,0.0000,0.0000,0.0000,0.0000,0.0000,0.0000,0.0000,0.0000,0.0000,1.0000,0.0000,0.0000,0.0000,-0.2023,0.0521,0.0000,0.0000,0.0000,0.0000,0.0000,0.0000,0.0029,-0.0712,0.0377,0.0125,0.0000,0.0000,-0.5644,0.0025,0.0025,0.0025,0.0025,4
58,264,1137211247826,-10.4246,-0.2023,0.0521,0.0910,0.3510,0.1810,1.1606,23.4375,23.4375,23.4375,23.4375,12.2365,0.0000,-0.0610,-0.3052,-0.0000,-0.1411,-0.2517,-10.6264,0.0250,-0.0162,-0.0045,0.0000,0.0000,0.0000,0.0000,0.0000,0.0000,0.0000,0.0000,0.0000,0.0000,0.0000,0.0000,0.0000,0.0000,1.0000,0.0000,0.0000,0.0000,-0.2023,0.0521,0.0000,0.0000,0.0000,0.0000,0.0000,0.0000,0.0029,-0.0683,0.0318,0.0125,0.0000,0.0000,-0.5644,0.0025,0.0025,0.0025,0.0025,4
59,265,1137215795773,-10.4246,-0.2023,0.0521,0.0910,0.3510,0.1810,1.1606,23.4375,23.4375,23.4375,23.4375,12.2353,0.0000,-0.0610,-0.1221,-0.0000,-0.1482,-0.3117,-10.5453,0.0250,-0.0162,-0.0045,0.0000,0.0000,0.0000,0.0000,0.0000,0.0000,0.0000,0.0000,0.0000,0.0000,0.0000,0.0000,0.0000,0.0000,1.0000,0.0000,0.0000,0.0000,-0.2023,0.0521,0.0000,0.0000,0.0000,0.0000,0.0000,0.0000,0.0029,-0.0662,0.0277,0.0125,0.0000,0.0000,-0.5644,0.0025,0.0025,0.0025,0.0025,4
60,266,1137220700661,-10.4246,-0.2023,0.0521,0.0910,0.3510,0.1810,1.1606,23.4375,23.4375,23.4375,23.4375,12.2341,0.0000,-0.1831,-0.1831,0.1221,-0.1124,-0.2349,-10.6002,0.0250,-0.0162,-0.0045,0.0000,0.0000,0.0000,0.0000,0.0000,0.0000,0.0000,0.0000,0.0000,0.0000,0.0000,0.0000,0.0000,0.0000,1.0000,0.0000,0.0000,0.0000,-0.2023,0.0521,0.0000,0.0000,0.0000,0.0000,0.0000,0.0000,0.0029,-0.0649,0.0248,0.0125,0.0000,0.0000,-0.5644,0.0025,0.0025,0.0025,0.0025,4
61,267,1137226116233,-10.4246,-0.2023,0.0521,0.0910,0.3510,0.1810,1.1606,23.4375,23.4375,23.4375,23.4375,12.2321,0.0000,-0.0610,-0.2441,-0.0000,-0.1482,-0.2589,-10.5572,0.0250,-0.0162,-0.0045,0.0000,0.0000,0.0000,0.0000,0.0000,0.0000,0.0000,0.0000,0.0000,0.0000,0.0000,0.0000,0.0000,0.0000,1.0000,0.0000,0.0000,0.0000,-0.2023,0.0521,0.0000,0.0000,0.0000,0.0000,0.0000,0.0000,0.0029,-0.0639,0.0229,0.0125,0.0000,0.0000,-0.5644,0.0025,0.0025,0.0025,0.0025,4
62,268,1137230761009,-10.4246,-0.2023,0.0521,0.0910,0.3510,0.1810,1.1606,23.4375,23.4375,23.4375,23.4375,12.2307,0.0000,-0.0610,-0.1221,-0.0000,-0.1195,-0.2301,-10.6384,0.0250,-0.0162,-0.0045,0.0000,0.0000,0.0000,0.0000,0.0000,0.0000,0.0000,0.0000,0.0000,0.0000,0.0000,0.0000,0.0000,0.0000,1.0000,0.0000,0.0000,0.0000,-0.2023,0.0521,0.0000,0.0000,0.0000,0.0000,0.0000,0.0000,0.0029,-0.0633,0.0216,0.0125,0.0000,0.0000,-0.5644,0.0025,0.0025,0.0025,0.0025,4
63,269,1137235610316,-10.4246,-0.2023,0.0521,0.0910,0.3510,0.1810,1.1606,23.4375,23.4375,23.4375,23.4375,12.2297,0.0000,-0.2441,-0.1221,0.1221,-0.1291,-0.2589,-10.6193,0.0250,-0.0162,-0.0045,0.0000,0.0000,0.0000,0.0000,0.0000,0.0000,0.0000,0.0000,0.0000,0.0000,0.0000,0.0000,0.0000,0.0000,1.0000,0.0000,0.0000,0.0000,-0.2023,0.0521,0.0000,0.0000,0.0000,0.0000,0.0000,0.0000,0.0029,-0.0628,0.0206,0.0124,0.0000,0.0000,-0.5644,0.0025,0.0025,0.0025,0.0025,4
64,270,1137240784108,-10.4246,-0.2023,0.0521,0.0910,0.3510,0.1810,1.1606,23.4375,23.4375,23.4375,23.4375,12.2285,0.0000,-0.0610,-0.2441,-0.0000,-0.1602,-0.2901,-10.6336,0.0250,-0.0162,-0.0045,0.0000,0.0000,0.0000,0.0000,0.0000,0.0000,0.0000,0.0000,0.0000,0.0000,0.0000,0.0000,0.0000,0.0000,1.0000,0.0000,0.0000,0.0000,-0.2023,0.0521,0.0000,0.0000,0.0000,0.0000,0.0000,0.0000,0.0029,-0.0625,0.0201,0.0124,0.0000,0.0000,-0.5644,0.0025,0.0025,0.0025,0.0025,4
65,271,1137245986815,-10.4246,-0.2023,0.0521,0.0910,0.3510,0.1810,1.1606,23.4375,23.4375,23.4375,23.4375,12.2278,0.0000,-0.0610,-0.1831,-0.0000,-0.1482,-0.2589,-10.6431,0.0250,-0.0162,-0.0045,0.0000,0.0000,0.0000,0.0000,0.0000,0.0000,0.0000,0.0000,0.0000,0.0000,0.0000,0.0000,0.0000,0.0000,1.0000,0.0000,0.0000,0.0000,-0.2023,0.0521,0.0000,0.0000,0.0000,0.0000,0.0000,0.0000,0.0029,-0.0623,0.0197,0.0124,0.0000,0.0000,-0.5644,0.0025,0.0025,0.0025,0.0025,4
66,272,1137250833873,-10.4246,-0.2023,0.0521,0.0910,0.3510,0.1810,1.1606,23.4375,23.4375,23.4375,23.4375,12.2266,0.0000,0.0610,0.0000,0.1221,-0.1004,-0.2373,-10.6121,0.0250,-0.0162,-0.0045,0.0000,0.0000,0.0000,0.0000,0.0000,0.0000,0.0000,0.0000,0.0000,0.0000,0.0000,0.0000,0.0000,0.0000,1.0000,0.0000,0.0000,0.0000,-0.2023,0.0521,0.0000,0.0000,0.0000,0.0000,0.0000,0.0000,0.0029,-0.0623,0.0193,0.0124,0.0000,0.0000,-0.5644,0.0025,0.0025,0.0025,0.0025,4
67,273,1137255703263,-10.4246,-0.2023,0.0521,0.0910,0.3510,0.1810,1.1606,23.4375,23.4375,23.4375,23.4375,12.2249,0.0000,0.0000,-0.2441,-0.1221,-0.1793,-0.2325,-10.5835,0.0250,-0.0162,-0.0046,0.0000,0.0000,0.0000,0.0000,0.0000,0.0000,0.0000,0.0000,0.0000,0.0000,0.0000,0.0000,0.0000,0.0000,1.0000,0.0000,0.0000,0.0000,-0.2023,0.0521,0.0000,0.0000,0.0000,0.0000,0.0000,0.0000,0.0029,-0.0622,0.0192,0.0125,0.0000,0.0000,-0.5644,0.0025,0.0025,0.0025,0.0025,4
68,274,1137260796267,-10.4246,-0.2023,0.0521,0.0910,0.3510,0.1810,1.1606,23.4375,23.4375,23.4375,23.4375,12.2237,0.0000,0.0610,-0.0610,0.1221,-0.1698,-0.2901,-10.5405,0.0250,-0.0162,-0.0045,0.0000,0.0000,0.0000,0.0000,0.0000,0.0000,0.0000,0.0000,0.0000,0.0000,0.0000,0.0000,0.0000,0.0000,1.0000,0.0000,0.0000,0.0000,-0.2023,0.0521,0.0000,0.0000,0.0000,0.0000,0.0000,0.0000,0.0029,-0.0622,0.0190,0.0125,0.0000,0.0000,-0.5644,0.0025,0.0025,0.0025,0.0025,4
69,275,1137266096970,-10.4246,-0.2023,0.0521,0.0910,0.3510,0.1810,1.1606,23.4375,23.4375,23.4375,23.4375,12.2229,0.0000,0.0610,-0.1831,-0.0000,-0.1315,-0.2493,-10.6097,0.0250,-0.0162,-0.0046,0.0000,0.0000,0.0000,0.0000,0.0000,0.0000,0.0000,0.0000,0.0000,0.0000,0.0000,0.0000,0.0000,0.0000,1.0000,0.0000,0.0000,0.0000,-0.2023,0.0521,0.0000,0.0000,0.0000,0.0000,0.0000,0.0000,0.0029,-0.0622,0.0190,0.0125,0.0000,0.0000,-0.5644,0.0025,0.0025,0.0025,0.0025,4
70,276,1137270699872,-10.4246,-0.2023,0.0521,0.0910,0.3510,0.1810,1.1606,23.4375,23.4375,23.4375,23.4375,12.2217,0.0000,-0.1831,-0.1831,-0.0000,-0.1674,-0.2158,-10.6336,0.0250,-0.0162,-0.0046,0.0000,0.0000,0.0000,0.0000,0.0000,0.0000,0.0000,0.0000,0.0000,0.0000,0.0000,0.0000,0.0000,0.0000,1.0000,0.0000,0.0000,0.0000,-0.2023,0.0521,0.0000,0.0000,0.0000,0.0000,0.0000,0.0000,0.0029,-0.0621,0.0189,0.0125,0.0000,0.0000,-0.5644,0.0025,0.0025,0.0025,0.0025,4
71,277,1137275769003,-10.4246,-0.2023,0.0521,0.0910,0.3510,0.1810,1.1606,23.4375,23.4375,23.4375,23.4375,12.2203,0.0000,-0.0610,-0.1831,-0.0000,-0.1721,-0.2781,-10.6073,0.0250,-0.0162,-0.0046,0.0000,0.0000,0.0000,0.0000,0.0000,0.0000,0.0000,0.0000,0.0000,0.0000,0.0000,0.0000,0.0000,0.0000,1.0000,0.0000,0.0000,0.0000,-0.2023,0.0521,0.0000,0.0000,0.0000,0.0000,0.0000,0.0000,0.0029,-0.0620,0.0189,0.0125,0.0000,0.0000,-0.5644,0.0025,0.0025,0.0025,0.0025,4
72,278,1137281148076,-10.4246,-0.2023,0.0521,0.0910,0.3510,0.1810,1.1606,23.4375,23.4375,23.4375,23.4375,12.2193,0.0000,0.0000,-0.0610,-0.0000,-0.1650,-0.2541,-10.6145,0.0250,-0.0163,-0.0046,0.0000,0.0000,0.0000,0.0000,0.0000,0.0000,0.0000,0.0000,0.0000,0.0000,0.0000,0.0000,0.0000,0.0000,1.0000,0.0000,0.0000,0.0000,-0.2023,0.0521,0.0000,0.0000,0.0000,0.0000,0.0000,0.0000,0.0029,-0.0621,0.0188,0.0125,0.0000,0.0000,-0.5644,0.0025,0.0025,0.0025,0.0025,4
73,279,1137285717522,-10.4246,-0.2023,0.0521,0.0810,0.3910,0.2010,1.1606,23.4375,23.4375,23.4375,23.4375,12.2181,0.0000,-0.1831,-0.1831,-0.0000,-0.1435,-0.2158,-10.6431,0.0250,-0.0163,-0.0046,0.0000,0.0000,0.0000,0.0000,0.0000,0.0000,0.0000,0.0000,0.0000,0.0000,0.0000,0.0000,0.0000,0.0000,1.0000,0.0000,0.0000,0.0000,-0.2023,0.0521,0.0000,0.0000,0.0000,0.0000,0.0000,0.0000,0.0029,-0.0620,0.0188,0.0125,0.0000,0.0000,-0.5644,0.0025,0.0025,0.0025,0.0025,4
74,280,1137290789944,-10.4246,-0.2023,0.0521,0.0810,0.3910,0.2010,1.1606,23.4375,23.4375,23.4375,23.4375,12.2191,0.0000,0.0000,-0.0610,0.1221,-0.1626,-0.2613,-10.6527,0.0250,-0.0163,-0.0046,0.0000,0.0000,0.0000,0.0000,0.0000,0.0000,0.0000,0.0000,0.0000,0.0000,0.0000,0.0000,0.0000,0.0000,1.0000,0.0000,0.0000,0.0000,-0.2023,0.0521,0.0000,0.0000,0.0000,0.0000,0.0000,0.0000,0.0029,-0.0620,0.0188,0.0125,0.0000,0.0000,-0.5644,0.0025,0.0025,0.0025,0.0025,4
75,281,1137324723931,-10.4239,-0.2049,0.0421,0.0810,0.3910,0.2010,1.1606,23.4375,23.4375,23.4375,23.4375,12.2193,0.0000,-0.1831,-0.2441,-0.0000,-0.1076,-0.3093,-10.5668,0.0250,-0.0163,-0.0046,0.0000,0.0000,0.0000,0.0000,0.0000,0.0000,0.0000,0.0000,0.0000,0.0000,0.0000,0.0000,0.0000,0.0000,1.0000,0.0000,0.0000,0.0000,-0.2049,0.0421,0.0000,0.0000,0.0000,0.0000,0.0000,0.0000,0.0029,-0.0776,-0.0405,0.0125,0.0000,0.0000,-0.5639,0.0025,0.0025,0.0025,0.0025,4
76,282,1137382080954,-10.4239,-0.2049,0.0421,0.0810,0.3910,0.2010,1.1606,23.4375,23.4375,23.4375,23.4375,12.2191,0.0000,-0.0610,-0.1831,-0.1221,-0.1363,-0.2325,-10.6121,0.0251,-0.0163,-0.0046,0.0000,0.0000,0.0000,0.0000,0.0000,0.0000,0.0000,0.0000,0.0000,0.0000,0.0000,0.0000,0.0000,0.0000,1.0000,0.0000,0.0000,0.0000,-0.2049,0.0421,0.0000,0.0000,0.0000,0.0000,0.0000,0.0000,0.0029,-0.0730,-0.0227,0.0127,0.0000,0.0000,-0.5639,0.0025,0.0025,0.0025,0.0025,4
77,283,1137385628449,-10.4239,-0.2049,0.0421,0.0810,0.3910,0.2010,1.1606,23.4375,23.4375,23.4375,23.4375,12.2196,0.0000,-0.0610,-0.1831,-0.0000,-0.1339,-0.2829,-10.5357,0.0251,-0.0163,-0.0046,0.0000,0.0000,0.0000,0.0000,0.0000,0.0000,0.0000,0.0000,0.0000,0.0000,0.0000,0.0000,0.0000,0.0000,1.0000,0.0000,0.0000,0.0000,-0.2049,0.0421,0.0000,0.0000,0.0000,0.0000,0.0000,0.0000,0.0029,-0.0698,-0.0105,0.0127,0.0000,0.0000,-0.5639,0.0025,0.0025,0.0025,0.0025,4
78,284,1137390590751,-10.4239,-0.2049,0.0421,0.0810,0.3910,0.2010,1.1606,23.4375,23.4375,23.4375,23.4375,12.2196,0.0000,0.0610,0.0000,-0.0000,-0.1602,-0.2517,-10.6121,0.0251,-0.0163,-0.0046,0.0000,0.0000,0.0000,0.0000,0.0000,0.0000,0.0000,0.0000,0.0000,0.0000,0.0000,0.0000,0.0000,0.0000,1.0000,0.0000,0.0000,0.0000,-0.2049,0.0421,0.0000,0.0000,0.0000,0.0000,0.0000,0.0000,0.0029,-0.0676,-0.0022,0.0127,0.0000,0.0000,-0.5639,0.0025,0.0025,0.0025,0.0025,4
79,285,1137395619175,-10.4239,-0.2049,0.0421,0.0810,0.3910,0.2010,1.1606,23.4375,23.4375,23.4375,23.4375,12.2200,0.0000,0.0000,0.0000,-0.0000,-0.1195,-0.2589,-10.5906,0.0251,-0.0163,-0.0046,0.0000,0.0000,0.0000,0.0000,0.0000,0.0000,0.0000,0.0000,0.0000,0.0000,0.0000,0.0000,0.0000,0.0000,1.0000,0.0000,0.0000,0.0000,-0.2049,0.0421,0.0000,0.0000,0.0000,0.0000,0.0000,0.0000,0.0029,-0.0661,0.0035,0.0127,0.0000,0.0000,-0.5639,0.0025,0.0025,0.0025,0.0025,4
80,286,1137400905461,-10.4239,-0.2049,0.0421,0.0810,0.3910,0.2010,1.1606,23.4375,23.4375,23.4375,23.4375,12.2203,0.0000,0.0000,0.0000,-0.0000,-0.1435,-0.2325,-10.5930,0.0251,-0.0163,-0.0046,0.0000,0.0000,0.0000,0.0000,0.0000,0.0000,0.0000,0.0000,0.0000,0.0000,0.0000,0.0000,0.0000,0.0000,1.0000,0.0000,0.0000,0.0000,-0.2049,0.0421,0.0000,0.0000,0.0000,0.0000,0.0000,0.0000,0.0029,-0.0650,0.0074,0.0126,0.0000,0.0000,-0.5639,0.0025,0.0025,0.0025,0.0025,4
81,287,1137405836557,-10.4239,-0.2049,0.0421,0.0810,0.3910,0.2010,1.1606,23.4375,23.4375,23.4375,23.4375,12.2205,0.0000,-0.1221,-0.0610,0.1221,-0.1363,-0.2277,-10.6240,0.0251,-0.0163,-0.0046,0.0000,0.0000,0.0000,0.0000,0.0000,0.0000,0.0000,0.0000,0.0000,0.0000,0.0000,0.0000,0.0000,0.0000,1.0000,0.0000,0.0000,0.0000,-0.2049,0.0421,0.0000,0.0000,0.0000,0.0000,0.0000,0.0000,0.0029,-0.0642,0.0100,0.0126,0.0000,0.0000,-0.5639,0.0025,0.0025,0.0025,0.0025,4
82,288,1137410843773,-10.4239,-0.2049,0.0421,0.0810,0.3910,0.2010,1.1606,23.4375,23.4375,23.4375,23.4375,12.2205,0.0000,0.0000,0.0000,0.2441,-0.1650,-0.2685,-10.5501,0.0251,-0.0163,-0.0046,0.0000,0.0000,0.0000,0.0000,0.0000,0.0000,0.0000,0.0000,0.0000,0.0000,0.0000,0.0000,0.0000,0.0000,1.0000,0.0000,0.0000,0.0000,-0.2049,0.0421,0.0000,0.0000,0.0000,0.0000,0.0000,0.0000,0.0029,-0.0637,0.0119,0.0124,0.0000,0.0000,-0.5639,0.0025,0.0025,0.0025,0.0025,4
83,289,1137416087062,-10.4239,-0.2049,0.0421,0.0810,0.3910,0.2010,1.1606,23.4375,23.4375,23.4375,23.4375,12.2203,0.0000,-0.0610,-0.1831,-0.0000,-0.1506,-0.2541,-10.5787,0.0251,-0.0163,-0.0046,0.0000,0.0000,0.0000,0.0000,0.0000,0.0000,0.0000,0.0000,0.0000,0.0000,0.0000,0.0000,0.0000,0.0000,1.0000,0.0000,0.0000,0.0000,-0.2049,0.0421,0.0000,0.0000,0.0000,0.0000,0.0000,0.0000,0.0029,-0.0634,0.0132,0.0124,0.0000,0.0000,-0.5639,0.0025,0.0025,0.0025,0.0025,4
84,290,1137420619968,-10.4239,-0.2049,0.0421,0.0810,0.3910,0.2010,1.1606,23.4375,23.4375,23.4375,23.4375,12.2200,0.0000,0.0000,-0.1831,-0.0000,-0.1506,-0.2325,-10.5978,0.0251,-0.0163,-0.0046,0.0000,0.0000,0.0000,0.0000,0.0000,0.0000,0.0000,0.0000,0.0000,0.0000,0.0000,0.0000,0.0000,0.0000,1.0000,0.0000,0.0000,0.0000,-0.2049,0.0421,0.0000,0.0000,0.0000,0.0000,0.0000,0.0000,0.0029,-0.0632,0.0141,0.0124,0.0000,0.0000,-0.5639,0.0025,0.0025,0.0025,0.0025,4
85,291,1137425641851,-10.4239,-0.2049,0.0421,0.0810,0.3910,0.2010,1.1606,23.4375,23.4375,23.4375,23.4375,12.2203,0.0000,0.0000,0.0000,0.1221,-0.1506,-0.2469,-10.5978,0.0251,-0.0163,-0.0046,0.0000,0.0000,0.0000,0.0000,0.0000,0.0000,0.0000,0.0000,0.0000,0.0000,0.0000,0.0000,0.0000,0.0000,1.0000,0.0000,0.0000,0.0000,-0.2049,0.0421,0.0000,0.0000,0.0000,0.0000,0.0000,0.0000,0.0029,-0.0631,0.0147,0.0124,0.0000,0.0000,-0.5639,0.0025,0.0025,0.0025,0.0025,4
86,292,1137430917471,-10.4239,-0.2049,0.0421,0.0810,0.3910,0.2010,1.1606,23.4375,23.4375,23.4375,23.4375,12.2200,0.0000,0.0610,0.0000,-0.0000,-0.1004,-0.2397,-10.5882,0.0251,-0.0163,-0.0046,0.0000,0.0000,0.0000,0.0000,0.0000,0.0000,0.0000,0.0000,0.0000,0.0000,0.0000,0.0000,0.0000,0.0000,1.0000,0.0000,0.0000,0.0000,-0.2049,0.0421,0.0000,0.0000,0.0000,0.0000,0.0000,0.0000,0.0029,-0.0630,0.0151,0.0124,0.0000,0.0000,-0.5639,0.0025,0.0025,0.0025,0.0025,4
87,293,1137435568913,-10.4239,-0.2049,0.0421,0.0810,0.3910,0.2010,1.1606,23.4375,23.4375,23.4375,23.4375,12.2210,0.0000,-0.1831,-0.1221,-0.0000,-0.1458,-0.2182,-10.5572,0.0251,-0.0163,-0.0046,0.0000,0.0000,0.0000,0.0000,0.0000,0.0000,0.0000,0.0000,0.0000,0.0000,0.0000,0.0000,0.0000,0.0000,1.0000,0.0000,0.0000,0.0000,-0.2049,0.0421,0.0000,0.0000,0.0000,0.0000,0.0000,0.0000,0.0029,-0.0628,0.0153,0.0124,0.0000,0.0000,-0.5639,0.0025,0.0025,0.0025,0.0025,4
88,294,1137440641918,-10.4239,-0.2049,0.0421,0.0810,0.3910,0.2010,1.1606,23.4375,23.4375,23.4375,23.4375,12.2210,0.0000,-0.1831,-0.1831,-0.0000,-0.1674,-0.2805,-10.6121,0.0251,-0.0163,-0.0046,0.0000,0.0000,0.0000,0.0000,0.0000,0.0000,0.0000,0.0000,0.0000,0.0000,0.0000,0.0000,0.0000,0.0000,1.0000,0.0000,0.0000,0.0000,-0.2049,0.0421,0.0000,0.0000,0.0000,0.0000,0.0000,0.0000,0.0029,-0.0627,0.0156,0.0124,0.0000,0.0000,-0.5639,0.0025,0.0025,0.0025,0.0025,4
89,295,1137445577347,-10.4239,-0.2049,0.0421,0.0810,0.3910,0.2010,1.1606,23.4375,23.4375,23.4375,23.4375,12.2210,0.0000,-0.0610,-0.1831,0.1221,-0.1626,-0.2613,-10.5787,0.0251,-0.0163,-0.0046,0.0000,0.0000,0.0000,0.0000,0.0000,0.0000,0.0000,0.0000,0.0000,0.0000,0.0000,0.0000,0.0000,0.0000,1.0000,0.0000,0.0000,0.0000,-0.2049,0.0421,0.0000,0.0000,0.0000,0.0000,0.0000,0.0000,0.0029,-0.0627,0.0157,0.0124,0.0000,0.0000,-0.5639,0.0025,0.0025,0.0025,0.0025,4
90,296,1137450934047,-10.4239,-0.2049,0.0421,0.0810,0.3910,0.2010,1.1606,23.4375,23.4375,23.4375,23.4375,12.2205,0.0000,0.0000,0.0000,-0.0000,-0.0885,-0.2565,-10.6384,0.0251,-0.0163,-0.0046,0.0000,0.0000,0.0000,0.0000,0.0000,0.0000,0.0000,0.0000,0.0000,0.0000,0.0000,0.0000,0.0000,0.0000,1.0000,0.0000,0.0000,0.0000,-0.2049,0.0421,0.0000,0.0000,0.0000,0.0000,0.0000,0.0000,0.0029,-0.0627,0.0158,0.0124,0.0000,0.0000,-0.5639,0.0025,0.0025,0.0025,0.0025,4
91,297,1137455801937,-10.4239,-0.2049,0.0421,0.0810,0.3910,0.2010,1.1606,23.4375,23.4375,23.4375,23.4375,12.2198,0.0000,-0.1831,-0.1221,0.1221,-0.1626,-0.2805,-10.6622,0.0251,-0.0163,-0.0046,0.0000,0.0000,0.0000,0.0000,0.0000,0.0000,0.0000,0.0000,0.0000,0.0000,0.0000,0.0000,0.0000,0.0000,1.0000,0.0000,0.0000,0.0000,-0.2049,0.0421,0.0000,0.0000,0.0000,0.0000,0.0000,0.0000,0.0029,-0.0627,0.0158,0.0124,0.0000,0.0000,-0.5639,0.0025,0.0025,0.0025,0.0025,4
92,298,1137460726741,-10.4239,-0.2049,0.0421,0.0810,0.3910,0.2010,1.1606,23.4375,23.4375,23.4375,23.4375,12.2198,0.0000,-0.1831,-0.1221,-0.0000,-0.1267,-0.2709,-10.5644,0.0251,-0.0163,-0.0046,0.0000,0.0000,0.0000,0.0000,0.0000,0.0000,0.0000,0.0000,0.0000,0.0000,0.0000,0.0000,0.0000,0.0000,1.0000,0.0000,0.0000,0.0000,-0.2049,0.0421,0.0000,0.0000,0.0000,0.0000,0.0000,0.0000,0.0029,-0.0626,0.0159,0.0124,0.0000,0.0000,-0.5639,0.0025,0.0025,0.0025,0.0025,4
93,299,1137466093357,-10.4239,-0.2049,0.0421,0.0810,0.3910,0.2010,1.1606,23.4375,23.4375,23.4375,23.4375,12.2200,0.0000,0.0610,0.0000,-0.1831,-0.1243,-0.2637,-10.6312,0.0251,-0.0163,-0.0046,0.0000,0.0000,0.0000,0.0000,0.0000,0.0000,0.0000,0.0000,0.0000,0.0000,0.0000,0.0000,0.0000,0.0000,1.0000,0.0000,0.0000,0.0000,-0.2049,0.0421,0.0000,0.0000,0.0000,0.0000,0.0000,0.0000,0.0029,-0.0627,0.0158,0.0125,0.0000,0.0000,-0.5639,0.0025,0.0025,0.0025,0.0025,4
94,300,1137470638012,-10.4239,-0.2049,0.0421,0.0810,0.3910,0.2010,1.1606,23.4375,23.4375,23.4375,23.4375,12.2196,0.0000,-0.0610,-0.1221,-0.0610,-0.1387,-0.2613,-10.6193,0.0251,-0.0163,-0.0046,0.0000,0.0000,0.0000,0.0000,0.0000,0.0000,0.0000,0.0000,0.0000,0.0000,0.0000,0.0000,0.0000,0.0000,1.0000,0.0000,0.0000,0.0000,-0.2049,0.0421,0.0000,0.0000,0.0000,0.0000,0.0000,0.0000,0.0029,-0.0627,0.0159,0.0126,0.0000,0.0000,-0.5639,0.0025,0.0025,0.0025,0.0025,4
95,301,1137475576940,-10.4239,-0.2049,0.0421,0.0810,0.3910,0.2010,1.1606,23.4375,23.4375,23.4375,23.4375,12.2198,0.0000,-0.1831,-0.2441,-0.0000,-0.1578,-0.2901,-10.6097,0.0251,-0.0163,-0.0046,0.0000,0.0000,0.0000,0.0000,0.0000,0.0000,0.0000,0.0000,0.0000,0.0000,0.0000,0.0000,0.0000,0.0000,1.0000,0.0000,0.0000,0.0000,-0.2049,0.0421,0.0000,0.0000,0.0000,0.0000,0.0000,0.0000,0.0029,-0.0627,0.0160,0.0127,0.0000,0.0000,-0.5639,0.0025,0.0025,0.0025,0.0025,4
96,302,1137480596823,-10.4239,-0.2049,0.0421,0.0810,0.3910,0.2010,1.1606,23.4375,23.4375,23.4375,23.4375,12.2198,0.0000,-0.0610,-0.1221,-0.1221,-0.1506,-0.2230,-10.6097,0.0251,-0.0163,-0.0046,0.0000,0.0000,0.0000,0.0000,0.0000,0.0000,0.0000,0.0000,0.0000,0.0000,0.0000,0.0000,0.0000,0.0000,1.0000,0.0000,0.0000,0.0000,-0.2049,0.0421,0.0000,0.0000,0.0000,0.0000,0.0000,0.0000,0.0029,-0.0627,0.0160,0.0128,0.0000,0.0000,-0.5639,0.0025,0.0025,0.0025,0.0025,4
97,303,1137485952731,-10.4239,-0.2049,0.0421,0.0610,-0.0590,-0.0590,1.1606,23.4375,23.4375,23.4375,23.4375,12.2196,0.0000,0.0000,-0.0610,-0.1221,-0.1602,-0.2277,-10.5668,0.0251,-0.0163,-0.0046,0.0000,0.0000,0.0000,0.0000,0.0000,0.0000,0.0000,0.0000,0.0000,0.0000,0.0000,0.0000,0.0000,0.0000,1.0000,0.0000,0.0000,0.0000,-0.2049,0.0421,0.0000,0.0000,0.0000,0.0000,0.0000,0.0000,0.0029,-0.0627,0.0160,0.0129,0.0000,0.0000,-0.5639,0.0025,0.0025,0.0025,0.0025,4
98,304,1137490716835,-10.4239,-0.2049,0.0421,0.0610,-0.0590,-0.0590,1.1606,23.4375,23.4375,23.4375,23.4375,12.2198,0.0000,-0.0610,-0.1221,-0.0000,-0.1100,-0.2757,-10.5644,0.0251,-0.0163,-0.0046,0.0000,0.0000,0.0000,0.0000,0.0000,0.0000,0.0000,0.0000,0.0000,0.0000,0.0000,0.0000,0.0000,0.0000,1.0000,0.0000,0.0000,0.0000,-0.2049,0.0421,0.0000,0.0000,0.0000,0.0000,0.0000,0.0000,0.0029,-0.0627,0.0160,0.0129,0.0000,0.0000,-0.5639,0.0025,0.0025,0.0025,0.0025,4
99,305,1137495580850,-10.4239,-0.2049,0.0421,0.0610,-0.0590,-0.0590,1.1606,23.4375,23.4375,23.4375,23.4375,12.2193,0.0000,-0.0610,-0.1831,0.1221,-0.1219,-0.2541,-10.5286,0.0251,-0.0163,-0.0046,0.0000,0.0000,0.0000,0.0000,0.0000,0.0000,0.0000,0.0000,0.0000,0.0000,0.0000,0.0000,0.0000,0.0000,1.0000,0.0000,0.0000,0.0000,-0.2049,0.0421,0.0000,0.0000,0.0000,0.0000,0.0000,0.0000,0.0029,-0.0627,0.0160,0.0128,0.0000,0.0000,-0.5639,0.0025,0.0025,0.0025,0.0025,4
100,306,1137523071773,-10.4040,0.1526,0.1559,0.0610,-0.0590,-0.0590,1.1606,23.4375,23.4375,23.4375,23.4375,12.2188,0.0000,0.0000,0.0000,-0.0000,-0.1769,-0.2637,-10.6002,0.0251,-0.0163,-0.0046,0.0000,0.0000,0.0000,0.0000,0.0000,0.0000,0.0000,0.0000,0.0000,0.0000,0.0000,0.0000,0.0000,0.0000,1.0000,0.0000,0.0000,0.0000,0.1526,0.1559,0.0000,0.0000,0.0000,0.0000,0.0000,0.0000,0.0029,0.1980,0.1980,0.0128,0.0000,0.0000,-0.5660,0.0025,0.0025,0.0025,0.0025,4
101,307,1137526817759,-10.4040,0.1526,0.1559,0.0610,-0.0590,-0.0590,1.1606,23.4375,23.4375,23.4375,23.4375,12.2191,0.0000,-0.0610,-0.2441,-0.1221,-0.1243,-0.2517,-10.5023,0.0251,-0.0164,-0.0046,0.0000,0.0000,0.0000,0.0000,0.0000,0.0000,0.0000,0.0000,0.0000,0.0000,0.0000,0.0000,0.0000,0.0000,1.0000,0.0000,0.0000,0.0000,0.1526,0.1559,0.0000,0.0000,0.0000,0.0000,0.0000,0.0000,0.0029,0.1467,0.1507,0.0129,0.0000,0.0000,-0.5660,0.0025,0.0025,0.0025,0.0025,4
102,308,1137569249878,-10.4040,0.1526,0.1559,0.0610,-0.0590,-0.0590,1.1606,23.4375,23.4375,23.4375,23.4375,12.2193,0.0000,0.0610,0.0000,-0.0000,-0.1769,-0.2541,-10.5548,0.0251,-0.0164,-0.0047,0.0000,0.0000,0.0000,0.0000,0.0000,0.0000,0.0000,0.0000,0.0000,0.0000,0.0000,0.0000,0.0000,0.0000,1.0000,0.0000,0.0000,0.0000,0.1526,0.1559,0.0000,0.0000,0.0000,0.0000,0.0000,0.0000,0.0029,0.1115,0.1181,0.0129,0.0000,0.0000,-0.5660,0.0025,0.0025,0.0025,0.0025,4
103,309,1137626696855,-10.4040,0.1526,0.1559,0.0610,-0.0590,-0.0590,1.1606,23.4375,23.4375,23.4375,23.4375,12.2193,0.0000,-0.0610,-0.1831,0.1221,-0.1745,-0.2733,-10.5930,0.0251,-0.0164,-0.0046,0.0000,0.0000,0.0000,0.0000,0.0000,0.0000,0.0000,0.0000,0.0000,0.0000,0.0000,0.0000,0.0000,0.0000,1.0000,0.0000,0.0000,0.0000,0.1526,0.1559,0.0000,0.0000,0.0000,0.0000,0.0000,0.0000,0.0029,0.0874,0.0960,0.0127,0.0000,0.0000,-0.5660,0.0025,0.0025,0.0025,0.0025,4
104,310,1137630555169,-10.4040,0.1526,0.1559,0.0610,-0.0590,-0.0590,1.1606,23.4375,23.4375,23.4375,23.4375,12.2191,0.0000,-0.1831,-0.1831,-0.0000,-0.1387,-0.2589,-10.5501,0.0251,-0.0164,-0.0046,0.0000,0.0000,0.0000,0.0000,0.0000,0.0000,0.0000,0.0000,0.0000,0.0000,0.0000,0.0000,0.0000,0.0000,1.0000,0.0000,0.0000,0.0000,0.1526,0.1559,0.0000,0.0000,0.0000,0.0000,0.0000,0.0000,0.0029,0.0709,0.0807,0.0127,0.0000,0.0000,-0.5660,0.0025,0.0025,0.0025,0.0025,4
105,311,1137635601050,-10.4040,0.1526,0.1559,0.0610,-0.0590,-0.0590,1.1606,23.4375,23.4375,23.4375,23.4375,12.2188,0.0000,-0.0610,-0.1221,-0.0000,-0.1841,-0.2182,-10.6002,0.0251,-0.0164,-0.0046,0.0000,0.0000,0.0000,0.0000,0.0000,0.0000,0.0000,0.0000,0.0000,0.0000,0.0000,0.0000,0.0000,0.0000,1.0000,0.0000,0.0000,0.0000,0.1526,0.1559,0.0000,0.0000,0.0000,0.0000,0.0000,0.0000,0.0029,0.0595,0.0701,0.0127,0.0000,0.0000,-0.5660,0.0025,0.0025,0.0025,0.0025,4
106,312,1137640875004,-10.4040,0.1526,0.1559,0.0610,-0.0590,-0.0590,1.1606,23.4375,23.4375,23.4375,23.4375,12.2191,0.0000,-0.0610,-0.1831,-0.0000,-0.1698,-0.2709,-10.6527,0.0251,-0.0164,-0.0046,0.0000,0.0000,0.0000,0.0000,0.0000,0.0000,0.0000,0.0000,0.0000,0.0000,0.0000,0.0000,0.0000,0.0000,1.0000,0.0000,0.0000,0.0000,0.1526,0.1559,0.0000,0.0000,0.0000,0.0000,0.0000,0.0000,0.0029,0.0517,0.0629,0.0127,0.0000,0.0000,-0.5660,0.0025,0.0025,0.0025,0.0025,4
107,313,1137645532654,-10.4040,0.1526,0.1559,0.0610,-0.0590,-0.0590,1.1606,23.4375,23.4375,23.4375,23.4375,12.2188,0.0000,-0.1221,-0.0610,0.1831,-0.1076,-0.2493,-10.6217,0.0251,-0.0164,-0.0046,0.0000,0.0000,0.0000,0.0000,0.0000,0.0000,0.0000,0.0000,0.0000,0.0000,0.0000,0.0000,0.0000,0.0000,1.0000,0.0000,0.0000,0.0000,0.1526,0.1559,0.0000,0.0000,0.0000,0.0000,0.0000,0.0000,0.0029,0.0464,0.0579,0.0126,0.0000,0.0000,-0.5660,0.0025,0.0025,0.0025,0.0025,4
108,314,1137650591077,-10.4040,0.1526,0.1559,0.0610,-0.0590,-0.0590,1.1606,23.4375,23.4375,23.4375,23.4375,12.2191,0.0000,-0.0610,-0.1221,0.1221,-0.1913,-0.2733,-10.5739,0.0251,-0.0164,-0.0046,0.0000,0.0000,0.0000,0.0000,0.0000,0.0000,0.0000,0.0000,0.0000,0.0000,0.0000,0.0000,0.0000,0.0000,1.0000,0.0000,0.0000,0.0000,0.1526,0.1559,0.0000,0.0000,0.0000,0.0000,0.0000,0.0000,0.0029,0.0428,0.0544,0.0126,0.0000,0.0000,-0.5660,0.0025,0.0025,0.0025,0.0025,4
109,315,1137655902154,-10.4040,0.1526,0.1559,0.0610,-0.0590,-0.0590,1.1606,23.4375,23.4375,23.4375,23.4375,12.2186,0.0000,-0.0610,-0.1221,-0.1831,-0.1315,-0.2781,-10.5930,0.0251,-0.0164,-0.0046,0.0000,0.0000,0.0000,0.0000,0.0000,0.0000,0.0000,0.0000,0.0000,0.0000,0.0000,0.0000,0.0000,0.0000,1.0000,0.0000,0.0000,0.0000,0.1526,0.1559,0.0000,0.0000,0.0000,0.0000,0.0000,0.0000,0.0029,0.0402,0.0521,0.0127,0.0000,0.0000,-0.5660,0.0025,0.0025,0.0025,0.0025,4
110,316,1137660788501,-10.4040,0.1526,0.1559,0.0610,-0.0590,-0.0590,1.1606,23.4375,23.4375,23.4375,23.4375,12.2205,0.0000,-0.0610,-0.1221,-0.0000,-0.1506,-0.2589,-10.5787,0.0251,-0.0164,-0.0046,0.0000,0.0000,0.0000,0.0000,0.0000,0.0000,0.0000,0.0000,0.0000,0.0000,0.0000,0.0000,0.0000,0.0000,1.0000,0.0000,0.0000,0.0000,0.1526,0.1559,0.0000,0.0000,0.0000,0.0000,0.0000,0.0000,0.0029,0.0385,0.0505,0.0128,0.0000,0.0000,-0.5660,0.0025,0.0025,0.0025,0.0025,4
111,317,1137665621601,-10.4040,0.1526,0.1559,0.0610,-0.0590,-0.0590,1.1606,23.4375,23.4375,23.4375,23.4375,12.2210,0.0000,0.0000,-0.1221,-0.0000,-0.1411,-0.2685,-10.5143,0.0251,-0.0164,-0.0047,0.0000,0.0000,0.0000,0.0000,0.0000,0.0000,0.0000,0.0000,0.0000,0.0000,0.0000,0.0000,0.0000,0.0000,1.0000,0.0000,0.0000,0.0000,0.1526,0.1559,0.0000,0.0000,0.0000,0.0000,0.0000,0.0000,0.0029,0.0373,0.0495,0.0128,0.0000,0.0000,-0.5660,0.0025,0.0025,0.0025,0.0025,4
112,318,1137670615943,-10.4040,0.1526,0.1559,0.0610,-0.0590,-0.0590,1.1606,23.4375,23.4375,23.4375,23.4375,12.2220,0.0000,-0.0610,-0.1221,-0.0000,-0.1267,-0.2397,-10.6455,0.0251,-0.0164,-0.0047,0.0000,0.0000,0.0000,0.0000,0.0000,0.0000,0.0000,0.0000,0.0000,0.0000,0.0000,0.0000,0.0000,0.0000,1.0000,0.0000,0.0000,0.0000,0.1526,0.1559,0.0000,0.0000,0.0000,0.0000,0.0000,0.0000,0.0029,0.0364,0.0487,0.0128,0.0000,0.0000,-0.5660,0.0025,0.0025,0.0025,0.0025,4
113,319,1137675968727,-10.4040,0.1526,0.1559,0.0610,-0.0590,-0.0590,1.1606,23.4375,23.4375,23.4375,23.4375,12.2220,0.0000,0.0000,-0.0610,-0.0000,-0.1172,-0.2493,-10.5071,0.0251,-0.0164,-0.0047,0.0000,0.0000,0.0000,0.0000,0.0000,0.0000,0.0000,0.0000,0.0000,0.0000,0.0000,0.0000,0.0000,0.0000,1.0000,0.0000,0.0000,0.0000,0.1526,0.1559,0.0000,0.0000,0.0000,0.0000,0.0000,0.0000,0.0029,0.0359,0.0481,0.0128,0.0000,0.0000,-0.5660,0.0025,0.0025,0.0025,0.0025,4
114,320,1137680586087,-10.4040,0.1526,0.1559,0.0610,-0.0590,-0.0590,1.1606,23.4375,23.4375,23.4375,23.4375,12.2215,0.0000,0.0000,0.0000,-0.0610,-0.1267,-0.2421,-10.5453,0.0251,-0.0164,-0.0047,0.0000,0.0000,0.0000,0.0000,0.0000,0.0000,0.0000,0.0000,0.0000,0.0000,0.0000,0.0000,0.0000,0.0000,1.0000,0.0000,0.0000,0.0000,0.1526,0.1559,0.0000,0.0000,0.0000,0.0000,0.0000,0.0000,0.0029,0.0355,0.0477,0.0128,0.0000,0.0000,-0.5660,0.0025,0.0025,0.0025,0.0025,4
115,321,1137685600178,-10.4040,0.1526,0.1559,0.0810,-0.0190,-0.0490,1.1606,23.4375,23.4375,23.4375,23.4375,12.2210,0.0000,-0.0610,-0.1221,-0.0000,-0.1387,-0.2421,-10.5906,0.0251,-0.0164,-0.0047,0.0000,0.0000,0.0000,0.0000,0.0000,0.0000,0.0000,0.0000,0.0000,0.0000,0.0000,0.0000,0.0000,0.0000,1.0000,0.0000,0.0000,0.0000,0.1526,0.1559,0.0000,0.0000,0.0000,0.0000,0.0000,0.0000,0.0029,0.0353,0.0475,0.0129,0.0000,0.0000,-0.5660,0.0025,0.0025,0.0025,0.0025,4
116,322,1137720586656,-10.4129,0.0496,0.2081,0.0810,-0.0190,-0.0490,1.1606,23.4375,23.4375,23.4375,23.4375,12.2213,0.0000,-0.0610,-0.1221,-0.0000,-0.1435,-0.2421,-10.5596,0.0251,-0.0164,-0.0047,0.0000,0.0000,0.0000,0.0000,0.0000,0.0000,0.0000,0.0000,0.0000,0.0000,0.0000,0.0000,0.0000,0.0000,1.0000,0.0000,0.0000,0.0000,0.0496,0.2081,0.0000,0.0000,0.0000,0.0000,0.0000,0.0000,0.0029,-0.2300,0.2300,0.0129,0.0000,0.0000,-0.5665,0.0025,0.0025,0.0025,0.0025,4
117,323,1137777109595,-10.4129,0.0496,0.2081,0.0810,-0.0190,-0.0490,1.1606,23.4375,23.4375,23.4375,23.4375,12.2217,0.0000,0.0610,-0.0610,0.1221,-0.1435,-0.2805,-10.6145,0.0252,-0.0164,-0.0047,0.0000,0.0000,0.0000,0.0000,0.0000,0.0000,0.0000,0.0000,0.0000,0.0000,0.0000,0.0000,0.0000,0.0000,1.0000,0.0000,0.0000,0.0000,0.0496,0.2081,0.0000,0.0000,0.0000,0.0000,0.0000,0.0000,0.0029,-0.1559,0.1770,0.0129,0.0000,0.0000,-0.5665,0.0025,0.0025,0.0025,0.0025,4
118,324,1137780583969,-10.4129,0.0496,0.2081,0.0810,-0.0190,-0.0490,1.1606,23.4375,23.4375,23.4375,23.4375,12.2220,0.0000,0.0610,0.0000,-0.0000,-0.1482,-0.2637,-10.6527,0.0252,-0.0164,-0.0047,0.0000,0.0000,0.0000,0.0000,0.0000,0.0000,0.0000,0.0000,0.0000,0.0000,0.0000,0.0000,0.0000,0.0000,1.0000,0.0000,0.0000,0.0000,0.0496,0.2081,0.0000,0.0000,0.0000,0.0000,0.0000,0.0000,0.0029,-0.1049,0.1406,0.0129,0.0000,0.0000,-0.5665,0.0025,0.0025,0.0025,0.0025,4
119,325,1137785551896,-10.4129,0.0496,0.2081,0.0810,-0.0190,-0.0490,1.1606,23.4375,23.4375,23.4375,23.4375,12.2227,0.0000,-0.0610,-0.1831,-0.0000,-0.1530,-0.2206,-10.6646,0.0252,-0.0165,-0.0047,0.0000,0.0000,0.0000,0.0000,0.0000,0.0000,0.0000,0.0000,0.0000,0.0000,0.0000,0.0000,0.0000,0.0000,1.0000,0.0000,0.0000,0.0000,0.0496,0.2081,0.0000,0.0000,0.0000,0.0000,0.0000,0.0000,0.0029,-0.0699,0.1157,0.0129,0.0000,0.0000,-0.5665,0.0025,0.0025,0.0025,0.0025,4
120,326,1137790498490,-10.4129,0.0496,0.2081,0.0810,-0.0190,-0.0490,1.1606,23.4375,23.4375,23.4375,23.4375,12.2227,0.0000,0.0610,0.0000,-0.0610,-0.1458,-0.2469,-10.5763,0.0252,-0.0164,-0.0047,0.0000,0.0000,0.0000,0.0000,0.0000,0.0000,0.0000,0.0000,0.0000,0.0000,0.0000,0.0000,0.0000,0.0000,1.0000,0.0000,0.0000,0.0000,0.0496,0.2081,0.0000,0.0000,0.0000,0.0000,0.0000,0.0000,0.0029,-0.0459,0.0985,0.0130,0.0000,0.0000,-0.5665,0.0025,0.0025,0.0025,0.0025,4
121,327,1137795826400,-10.4129,0.0496,0.2081,0.0810,-0.0190,-0.0490,1.1606,23.4375,23.4375,23.4375,23.4375,12.2225,0.0000,0.0000,0.0000,-0.0610,-0.1315,-0.2325,-10.6217,0.0252,-0.0164,-0.0047,0.0000,0.0000,0.0000,0.0000,0.0000,0.0000,0.0000,0.0000,0.0000,0.0000,0.0000,0.0000,0.0000,0.0000,1.0000,0.0000,0.0000,0.0000,0.0496,0.2081,0.0000,0.0000,0.0000,0.0000,0.0000,0.0000,0.0029,-0.0294,0.0868,0.0130,0.0000,0.0000,-0.5665,0.0025,0.0025,0.0025,0.0025,4
122,328,1137800542214,-10.4129,0.0496,0.2081,0.0810,-0.0190,-0.0490,1.1606,23.4375,23.4375,23.4375,23.4375,12.2225,0.0000,-0.0610,-0.1221,-0.0000,-0.1267,-0.2373,-10.6264,0.0252,-0.0164,-0.0047,0.0000,0.0000,0.0000,0.0000,0.0000,0.0000,0.0000,0.0000,0.0000,0.0000,0.0000,0.0000,0.0000,0.0000,1.0000,0.0000,0.0000,0.0000,0.0496,0.2081,0.0000,0.0000,0.0000,0.0000,0.0000,0.0000,0.0029,-0.0181,0.0787,0.0130,0.0000,0.0000,-0.5665,0.0025,0.0025,0.0025,0.0025,4
123,329,1137805600803,-10.4129,0.0496,0.2081,0.0810,-0.0190,-0.0490,1.1606,23.4375,23.4375,23.4375,23.4375,12.2227,0.0000,0.0000,0.0000,0.1221,-0.1291,-0.2613,-10.6169,0.0252,-0.0164,-0.0047,0.0000,0.0000,0.0000,0.0000,0.0000,0.0000,0.0000,0.0000,0.0000,0.0000,0.0000,0.0000,0.0000,0.0000,1.0000,0.0000,0.0000,0.0000,0.0496,0.2081,0.0000,0.0000,0.0000,0.0000,0.0000,0.0000,0.0029,-0.0103,0.0732,0.0129,0.0000,0.0000,-0.5665,0.0025,0.0025,0.0025,0.0025,4
124,330,1137811059373,-10.4129,0.0496,0.2081,0.0810,-0.0190,-0.0490,1.1606,23.4375,23.4375,23.4375,23.4375,12.2229,0.0000,-0.2441,-0.1221,-0.0000,-0.1267,-0.2230,-10.5381,0.0252,-0.0164,-0.0047,0.0000,0.0000,0.0000,0.0000,0.0000,0.0000,0.0000,0.0000,0.0000,0.0000,0.0000,0.0000,0.0000,0.0000,1.0000,0.0000,0.0000,0.0000,0.0496,0.2081,0.0000,0.0000,0.0000,0.0000,0.0000,0.0000,0.0029,-0.0049,0.0694,0.0129,0.0000,0.0000,-0.5665,0.0025,0.0025,0.0025,0.0025,4
125,331,1137815623403,-10.4129,0.0496,0.2081,0.0810,-0.0190,-0.0490,1.1606,23.4375,23.4375,23.4375,23.4375,12.2232,0.0000,-0.0610,-0.1831,-0.0000,-0.1482,-0.2158,-10.5835,0.0252,-0.0164,-0.0047,0.0000,0.0000,0.0000,0.0000,0.0000,0.0000,0.0000,0.0000,0.0000,0.0000,0.0000,0.0000,0.0000,0.0000,1.0000,0.0000,0.0000,0.0000,0.0496,0.2081,0.0000,0.0000,0.0000,0.0000,0.0000,0.0000,0.0029,-0.0013,0.0669,0.0129,0.0000,0.0000,-0.5665,0.0025,0.0025,0.0025,0.0025,4
126,332,1137820611662,-10.4129,0.0496,0.2081,0.0810,-0.0190,-0.0490,1.1606,23.4375,23.4375,23.4375,23.4375,12.2232,0.0000,-0.1221,-0.0610,0.1221,-0.1937,-0.2206,-10.5047,0.0251,-0.0164,-0.0047,0.0000,0.0000,0.0000,0.0000,0.0000,0.0000,0.0000,0.0000,0.0000,0.0000,0.0000,0.0000,0.0000,0.0000,1.0000,0.0000,0.0000,0.0000,0.0496,0.2081,0.0000,0.0000,0.0000,0.0000,0.0000,0.0000,0.0029,0.0013,0.0651,0.0129,0.0000,0.0000,-0.5665,0.0025,0.0025,0.0025,0.0025,4
127,333,1137825631170,-10.4129,0.0496,0.2081,0.0810,-0.0190,-0.0490,1.1606,23.4375,23.4375,23.4375,23.4375,12.2229,0.0000,-0.0610,-0.1221,0.1221,-0.1769,-0.2565,-10.6073,0.0251,-0.0165,-0.0047,0.0000,0.0000,0.0000,0.0000,0.0000,0.0000,0.0000,0.0000,0.0000,0.0000,0.0000,0.0000,0.0000,0.0000,1.0000,0.0000,0.0000,0.0000,0.0496,0.2081,0.0000,0.0000,0.0000,0.0000,0.0000,0.0000,0.0029,0.0030,0.0639,0.0128,0.0000,0.0000,-0.5665,0.0025,0.0025,0.0025,0.0025,4
128,334,1137830964412,-10.4129,0.0496,0.2081,0.0810,-0.0190,-0.0490,1.1606,23.4375,23.4375,23.4375,23.4375,12.2222,0.0000,-0.0610,-0.1221,-0.0000,-0.1793,-0.2493,-10.6217,0.0251,-0.0165,-0.0047,0.0000,0.0000,0.0000,0.0000,0.0000,0.0000,0.0000,0.0000,0.0000,0.0000,0.0000,0.0000,0.0000,0.0000,1.0000,0.0000,0.0000,0.0000,0.0496,0.2081,0.0000,0.0000,0.0000,0.0000,0.0000,0.0000,0.0029,0.0041,0.0631,0.0129,0.0000,0.0000,-0.5665,0.0025,0.0025,0.0025,0.0025,4
129,335,1137835534442,-10.4129,0.0496,0.2081,0.0810,-0.0190,-0.0490,1.1606,23.4375,23.4375,23.4375,23.4375,12.2227,0.0000,-0.1831,-0.1221,-0.0000,-0.1578,-0.2469,-10.5620,0.0251,-0.0165,-0.0047,0.0000,0.0000,0.0000,0.0000,0.0000,0.0000,0.0000,0.0000,0.0000,0.0000,0.0000,0.0000,0.0000,0.0000,1.0000,0.0000,0.0000,0.0000,0.0496,0.2081,0.0000,0.0000,0.0000,0.0000,0.0000,0.0000,0.0029,0.0050,0.0625,0.0129,0.0000,0.0000,-0.5665,0.0025,0.0025,0.0025,0.0025,4
130,336,1137840471662,-10.4129,0.0496,0.2081,0.0810,-0.0190,-0.0490,1.1606,23.4375,23.4375,23.4375,23.4375,12.2208,0.0000,-0.0610,-0.1221,-0.0000,-0.1291,-0.2349,-10.6408,0.0251,-0.0165,-0.0047,0.0000,0.0000,0.0000,0.0000,0.0000,0.0000,0.0000,0.0000,0.0000,0.0000,0.0000,0.0000,0.0000,0.0000,1.0000,0.0000,0.0000,0.0000,0.0496,0.2081,0.0000,0.0000,0.0000,0.0000,0.0000,0.0000,0.0029,0.0055,0.0621,0.0129,0.0000,0.0000,-0.5665,0.0025,0.0025,0.0025,0.0025,4
