loop_index, counter, last_step_ns, T_ref, theta_ref, phi_ref, uwind, vwind, wwind, rho, rpm1, rpm2, rpm3, rpm4,v_batt,alt,gyro_roll,gyro_pitch,gyro_yaw,accel_X,accel_Y,accel_Z,roll,pitch,yaw,X,Y,Z,Xdot,Ydot,Zdot,x0,y0,z0,e.xbee_time,xbee_time_received_ns,xbee_x,xbee_y,xbee_z,xbee_qw,xbee_qx,xbee_qy,xbee_qz,sp_roll,sp_pitch,sp_yaw,sp_X,sp_Y,sp_Z,sp_Xdot,sp_Ydot,sp_Zdot,u_roll,u_pitch,u_yaw,u_X,u_Y,u_Z,mot_1,mot_2,mot_3,mot_4,thrust_mot1,thrust_mot2,thrust_mot3,thrust_mot4,flight_mode
1,110,838587166158,-10.3989,0.0878,0.2019,0.0910,-0.0390,-0.0790,1.1629,6943.8906,6772.0977,6540.9355,6493.6416,12.0496,0.0000,0.6714,-0.9155,-0.6714,2.1423,-16.8749,-15.1400,0.0122,-0.0115,-0.0062,0.0000,0.0000,0.0000,0.0000,0.0000,0.0000,0.0000,0.0000,0.0100,0.0000,0.0000,0.0000,0.0000,0.0100,1.0000,0.0000,0.0000,0.0000,0.0000,0.0000,0.0000,0.0000,0.0000,0.0100,0.0000,0.0000,-0.0000,-0.0000,-0.0000,0.0000,0.0000,0.0000,-0.6000,0.7159,0.7159,0.7159,0.7159,0.6000,0.6000,0.6000,0.6000,3
2,111,838591588359,-10.3989,0.0878,0.2019,0.0910,-0.0390,-0.0790,1.1629,6943.8906,6772.0977,6540.9355,6493.6416,12.0508,0.0000,1.1597,-0.3052,-0.1221,2.5703,-15.9639,-19.9783,0.0173,-0.0113,-0.0064,0.0000,0.0000,0.0000,0.0000,0.0000,0.0000,0.0000,0.0000,0.0100,0.0000,0.0000,0.0000,0.0000,0.0100,1.0000,0.0000,0.0000,0.0000,0.0000,0.0000,0.0000,0.0000,0.0000,0.0100,0.0000,0.0000,-0.0000,-0.0020,-0.0005,0.0020,0.0000,0.0000,-0.6000,0.7170,0.7161,0.7161,0.7145,0.6017,0.6003,0.6003,0.5977,3
3,112,838596097761,-10.3989,0.0878,0.2019,0.0910,-0.0390,-0.0790,1.1629,6943.8906,6772.0977,6540.9355,6493.6416,12.0523,0.0000,0.1221,1.2207,0.1831,-6.2667,-4.9457,-4.8812,0.0224,-0.0109,-0.0064,0.0000,0.0000,0.0000,0.0000,0.0000,0.0000,0.0000,0.0000,0.0100,0.0000,0.0000,0.0000,0.0000,0.0100,1.0000,0.0000,0.0000,0.0000,0.0000,0.0000,0.0000,0.0000,0.0000,0.0100,0.0000,0.0000,-0.0000,-0.0040,-0.0016,0.0040,0.0000,0.0000,-0.6000,0.7179,0.7164,0.7164,0.7130,0.6032,0.6008,0.6008,0.5952,3
4,113,838599915556,-10.3989,0.0878,0.2019,0.0910,-0.0390,-0.0790,1.1629,6943.8906,6772.0977,6540.9355,6493.6416,12.0537,0.0000,0.3662,1.3428,-0.3052,-8.7843,-1.8052,7.9746,0.0229,-0.0114,-0.0065,0.0000,0.0000,0.0000,0.0000,0.0000,0.0000,0.0000,0.0000,0.0100,0.0000,0.0000,0.0000,0.0000,0.0100,1.0000,0.0000,0.0000,0.0000,0.0000,0.0000,0.0000,0.0000,0.0000,0.0100,0.0000,0.0000,-0.0000,-0.0060,0.0028,0.0060,0.0000,0.0000,-0.6000,0.7204,0.7151,0.7151,0.7131,0.6074,0.5986,0.5986,0.5954,3
5,114,838605005865,-10.3989,0.0878,0.2019,0.0910,-0.0390,-0.0790,1.1629,6943.8906,6772.0977,6540.9355,6493.6416,12.0547,0.0000,0.4883,1.3428,0.4883,-11.2303,2.5076,22.5370,0.0231,-0.0121,-0.0064,0.0000,0.0000,0.0000,0.0000,0.0000,0.0000,0.0000,0.0000,0.0100,0.0000,0.0000,0.0000,0.0000,0.0100,1.0000,0.0000,0.0000,0.0000,0.0000,0.0000,0.0000,0.0000,0.0000,0.0100,0.0000,0.0000,-0.0000,-0.0076,0.0074,0.0075,0.0000,0.0000,-0.6000,0.7228,0.7136,0.7136,0.7135,0.6112,0.5963,0.5963,0.5961,3
6,115,838610030264,-10.3989,0.0878,0.2019,0.0910,-0.0390,-0.0790,1.1629,6943.8906,6772.0977,6540.9355,6493.6416,12.0561,0.0000,0.0000,-0.4272,-0.5493,-11.4861,6.0916,35.3498,0.0230,-0.0133,-0.0065,0.0000,0.0000,0.0000,0.0000,0.0000,0.0000,0.0000,0.0000,0.0100,0.0000,0.0000,0.0000,0.0000,0.0100,1.0000,0.0000,0.0000,0.0000,0.0000,0.0000,0.0000,0.0000,0.0000,0.0100,0.0000,0.0000,-0.0000,-0.0061,0.0100,0.0096,0.0000,0.0000,-0.6000,0.7238,0.7118,0.7139,0.7142,0.6128,0.5932,0.5968,0.5972,3
7,116,838615273936,-10.3989,0.0878,0.2019,0.0910,-0.0390,-0.0790,1.1629,6943.8906,6772.0977,6540.9355,6493.6416,12.0561,0.0000,0.6714,-0.5493,0.1831,-13.6762,9.9777,43.4104,0.0225,-0.0145,-0.0065,0.0000,0.0000,0.0000,0.0000,0.0000,0.0000,0.0000,0.0000,0.0100,0.0000,0.0000,0.0000,0.0000,0.0100,1.0000,0.0000,0.0000,0.0000,0.0000,0.0000,0.0000,0.0000,0.0000,0.0100,0.0000,0.0000,-0.0000,-0.0035,0.0120,0.0108,0.0000,0.0000,-0.6000,0.7240,0.7100,0.7145,0.7152,0.6131,0.5904,0.5976,0.5989,3
8,117,838620114225,-10.3989,0.0878,0.2019,0.0910,-0.0390,-0.0790,1.1629,6943.8906,6772.0977,6540.9355,6493.6416,12.0561,0.0000,0.3052,0.1831,-0.4272,-13.4276,13.7487,44.0524,0.0217,-0.0158,-0.0065,0.0000,0.0000,0.0000,0.0000,0.0000,0.0000,0.0000,0.0000,0.0100,0.0000,0.0000,0.0000,0.0000,0.0100,1.0000,0.0000,0.0000,0.0000,0.0000,0.0000,0.0000,0.0000,0.0000,0.0100,0.0000,0.0000,-0.0000,0.0007,0.0140,0.0121,0.0000,0.0000,-0.6000,0.7237,0.7077,0.7155,0.7167,0.6127,0.5866,0.5994,0.6013,3
9,118,838624999803,-10.3989,0.0878,0.2019,0.0710,-0.0390,-0.0690,1.1629,6943.8906,6772.0977,6540.9355,6493.6416,12.0569,0.0000,0.6714,-1.4038,-0.3052,-12.7414,15.7289,32.7672,0.0205,-0.0173,-0.0065,0.0000,0.0000,0.0000,0.0000,0.0000,0.0000,0.0000,0.0000,0.0100,0.0000,0.0000,0.0000,0.0000,0.0100,1.0000,0.0000,0.0000,0.0000,0.0000,0.0000,0.0000,0.0000,0.0000,0.0100,0.0000,0.0000,-0.0000,0.0056,0.0160,0.0132,0.0000,0.0000,-0.6000,0.7231,0.7052,0.7168,0.7185,0.6118,0.5826,0.6014,0.6042,3
10,119,838643295470,-10.3972,0.1076,0.1930,0.0710,-0.0390,-0.0690,1.1629,6756.6221,6588.2334,6693.8882,6709.5967,12.0566,0.0000,0.1221,-1.4648,-0.7324,-11.0199,19.8260,14.4980,0.0191,-0.0187,-0.0066,0.0000,0.0000,0.0000,0.0000,0.0000,0.0000,0.0000,0.0000,0.0100,0.0000,0.0000,0.0000,0.0000,0.0100,1.0000,0.0000,0.0000,0.0000,0.0000,0.0000,0.0000,0.0000,0.0000,0.0100,0.0000,0.0000,-0.0000,0.0107,0.0180,0.0143,0.0000,0.0000,-0.6000,0.7225,0.7027,0.7181,0.7203,0.6108,0.5785,0.6035,0.6072,3
11,120,838646280254,-10.3972,0.1076,0.1930,0.0710,-0.0390,-0.0690,1.1629,6756.6221,6588.2334,6693.8882,6709.5967,12.0578,0.0000,-0.6104,-0.6104,1.2817,2.9600,13.3580,-49.7141,0.0136,-0.0208,-0.0064,0.0000,0.0000,0.0000,0.0000,0.0000,0.0000,0.0000,0.0000,0.0100,0.0000,0.0000,0.0000,0.0000,0.0100,1.0000,0.0000,0.0000,0.0000,0.0000,0.0000,0.0000,0.0000,0.0000,0.0100,0.0000,0.0000,-0.0000,0.0200,0.0200,0.0135,0.0000,0.0000,-0.6000,0.7200,0.6995,0.7200,0.7240,0.6068,0.5732,0.6068,0.6132,3
12,121,838668101492,-10.3972,0.1076,0.1930,0.0710,-0.0390,-0.0690,1.1629,6745.9688,6535.0420,6723.6895,6759.4277,12.0583,0.0000,-2.0142,-0.1221,0.2441,8.9063,11.9819,-61.8348,0.0121,-0.0204,-0.0064,0.0000,0.0000,0.0000,0.0000,0.0000,0.0000,0.0000,0.0000,0.0100,0.0000,0.0000,0.0000,0.0000,0.0100,1.0000,0.0000,0.0000,0.0000,0.0000,0.0000,0.0000,0.0000,0.0000,0.0100,0.0000,0.0000,-0.0000,0.0217,0.0132,0.0138,0.0000,0.0000,-0.6000,0.7175,0.7010,0.7227,0.7224,0.6027,0.5756,0.6112,0.6106,3
13,122,838671120606,-10.3972,0.1076,0.1930,0.0710,-0.0390,-0.0690,1.1629,6745.9688,6535.0420,6723.6895,6759.4277,12.0588,0.0000,-2.0142,1.7090,2.2583,12.4377,-1.9442,-59.6412,0.0093,-0.0169,-0.0060,0.0000,0.0000,0.0000,0.0000,0.0000,0.0000,0.0000,0.0000,0.0100,0.0000,0.0000,0.0000,0.0000,0.0100,1.0000,0.0000,0.0000,0.0000,0.0000,0.0000,0.0000,0.0000,0.0000,0.0100,0.0000,0.0000,-0.0000,0.0240,-0.0109,0.0116,0.0000,0.0000,-0.6000,0.7088,0.7084,0.7301,0.7164,0.5883,0.5877,0.6232,0.6008,3
14,123,838672690845,-10.3972,0.1076,0.1930,0.0710,-0.0390,-0.0690,1.1629,6745.9688,6535.0420,6723.6895,6759.4277,12.0595,0.0000,-1.8311,0.4883,-1.7090,12.1962,-2.9224,-45.8140,0.0093,-0.0155,-0.0062,0.0000,0.0000,0.0000,0.0000,0.0000,0.0000,0.0000,0.0000,0.0100,0.0000,0.0000,0.0000,0.0000,0.0100,1.0000,0.0000,0.0000,0.0000,0.0000,0.0000,0.0000,0.0000,0.0000,0.0100,0.0000,0.0000,-0.0000,0.0158,-0.0142,0.0137,0.0000,0.0000,-0.6000,0.7109,0.7112,0.7293,0.7122,0.5918,0.5924,0.6218,0.5939,3
15,124,838675104803,-10.3972,0.1076,0.1930,0.0710,-0.0390,-0.0690,1.1629,6745.9688,6535.0420,6723.6895,6759.4277,12.0602,0.0000,-1.5259,0.6714,2.4414,9.4634,-5.9382,-26.6783,0.0094,-0.0142,-0.0060,0.0000,0.0000,0.0000,0.0000,0.0000,0.0000,0.0000,0.0000,0.0100,0.0000,0.0000,0.0000,0.0000,0.0100,1.0000,0.0000,0.0000,0.0000,0.0000,0.0000,0.0000,0.0000,0.0000,0.0100,0.0000,0.0000,-0.0000,0.0093,-0.0164,0.0125,0.0000,0.0000,-0.6000,0.7118,0.7142,0.7276,0.7099,0.5934,0.5973,0.6191,0.5902,3
16,125,838680127160,-10.3972,0.1076,0.1930,0.0710,-0.0390,-0.0690,1.1629,6745.9688,6535.0420,6723.6895,6759.4277,12.0600,0.0000,0.1831,-0.3662,-2.9907,6.8548,-8.2085,-14.1829,0.0100,-0.0133,-0.0063,0.0000,0.0000,0.0000,0.0000,0.0000,0.0000,0.0000,0.0000,0.0100,0.0000,0.0000,0.0000,0.0000,0.0100,1.0000,0.0000,0.0000,0.0000,0.0000,0.0000,0.0000,0.0000,0.0000,0.0100,0.0000,0.0000,-0.0000,0.0021,-0.0156,0.0154,0.0000,0.0000,-0.6000,0.7152,0.7153,0.7260,0.7070,0.5989,0.5990,0.6166,0.5855,3
17,126,838685296463,-10.3972,0.1076,0.1930,0.0710,-0.0390,-0.0690,1.1629,6745.9688,6535.0420,6723.6895,6759.4277,12.0602,0.0000,0.1221,0.0610,1.7700,4.6647,-7.5516,-4.7428,0.0108,-0.0126,-0.0061,0.0000,0.0000,0.0000,0.0000,0.0000,0.0000,0.0000,0.0000,0.0100,0.0000,0.0000,0.0000,0.0000,0.0100,1.0000,0.0000,0.0000,0.0000,0.0000,0.0000,0.0000,0.0000,0.0000,0.0100,0.0000,0.0000,-0.0000,-0.0042,-0.0137,0.0145,0.0000,0.0000,-0.6000,0.7175,0.7169,0.7233,0.7060,0.6025,0.6017,0.6120,0.5838,3
18,127,838689947227,-10.3972,0.1076,0.1930,0.0710,-0.0390,-0.0690,1.1629,6745.9688,6535.0420,6723.6895,6759.4277,12.0602,0.0000,0.6104,-0.7324,-2.6855,1.2170,-9.2417,-2.0527,0.0116,-0.0122,-0.0064,0.0000,0.0000,0.0000,0.0000,0.0000,0.0000,0.0000,0.0000,0.0100,0.0000,0.0000,0.0000,0.0000,0.0100,1.0000,0.0000,0.0000,0.0000,0.0000,0.0000,0.0000,0.0000,0.0000,0.0100,0.0000,0.0000,-0.0000,-0.0086,-0.0107,0.0170,0.0000,0.0000,-0.6000,0.7205,0.7166,0.7218,0.7048,0.6074,0.6011,0.6096,0.5819,3
19,128,838694896591,-10.3972,0.1076,0.1930,0.0710,-0.0390,-0.0690,1.1629,6745.9688,6535.0420,6723.6895,6759.4277,12.0598,0.0000,1.2817,-1.7700,0.3662,1.0783,-9.2585,-2.3797,0.0126,-0.0122,-0.0063,0.0000,0.0000,0.0000,0.0000,0.0000,0.0000,0.0000,0.0000,0.0100,0.0000,0.0000,0.0000,0.0000,0.0100,1.0000,0.0000,0.0000,0.0000,0.0000,0.0000,0.0000,0.0000,0.0000,0.0100,0.0000,0.0000,-0.0000,-0.0130,-0.0061,0.0170,0.0000,0.0000,-0.6000,0.7232,0.7165,0.7190,0.7049,0.6119,0.6010,0.6050,0.5820,3
20,129,838700260544,-10.3972,0.1076,0.1930,0.0710,-0.0390,-0.0690,1.1629,6745.9688,6535.0420,6723.6895,6759.4277,12.0602,0.0000,0.4272,-0.4272,-1.0376,-0.8201,-9.7020,-2.9788,0.0135,-0.0121,-0.0065,0.0000,0.0000,0.0000,0.0000,0.0000,0.0000,0.0000,0.0000,0.0100,0.0000,0.0000,0.0000,0.0000,0.0100,1.0000,0.0000,0.0000,0.0000,0.0000,0.0000,0.0000,0.0000,0.0000,0.0100,0.0000,0.0000,-0.0000,-0.0157,-0.0035,0.0180,0.0000,0.0000,-0.6000,0.7251,0.7163,0.7177,0.7045,0.6151,0.6006,0.6029,0.5814,3
21,130,838704874686,-10.3972,0.1076,0.1930,0.0710,-0.0390,-0.0690,1.1629,6745.9688,6535.0420,6723.6895,6759.4277,12.0600,0.0000,1.4038,-0.7324,0.4883,0.6001,-8.1102,-3.4610,0.0146,-0.0123,-0.0064,0.0000,0.0000,0.0000,0.0000,0.0000,0.0000,0.0000,0.0000,0.0100,0.0000,0.0000,0.0000,0.0000,0.0100,1.0000,0.0000,0.0000,0.0000,0.0000,0.0000,0.0000,0.0000,0.0000,0.0100,0.0000,0.0000,-0.0000,-0.0184,-0.0005,0.0177,0.0000,0.0000,-0.6000,0.7268,0.7163,0.7159,0.7047,0.6178,0.6006,0.5999,0.5817,3
22,131,838709925166,-10.3972,0.1076,0.1930,0.0710,-0.0390,-0.0690,1.1629,6745.9688,6535.0420,6723.6895,6759.4277,12.0602,0.0000,0.7324,0.3052,-0.5493,-2.3527,-8.7647,-2.1363,0.0154,-0.0122,-0.0065,0.0000,0.0000,0.0000,0.0000,0.0000,0.0000,0.0000,0.0000,0.0100,0.0000,0.0000,0.0000,0.0000,0.0100,1.0000,0.0000,0.0000,0.0000,0.0000,0.0000,0.0000,0.0000,0.0000,0.0100,0.0000,0.0000,-0.0000,-0.0190,0.0001,0.0183,0.0000,0.0000,-0.6000,0.7274,0.7161,0.7156,0.7045,0.6187,0.6003,0.5996,0.5814,3
23,132,838714932400,-10.3972,0.1076,0.1930,0.0710,-0.0390,-0.0690,1.1629,6745.9688,6535.0420,6723.6895,6759.4277,12.0602,0.0000,0.0000,0.6714,1.2207,-4.1770,-8.6088,1.6255,0.0162,-0.0124,-0.0064,0.0000,0.0000,0.0000,0.0000,0.0000,0.0000,0.0000,0.0000,0.0100,0.0000,0.0000,0.0000,0.0000,0.0100,1.0000,0.0000,0.0000,0.0000,0.0000,0.0000,0.0000,0.0000,0.0000,0.0100,0.0000,0.0000,-0.0000,-0.0195,0.0021,0.0174,0.0000,0.0000,-0.6000,0.7278,0.7159,0.7146,0.7053,0.6195,0.5999,0.5979,0.5826,3
24,133,838720351473,-10.3972,0.1076,0.1930,0.0710,-0.0390,-0.0690,1.1629,6745.9688,6535.0420,6723.6895,6759.4277,12.0600,0.0000,0.4883,1.4038,0.2441,-5.6761,-9.0164,8.1894,0.0171,-0.0126,-0.0064,0.0000,0.0000,0.0000,0.0000,0.0000,0.0000,0.0000,0.0000,0.0100,0.0000,0.0000,0.0000,0.0000,0.0100,1.0000,0.0000,0.0000,0.0000,0.0000,0.0000,0.0000,0.0000,0.0000,0.0100,0.0000,0.0000,-0.0000,-0.0201,0.0042,0.0174,0.0000,0.0000,-0.6000,0.7287,0.7154,0.7138,0.7057,0.6208,0.5992,0.5966,0.5834,3
25,134,838725228468,-10.3972,0.1076,0.1930,0.0710,-0.0390,-0.0690,1.1629,6745.9688,6535.0420,6723.6895,6759.4277,12.0602,0.0000,0.3052,-0.4883,0.4272,-6.6157,-8.5681,15.9516,0.0180,-0.0132,-0.0064,0.0000,0.0000,0.0000,0.0000,0.0000,0.0000,0.0000,0.0000,0.0100,0.0000,0.0000,0.0000,0.0000,0.0100,1.0000,0.0000,0.0000,0.0000,0.0000,0.0000,0.0000,0.0000,0.0000,0.0100,0.0000,0.0000,-0.0000,-0.0208,0.0076,0.0173,0.0000,0.0000,-0.6000,0.7299,0.7147,0.7125,0.7066,0.6229,0.5980,0.5944,0.5848,3
26,135,838730074424,-10.3972,0.1076,0.1930,0.0710,-0.0390,-0.0690,1.1629,6745.9688,6535.0420,6723.6895,6759.4277,12.0602,0.0000,0.6714,0.4272,-0.0000,-7.9834,-7.5756,23.5109,0.0190,-0.0139,-0.0064,0.0000,0.0000,0.0000,0.0000,0.0000,0.0000,0.0000,0.0000,0.0100,0.0000,0.0000,0.0000,0.0000,0.0100,1.0000,0.0000,0.0000,0.0000,0.0000,0.0000,0.0000,0.0000,0.0000,0.0100,0.0000,0.0000,-0.0000,-0.0214,0.0101,0.0175,0.0000,0.0000,-0.6000,0.7309,0.7140,0.7116,0.7071,0.6245,0.5969,0.5930,0.5856,3
27,136,838735299722,-10.3972,0.1076,0.1930,0.0710,-0.0390,-0.0690,1.1629,6745.9688,6535.0420,6723.6895,6759.4277,12.0612,0.0000,0.7935,-0.0610,0.4883,-8.7963,-6.4249,27.1580,0.0198,-0.0147,-0.0064,0.0000,0.0000,0.0000,0.0000,0.0000,0.0000,0.0000,0.0000,0.0100,0.0000,0.0000,0.0000,0.0000,0.0100,1.0000,0.0000,0.0000,0.0000,0.0000,0.0000,0.0000,0.0000,0.0000,0.0100,0.0000,0.0000,-0.0000,-0.0215,0.0130,0.0173,0.0000,0.0000,-0.6000,0.7318,0.7132,0.7106,0.7080,0.6259,0.5956,0.5914,0.5872,3
28,137,838739868160,-10.3972,0.1076,0.1930,0.0710,-0.0390,-0.0690,1.1629,6745.9688,6535.0420,6723.6895,6759.4277,12.0622,0.0000,0.8545,-0.1221,-1.4038,-7.7228,-1.3185,23.0335,0.0206,-0.0156,-0.0065,0.0000,0.0000,0.0000,0.0000,0.0000,0.0000,0.0000,0.0000,0.0100,0.0000,0.0000,0.0000,0.0000,0.0100,1.0000,0.0000,0.0000,0.0000,0.0000,0.0000,0.0000,0.0000,0.0000,0.0100,0.0000,0.0000,-0.0000,-0.0210,0.0156,0.0185,0.0000,0.0000,-0.6000,0.7328,0.7119,0.7103,0.7086,0.6276,0.5935,0.5909,0.5881,3
29,138,838744869186,-10.3972,0.1076,0.1930,0.0710,-0.0390,-0.0690,1.1629,6745.9688,6535.0420,6723.6895,6759.4277,12.0615,0.0000,1.7700,-2.3193,-0.0000,-7.7204,0.1510,12.6553,0.0209,-0.0165,-0.0065,0.0000,0.0000,0.0000,0.0000,0.0000,0.0000,0.0000,0.0000,0.0100,0.0000,0.0000,0.0000,0.0000,0.0100,1.0000,0.0000,0.0000,0.0000,0.0000,0.0000,0.0000,0.0000,0.0000,0.0100,0.0000,0.0000,-0.0000,-0.0183,0.0180,0.0185,0.0000,0.0000,-0.6000,0.7327,0.7103,0.7105,0.7102,0.6274,0.5909,0.5911,0.5906,3
30,139,838749857213,-10.3972,0.1076,0.1930,0.0710,-0.0390,-0.0690,1.1629,6745.9688,6535.0420,6723.6895,6759.4277,12.0617,0.0000,1.6479,-0.0610,-0.7935,-4.6863,5.7752,-2.6948,0.0211,-0.0173,-0.0066,0.0000,0.0000,0.0000,0.0000,0.0000,0.0000,0.0000,0.0000,0.0100,0.0000,0.0000,0.0000,0.0000,0.0100,1.0000,0.0000,0.0000,0.0000,0.0000,0.0000,0.0000,0.0000,0.0000,0.0100,0.0000,0.0000,-0.0000,-0.0153,0.0185,0.0191,0.0000,0.0000,-0.6000,0.7321,0.7091,0.7114,0.7110,0.6264,0.5889,0.5926,0.5920,3
31,140,838755243122,-10.3972,0.1076,0.1930,0.0710,-0.0390,-0.0690,1.1629,6745.9688,6535.0420,6723.6895,6759.4277,12.0610,0.0000,1.7090,-1.4648,-1.0986,-2.2571,9.2513,-24.6924,0.0207,-0.0179,-0.0067,0.0000,0.0000,0.0000,0.0000,0.0000,0.0000,0.0000,0.0000,0.0100,0.0000,0.0000,0.0000,0.0000,0.0100,1.0000,0.0000,0.0000,0.0000,0.0000,0.0000,0.0000,0.0000,0.0000,0.0100,0.0000,0.0000,-0.0000,-0.0099,0.0176,0.0197,0.0000,0.0000,-0.6000,0.7304,0.7075,0.7135,0.7122,0.6237,0.5863,0.5961,0.5940,3
32,141,838759910510,-10.3972,0.1076,0.1930,0.0710,-0.0390,-0.0690,1.1629,6745.9688,6535.0420,6723.6895,6759.4277,12.0602,0.0000,0.6104,-0.9766,0.4883,2.8022,15.4436,-41.6488,0.0198,-0.0181,-0.0066,0.0000,0.0000,0.0000,0.0000,0.0000,0.0000,0.0000,0.0000,0.0100,0.0000,0.0000,0.0000,0.0000,0.0100,1.0000,0.0000,0.0000,0.0000,0.0000,0.0000,0.0000,0.0000,0.0000,0.0100,0.0000,0.0000,-0.0000,-0.0033,0.0152,0.0191,0.0000,0.0000,-0.6000,0.7274,0.7064,0.7161,0.7137,0.6188,0.5845,0.6003,0.5965,3
33,142,838764879413,-10.3972,0.1076,0.1930,0.0710,-0.0390,-0.0690,1.1629,6745.9688,6535.0420,6723.6895,6759.4277,12.0598,0.0000,-0.6714,0.6104,-0.8545,4.0120,16.5848,-54.6168,0.0182,-0.0177,-0.0067,0.0000,0.0000,0.0000,0.0000,0.0000,0.0000,0.0000,0.0000,0.0100,0.0000,0.0000,0.0000,0.0000,0.0100,1.0000,0.0000,0.0000,0.0000,0.0000,0.0000,0.0000,0.0000,0.0000,0.0100,0.0000,0.0000,-0.0000,0.0059,0.0096,0.0194,0.0000,0.0000,-0.6000,0.7230,0.7052,0.7207,0.7147,0.6116,0.5826,0.6078,0.5980,3
34,143,838770244616,-10.3972,0.1076,0.1930,0.0710,-0.0390,-0.0690,1.1629,6745.9688,6535.0420,6723.6895,6759.4277,12.0605,0.0000,-1.2817,0.0610,0.6104,5.9176,17.7691,-60.4098,0.0164,-0.0172,-0.0066,0.0000,0.0000,0.0000,0.0000,0.0000,0.0000,0.0000,0.0000,0.0100,0.0000,0.0000,0.0000,0.0000,0.0100,1.0000,0.0000,0.0000,0.0000,0.0000,0.0000,0.0000,0.0000,0.0000,0.0100,0.0000,0.0000,-0.0000,0.0134,0.0051,0.0186,0.0000,0.0000,-0.6000,0.7191,0.7046,0.7241,0.7159,0.6052,0.5815,0.6134,0.5999,3
35,144,838775075490,-10.3972,0.1076,0.1930,0.0710,-0.0390,-0.0690,1.1629,6745.9688,6535.0420,6723.6895,6759.4277,12.0602,0.0000,-1.5869,0.6714,1.0376,6.4723,16.9468,-60.9659,0.0144,-0.0165,-0.0065,0.0000,0.0000,0.0000,0.0000,0.0000,0.0000,0.0000,0.0000,0.0100,0.0000,0.0000,0.0000,0.0000,0.0100,1.0000,0.0000,0.0000,0.0000,0.0000,0.0000,0.0000,0.0000,0.0000,0.0100,0.0000,0.0000,-0.0000,0.0195,0.0005,0.0175,0.0000,0.0000,-0.6000,0.7155,0.7044,0.7271,0.7167,0.5993,0.5812,0.6183,0.6013,3
36,145,838780116804,-10.3972,0.1076,0.1930,0.0710,-0.0390,-0.0690,1.1629,6745.9688,6535.0420,6723.6895,6759.4277,12.0600,0.0000,-3.5400,1.5259,0.2441,8.7628,16.5512,-49.8621,0.0124,-0.0156,-0.0064,0.0000,0.0000,0.0000,0.0000,0.0000,0.0000,0.0000,0.0000,0.0100,0.0000,0.0000,0.0000,0.0000,0.0100,1.0000,0.0000,0.0000,0.0000,0.0000,0.0000,0.0000,0.0000,0.0000,0.0100,0.0000,0.0000,-0.0000,0.0244,-0.0035,0.0172,0.0000,0.0000,-0.6000,0.7126,0.7042,0.7297,0.7170,0.5947,0.5809,0.6225,0.6019,3
37,146,838785309397,-10.3972,0.1076,0.1930,0.0710,-0.0390,-0.0690,1.1629,6745.9688,6535.0420,6723.6895,6759.4277,12.0605,0.0000,-2.5635,0.9155,1.9531,3.6486,12.7203,-32.9940,0.0105,-0.0146,-0.0062,0.0000,0.0000,0.0000,0.0000,0.0000,0.0000,0.0000,0.0000,0.0100,0.0000,0.0000,0.0000,0.0000,0.0100,1.0000,0.0000,0.0000,0.0000,0.0000,0.0000,0.0000,0.0000,0.0000,0.0100,0.0000,0.0000,-0.0000,0.0270,-0.0071,0.0157,0.0000,0.0000,-0.6000,0.7102,0.7050,0.7312,0.7172,0.5908,0.5822,0.6249,0.6021,3
38,147,838789888126,-10.3972,0.1076,0.1930,0.0710,-0.0390,-0.0690,1.1629,6745.9688,6535.0420,6723.6895,6759.4277,12.0615,0.0000,-3.2959,1.0376,-0.6714,4.4041,7.4174,-14.9753,0.0090,-0.0141,-0.0063,0.0000,0.0000,0.0000,0.0000,0.0000,0.0000,0.0000,0.0000,0.0100,0.0000,0.0000,0.0000,0.0000,0.0100,1.0000,0.0000,0.0000,0.0000,0.0000,0.0000,0.0000,0.0000,0.0000,0.0100,0.0000,0.0000,-0.0000,0.0269,-0.0067,0.0163,0.0000,0.0000,-0.6000,0.7106,0.7047,0.7312,0.7171,0.5913,0.5817,0.6249,0.6020,3
39,148,838794859112,-10.3972,0.1076,0.1930,0.0710,-0.0390,-0.0690,1.1629,6745.9688,6535.0420,6723.6895,6759.4277,12.0617,0.0000,-1.8311,-0.0610,2.0752,-0.7508,1.2610,4.4897,0.0081,-0.0137,-0.0061,0.0000,0.0000,0.0000,0.0000,0.0000,0.0000,0.0000,0.0000,0.0100,0.0000,0.0000,0.0000,0.0000,0.0100,1.0000,0.0000,0.0000,0.0000,0.0000,0.0000,0.0000,0.0000,0.0000,0.0100,0.0000,0.0000,-0.0000,0.0231,-0.0060,0.0149,0.0000,0.0000,-0.6000,0.7115,0.7061,0.7294,0.7166,0.5929,0.5841,0.6220,0.6011,3
40,149,838799888177,-10.3972,0.1076,0.1930,0.0710,-0.0390,-0.0690,1.1629,6745.9688,6535.0420,6723.6895,6759.4277,12.0610,0.0000,-1.0376,-0.9766,-2.1362,0.8536,-4.5957,12.9990,0.0079,-0.0138,-0.0063,0.0000,0.0000,0.0000,0.0000,0.0000,0.0000,0.0000,0.0000,0.0100,0.0000,0.0000,0.0000,0.0000,0.0100,1.0000,0.0000,0.0000,0.0000,0.0000,0.0000,0.0000,0.0000,0.0000,0.0100,0.0000,0.0000,-0.0000,0.0163,-0.0020,0.0168,0.0000,0.0000,-0.6000,0.7154,0.7064,0.7267,0.7151,0.5993,0.5844,0.6176,0.5987,3
41,150,838805240548,-10.3972,0.1076,0.1930,0.0710,-0.0390,-0.0690,1.1629,6745.9688,6535.0420,6723.6895,6759.4277,12.0612,0.0000,-0.3052,-1.3428,2.1973,-0.5882,-10.5147,16.8109,0.0083,-0.0139,-0.0061,0.0000,0.0000,0.0000,0.0000,0.0000,0.0000,0.0000,0.0000,0.0100,0.0000,0.0000,0.0000,0.0000,0.0100,1.0000,0.0000,0.0000,0.0000,0.0000,0.0000,0.0000,0.0000,0.0000,0.0100,0.0000,0.0000,-0.0000,0.0079,0.0001,0.0154,0.0000,0.0000,-0.6000,0.7182,0.7088,0.7230,0.7136,0.6038,0.5883,0.6116,0.5963,3
42,151,838809886814,-10.3972,0.1076,0.1930,0.0710,-0.0390,-0.0690,1.1629,6745.9688,6535.0420,6723.6895,6759.4277,12.0607,0.0000,0.4883,-1.3428,-2.1362,1.6784,-15.1128,15.2642,0.0094,-0.0141,-0.0063,0.0000,0.0000,0.0000,0.0000,0.0000,0.0000,0.0000,0.0000,0.0100,0.0000,0.0000,0.0000,0.0000,0.0100,1.0000,0.0000,0.0000,0.0000,0.0000,0.0000,0.0000,0.0000,0.0000,0.0100,0.0000,0.0000,-0.0000,-0.0019,0.0025,0.0174,0.0000,0.0000,-0.6000,0.7226,0.7104,0.7199,0.7108,0.6109,0.5910,0.6065,0.5916,3
43,152,838814894714,-10.3972,0.1076,0.1930,0.0710,-0.0390,-0.0690,1.1629,6745.9688,6535.0420,6723.6895,6759.4277,12.0615,0.0000,1.0376,-1.8311,1.1597,2.0586,-18.9869,5.9052,0.0110,-0.0141,-0.0063,0.0000,0.0000,0.0000,0.0000,0.0000,0.0000,0.0000,0.0000,0.0100,0.0000,0.0000,0.0000,0.0000,0.0100,1.0000,0.0000,0.0000,0.0000,0.0000,0.0000,0.0000,0.0000,0.0000,0.0100,0.0000,0.0000,-0.0000,-0.0116,0.0030,0.0168,0.0000,0.0000,-0.6000,0.7255,0.7134,0.7165,0.7081,0.6157,0.5959,0.6011,0.5873,3
44,153,838820437818,-10.3972,0.1076,0.1930,0.0710,-0.0390,-0.0690,1.1629,6745.9688,6535.0420,6723.6895,6759.4277,12.0615,0.0000,1.2817,-0.5493,-1.1597,4.1937,-20.3222,-4.1962,0.0130,-0.0140,-0.0064,0.0000,0.0000,0.0000,0.0000,0.0000,0.0000,0.0000,0.0000,0.0100,0.0000,0.0000,0.0000,0.0000,0.0100,1.0000,0.0000,0.0000,0.0000,0.0000,0.0000,0.0000,0.0000,0.0000,0.0100,0.0000,0.0000,-0.0000,-0.0208,0.0024,0.0180,0.0000,0.0000,-0.6000,0.7285,0.7160,0.7143,0.7048,0.6206,0.6002,0.5974,0.5818,3
45,154,838825010173,-10.3972,0.1076,0.1930,0.0910,-0.0690,-0.0990,1.1629,6745.9688,6535.0420,6723.6895,6759.4277,12.0615,0.0000,1.5259,-0.1831,0.6104,6.4938,-20.2335,-13.4764,0.0151,-0.0136,-0.0064,0.0000,0.0000,0.0000,0.0000,0.0000,0.0000,0.0000,0.0000,0.0100,0.0000,0.0000,0.0000,0.0000,0.0100,1.0000,0.0000,0.0000,0.0000,0.0000,0.0000,0.0000,0.0000,0.0000,0.0100,0.0000,0.0000,-0.0000,-0.0281,0.0005,0.0177,0.0000,0.0000,-0.6000,0.7301,0.7189,0.7126,0.7020,0.6232,0.6049,0.5946,0.5773,3
46,155,838829881252,-10.3972,0.1076,0.1930,0.0910,-0.0690,-0.0990,1.1629,6802.2993,6535.0420,6723.6895,6759.4277,12.0607,0.0000,1.4648,1.1597,-0.1831,5.7502,-19.5431,-17.3718,0.0171,-0.0128,-0.0064,0.0000,0.0000,0.0000,0.0000,0.0000,0.0000,0.0000,0.0000,0.0100,0.0000,0.0000,0.0000,0.0000,0.0100,1.0000,0.0000,0.0000,0.0000,0.0000,0.0000,0.0000,0.0000,0.0000,0.0100,0.0000,0.0000,-0.0000,-0.0331,-0.0030,0.0181,0.0000,0.0000,-0.6000,0.7306,0.7214,0.7123,0.6993,0.6241,0.6090,0.5940,0.5729,3
47,156,838834873446,-10.3972,0.1076,0.1930,0.0910,-0.0690,-0.0990,1.1629,6802.2993,6535.0420,6723.6895,6759.4277,12.0615,0.0000,0.7935,1.4038,-0.0000,3.1154,-16.4050,-15.4289,0.0190,-0.0121,-0.0064,0.0000,0.0000,0.0000,0.0000,0.0000,0.0000,0.0000,0.0000,0.0100,0.0000,0.0000,0.0000,0.0000,0.0100,1.0000,0.0000,0.0000,0.0000,0.0000,0.0000,0.0000,0.0000,0.0000,0.0100,0.0000,0.0000,-0.0000,-0.0359,-0.0053,0.0183,0.0000,0.0000,-0.6000,0.7309,0.7229,0.7121,0.6976,0.6244,0.6114,0.5938,0.5703,3
48,157,838846119516,-10.3968,0.1348,0.1754,0.0910,-0.0690,-0.0990,1.1629,6802.2993,6715.7295,6653.7104,6520.4385,12.0622,0.0000,1.3428,1.7090,-0.1221,-1.4035,-11.2363,-11.7841,0.0207,-0.0116,-0.0065,0.0000,0.0000,0.0000,0.0000,0.0000,0.0000,0.0000,0.0000,0.0100,0.0000,0.0000,0.0000,0.0000,0.0100,1.0000,0.0000,0.0000,0.0000,0.0000,0.0000,0.0000,0.0000,0.0000,0.0100,0.0000,0.0000,-0.0000,-0.0364,-0.0054,0.0185,0.0000,0.0000,-0.6000,0.7310,0.7230,0.7121,0.6974,0.6247,0.6117,0.5938,0.5699,3
49,158,838847655883,-10.3968,0.1348,0.1754,0.0910,-0.0690,-0.0990,1.1629,6802.2993,6715.7295,6653.7104,6520.4385,12.0629,0.0000,0.8545,2.1973,-0.1831,-5.1453,-5.4899,-7.0843,0.0219,-0.0116,-0.0065,0.0000,0.0000,0.0000,0.0000,0.0000,0.0000,0.0000,0.0000,0.0100,0.0000,0.0000,0.0000,0.0000,0.0100,1.0000,0.0000,0.0000,0.0000,0.0000,0.0000,0.0000,0.0000,0.0000,0.0100,0.0000,0.0000,-0.0000,-0.0336,-0.0032,0.0186,0.0000,0.0000,-0.6000,0.7309,0.7215,0.7123,0.6989,0.6245,0.6091,0.5941,0.5723,3
50,159,838850017387,-10.3968,0.1348,0.1754,0.0910,-0.0690,-0.0990,1.1629,6802.2993,6715.7295,6653.7104,6520.4385,12.0617,0.0000,1.3428,-0.3052,-0.8545,-10.3193,0.8894,-2.3033,0.0225,-0.0121,-0.0066,0.0000,0.0000,0.0000,0.0000,0.0000,0.0000,0.0000,0.0000,0.0100,0.0000,0.0000,0.0000,0.0000,0.0100,1.0000,0.0000,0.0000,0.0000,0.0000,0.0000,0.0000,0.0000,0.0000,0.0100,0.0000,0.0000,-0.0000,-0.0289,0.0019,0.0192,0.0000,0.0000,-0.6000,0.7312,0.7183,0.7124,0.7018,0.6250,0.6038,0.5942,0.5769,3
51,160,838871730053,-10.3968,0.1348,0.1754,0.0910,-0.0690,-0.0990,1.1629,6824.3545,6709.6289,6655.9111,6558.1548,12.0612,0.0000,0.9766,-0.8545,-0.2441,-12.0073,7.9616,-0.2697,0.0225,-0.0131,-0.0066,0.0000,0.0000,0.0000,0.0000,0.0000,0.0000,0.0000,0.0000,0.0100,0.0000,0.0000,0.0000,0.0000,0.0100,1.0000,0.0000,0.0000,0.0000,0.0000,0.0000,0.0000,0.0000,0.0000,0.0100,0.0000,0.0000,-0.0000,-0.0218,0.0089,0.0193,0.0000,0.0000,-0.6000,0.7312,0.7140,0.7124,0.7060,0.6250,0.5968,0.5943,0.5839,3
52,161,838874834576,-10.3968,0.1348,0.1754,0.0910,-0.0690,-0.0990,1.1629,6824.3545,6709.6289,6655.9111,6558.1548,12.0610,0.0000,-0.0610,-1.7090,-0.3052,-4.4974,17.9944,-3.2772,0.0190,-0.0167,-0.0067,0.0000,0.0000,0.0000,0.0000,0.0000,0.0000,0.0000,0.0000,0.0100,0.0000,0.0000,0.0000,0.0000,0.0100,1.0000,0.0000,0.0000,0.0000,0.0000,0.0000,0.0000,0.0000,0.0000,0.0100,0.0000,0.0000,-0.0000,0.0043,0.0290,0.0198,0.0000,0.0000,-0.6000,0.7295,0.6996,0.7144,0.7200,0.6223,0.5734,0.5976,0.6068,3
53,162,838880784103,-10.3968,0.1348,0.1754,0.0910,-0.0690,-0.0990,1.1629,6824.3545,6709.6289,6655.9111,6558.1548,12.0602,0.0000,-0.0610,-0.1221,0.3052,2.4388,15.6858,-11.8342,0.0155,-0.0173,-0.0066,0.0000,0.0000,0.0000,0.0000,0.0000,0.0000,0.0000,0.0000,0.0100,0.0000,0.0000,0.0000,0.0000,0.0100,1.0000,0.0000,0.0000,0.0000,0.0000,0.0000,0.0000,0.0000,0.0000,0.0100,0.0000,0.0000,-0.0000,0.0224,0.0248,0.0187,0.0000,0.0000,-0.6000,0.7224,0.6955,0.7209,0.7246,0.6106,0.5671,0.6081,0.6143,3
54,163,838884877916,-10.3968,0.1348,0.1754,0.0910,-0.0690,-0.0990,1.1629,6824.3545,6709.6289,6655.9111,6558.1548,12.0590,0.0000,-1.2817,0.7935,1.5259,3.6223,14.0963,-15.3143,0.0139,-0.0170,-0.0064,0.0000,0.0000,0.0000,0.0000,0.0000,0.0000,0.0000,0.0000,0.0100,0.0000,0.0000,0.0000,0.0000,0.0100,1.0000,0.0000,0.0000,0.0000,0.0000,0.0000,0.0000,0.0000,0.0000,0.0100,0.0000,0.0000,-0.0000,0.0239,0.0165,0.0173,0.0000,0.0000,-0.6000,0.7189,0.6982,0.7235,0.7230,0.6049,0.5711,0.6123,0.6116,3
55,164,838895723937,-10.3968,0.1348,0.1754,0.0910,-0.0690,-0.0990,1.1629,6824.3545,6709.6289,6655.9111,6558.1548,12.0573,0.0000,-1.5869,1.2817,1.3428,2.9289,6.9571,-16.4099,0.0111,-0.0158,-0.0062,0.0000,0.0000,0.0000,0.0000,0.0000,0.0000,0.0000,0.0000,0.0100,0.0000,0.0000,0.0000,0.0000,0.0100,1.0000,0.0000,0.0000,0.0000,0.0000,0.0000,0.0000,0.0000,0.0000,0.0100,0.0000,0.0000,-0.0000,0.0324,0.0054,0.0157,0.0000,0.0000,-0.6000,0.7125,0.6995,0.7290,0.7227,0.5944,0.5732,0.6213,0.6110,3
56,165,838899900160,-10.3968,0.1348,0.1754,0.0910,-0.0690,-0.0990,1.1629,6824.3545,6709.6289,6655.9111,6558.1548,12.0559,0.0000,-2.5024,0.9766,0.4883,2.4340,3.7470,-14.1065,0.0102,-0.0154,-0.0062,0.0000,0.0000,0.0000,0.0000,0.0000,0.0000,0.0000,0.0000,0.0100,0.0000,0.0000,0.0000,0.0000,0.0100,1.0000,0.0000,0.0000,0.0000,0.0000,0.0000,0.0000,0.0000,0.0000,0.0100,0.0000,0.0000,-0.0000,0.0267,0.0027,0.0155,0.0000,0.0000,-0.6000,0.7133,0.7022,0.7280,0.7201,0.5957,0.5776,0.6198,0.6069,3
57,166,838905193994,-10.3968,0.1348,0.1754,0.0910,-0.0690,-0.0990,1.1629,6824.3545,6709.6289,6655.9111,6558.1548,12.0552,0.0000,-1.3428,-0.0610,-0.0000,2.4459,-2.5795,-11.5621,0.0097,-0.0151,-0.0062,0.0000,0.0000,0.0000,0.0000,0.0000,0.0000,0.0000,0.0000,0.0100,0.0000,0.0000,0.0000,0.0000,0.0100,1.0000,0.0000,0.0000,0.0000,0.0000,0.0000,0.0000,0.0000,0.0000,0.0100,0.0000,0.0000,-0.0000,0.0204,0.0016,0.0158,0.0000,0.0000,-0.6000,0.7150,0.7043,0.7265,0.7178,0.5985,0.5811,0.6173,0.6031,3
58,167,838909886588,-10.3968,0.1348,0.1754,0.0910,-0.0690,-0.0990,1.1629,6824.3545,6709.6289,6655.9111,6558.1548,12.0537,0.0000,-1.8311,-1.5259,-0.1831,2.6276,-6.8300,-11.6981,0.0098,-0.0150,-0.0062,0.0000,0.0000,0.0000,0.0000,0.0000,0.0000,0.0000,0.0000,0.0100,0.0000,0.0000,0.0000,0.0000,0.0100,1.0000,0.0000,0.0000,0.0000,0.0000,0.0000,0.0000,0.0000,0.0000,0.0100,0.0000,0.0000,-0.0000,0.0126,0.0016,0.0162,0.0000,0.0000,-0.6000,0.7175,0.7066,0.7242,0.7153,0.6026,0.5848,0.6136,0.5990,3
59,168,838914923986,-10.3968,0.1348,0.1754,0.0910,-0.0690,-0.0990,1.1629,6824.3545,6709.6289,6655.9111,6558.1548,12.0527,0.0000,-0.9155,-1.9531,-0.3662,4.8919,-12.1929,-13.7389,0.0103,-0.0149,-0.0063,0.0000,0.0000,0.0000,0.0000,0.0000,0.0000,0.0000,0.0000,0.0100,0.0000,0.0000,0.0000,0.0000,0.0100,1.0000,0.0000,0.0000,0.0000,0.0000,0.0000,0.0000,0.0000,0.0000,0.0100,0.0000,0.0000,-0.0000,0.0043,0.0018,0.0168,0.0000,0.0000,-0.6000,0.7203,0.7089,0.7218,0.7126,0.6071,0.5886,0.6096,0.5947,3
60,169,838919849394,-10.3968,0.1348,0.1754,0.0910,-0.0690,-0.0990,1.1629,6824.3545,6709.6289,6655.9111,6558.1548,12.0523,0.0000,-0.0610,-2.0752,-1.0376,7.8519,-15.1368,-17.9518,0.0115,-0.0146,-0.0064,0.0000,0.0000,0.0000,0.0000,0.0000,0.0000,0.0000,0.0000,0.0100,0.0000,0.0000,0.0000,0.0000,0.0100,1.0000,0.0000,0.0000,0.0000,0.0000,0.0000,0.0000,0.0000,0.0000,0.0100,0.0000,0.0000,-0.0000,-0.0050,0.0006,0.0178,0.0000,0.0000,-0.6000,0.7231,0.7118,0.7197,0.7091,0.6117,0.5933,0.6061,0.5889,3
61,170,838925627395,-10.3968,0.1348,0.1754,0.0910,-0.0690,-0.0990,1.1629,6824.3545,6709.6289,6655.9111,6558.1548,12.0508,0.0000,0.3662,-1.2207,-0.1831,8.8752,-17.4047,-23.8164,0.0130,-0.0139,-0.0064,0.0000,0.0000,0.0000,0.0000,0.0000,0.0000,0.0000,0.0000,0.0100,0.0000,0.0000,0.0000,0.0000,0.0100,1.0000,0.0000,0.0000,0.0000,0.0000,0.0000,0.0000,0.0000,0.0000,0.0100,0.0000,0.0000,-0.0000,-0.0134,-0.0024,0.0182,0.0000,0.0000,-0.6000,0.7248,0.7152,0.7181,0.7055,0.6146,0.5988,0.6036,0.5830,3
62,171,838930021057,-10.3968,0.1348,0.1754,0.0910,-0.0690,-0.0990,1.1629,6824.3545,6709.6289,6655.9111,6558.1548,12.0498,0.0000,1.2207,0.3052,-0.7935,7.2589,-19.0492,-29.4065,0.0147,-0.0130,-0.0065,0.0000,0.0000,0.0000,0.0000,0.0000,0.0000,0.0000,0.0000,0.0100,0.0000,0.0000,0.0000,0.0000,0.0100,1.0000,0.0000,0.0000,0.0000,0.0000,0.0000,0.0000,0.0000,0.0000,0.0100,0.0000,0.0000,-0.0000,-0.0210,-0.0061,0.0189,0.0000,0.0000,-0.6000,0.7263,0.7184,0.7171,0.7018,0.6169,0.6041,0.6020,0.5770,3
63,172,838934915134,-10.3968,0.1348,0.1754,0.0910,-0.0690,-0.0990,1.1629,6824.3545,6709.6289,6655.9111,6558.1548,12.0489,0.0000,1.8921,1.1597,0.1831,4.4759,-18.7256,-31.4855,0.0167,-0.0121,-0.0065,0.0000,0.0000,0.0000,0.0000,0.0000,0.0000,0.0000,0.0000,0.0100,0.0000,0.0000,0.0000,0.0000,0.0100,1.0000,0.0000,0.0000,0.0000,0.0000,0.0000,0.0000,0.0000,0.0000,0.0100,0.0000,0.0000,-0.0000,-0.0276,-0.0082,0.0189,0.0000,0.0000,-0.6000,0.7276,0.7211,0.7157,0.6991,0.6191,0.6084,0.5997,0.5727,3
64,173,838940829748,-10.3968,0.1348,0.1754,0.0910,-0.0690,-0.0990,1.1629,6824.3545,6709.6289,6655.9111,6558.1548,12.0477,0.0000,1.3428,0.7935,-0.0000,1.6689,-14.0436,-26.4849,0.0186,-0.0116,-0.0065,0.0000,0.0000,0.0000,0.0000,0.0000,0.0000,0.0000,0.0000,0.0100,0.0000,0.0000,0.0000,0.0000,0.0100,1.0000,0.0000,0.0000,0.0000,0.0000,0.0000,0.0000,0.0000,0.0000,0.0100,0.0000,0.0000,-0.0000,-0.0317,-0.0078,0.0189,0.0000,0.0000,-0.6000,0.7290,0.7222,0.7144,0.6979,0.6214,0.6103,0.5975,0.5707,3
65,174,838944907854,-10.3968,0.1348,0.1754,0.0910,-0.0690,-0.0990,1.1629,6824.3545,6709.6289,6655.9111,6558.1548,12.0469,0.0000,1.3428,1.7700,0.2441,-2.5990,-9.3424,-13.8917,0.0200,-0.0112,-0.0065,0.0000,0.0000,0.0000,0.0000,0.0000,0.0000,0.0000,0.0000,0.0100,0.0000,0.0000,0.0000,0.0000,0.0100,1.0000,0.0000,0.0000,0.0000,0.0000,0.0000,0.0000,0.0000,0.0000,0.0100,0.0000,0.0000,-0.0000,-0.0320,-0.0065,0.0188,0.0000,0.0000,-0.6000,0.7295,0.7220,0.7138,0.6983,0.6222,0.6099,0.5966,0.5713,3
66,175,838949839011,-10.3968,0.1348,0.1754,0.0910,-0.0690,-0.0990,1.1629,6824.3545,6709.6289,6655.9111,6558.1548,12.0462,0.0000,0.8545,0.6714,-0.1221,-7.4884,-3.7734,3.5994,0.0210,-0.0114,-0.0066,0.0000,0.0000,0.0000,0.0000,0.0000,0.0000,0.0000,0.0000,0.0100,0.0000,0.0000,0.0000,0.0000,0.0100,1.0000,0.0000,0.0000,0.0000,0.0000,0.0000,0.0000,0.0000,0.0000,0.0100,0.0000,0.0000,-0.0000,-0.0295,-0.0024,0.0189,0.0000,0.0000,-0.6000,0.7300,0.7199,0.7134,0.7003,0.6230,0.6065,0.5959,0.5746,3
67,176,838954878200,-10.3968,0.1348,0.1754,0.0910,-0.0690,-0.0990,1.1629,6824.3545,6709.6289,6655.9111,6558.1548,12.0440,0.0000,0.1831,0.3052,-0.0000,-12.3038,1.1291,21.1383,0.0213,-0.0121,-0.0066,0.0000,0.0000,0.0000,0.0000,0.0000,0.0000,0.0000,0.0000,0.0100,0.0000,0.0000,0.0000,0.0000,0.0100,1.0000,0.0000,0.0000,0.0000,0.0000,0.0000,0.0000,0.0000,0.0000,0.0100,0.0000,0.0000,-0.0000,-0.0244,0.0035,0.0188,0.0000,0.0000,-0.6000,0.7302,0.7165,0.7131,0.7038,0.6234,0.6010,0.5954,0.5802,3
68,177,838960227405,-10.3968,0.1348,0.1754,0.0910,-0.0690,-0.0990,1.1629,6824.3545,6709.6289,6655.9111,6558.1548,12.0428,0.0000,0.8545,0.1831,-0.4272,-12.6266,7.1560,36.0802,0.0214,-0.0133,-0.0066,0.0000,0.0000,0.0000,0.0000,0.0000,0.0000,0.0000,0.0000,0.0100,0.0000,0.0000,0.0000,0.0000,0.0100,1.0000,0.0000,0.0000,0.0000,0.0000,0.0000,0.0000,0.0000,0.0000,0.0100,0.0000,0.0000,-0.0000,-0.0187,0.0107,0.0191,0.0000,0.0000,-0.6000,0.7307,0.7125,0.7127,0.7076,0.6242,0.5945,0.5948,0.5865,3
69,178,838964817091,-10.3968,0.1348,0.1754,0.0910,-0.0690,-0.0990,1.1629,6824.3545,6709.6289,6655.9111,6558.1548,12.0414,0.0000,0.6104,-0.3052,0.1221,-13.5854,11.9699,43.0356,0.0208,-0.0146,-0.0066,0.0000,0.0000,0.0000,0.0000,0.0000,0.0000,0.0000,0.0000,0.0100,0.0000,0.0000,0.0000,0.0000,0.0100,1.0000,0.0000,0.0000,0.0000,0.0000,0.0000,0.0000,0.0000,0.0000,0.0100,0.0000,0.0000,-0.0000,-0.0113,0.0163,0.0188,0.0000,0.0000,-0.6000,0.7301,0.7086,0.7132,0.7117,0.6232,0.5881,0.5956,0.5931,3
70,179,838969768039,-10.3968,0.1348,0.1754,0.0910,-0.0690,-0.0990,1.1629,6824.3545,6709.6289,6655.9111,6558.1548,12.0414,0.0000,0.7935,-1.9531,-0.2441,-12.7318,15.3430,38.7416,0.0198,-0.0161,-0.0066,0.0000,0.0000,0.0000,0.0000,0.0000,0.0000,0.0000,0.0000,0.0100,0.0000,0.0000,0.0000,0.0000,0.0100,1.0000,0.0000,0.0000,0.0000,0.0000,0.0000,0.0000,0.0000,0.0000,0.0100,0.0000,0.0000,-0.0000,-0.0036,0.0218,0.0189,0.0000,0.0000,-0.6000,0.7295,0.7045,0.7139,0.7157,0.6221,0.5814,0.5967,0.5997,3
71,180,838975616283,-10.3968,0.1348,0.1754,0.0910,-0.0690,-0.0990,1.1629,6824.3545,6709.6289,6655.9111,6558.1548,12.0411,0.0000,0.2441,-0.9155,-0.3662,-11.1059,17.4670,22.1909,0.0184,-0.0175,-0.0066,0.0000,0.0000,0.0000,0.0000,0.0000,0.0000,0.0000,0.0000,0.0100,0.0000,0.0000,0.0000,0.0000,0.0100,1.0000,0.0000,0.0000,0.0000,0.0000,0.0000,0.0000,0.0000,0.0000,0.0100,0.0000,0.0000,-0.0000,0.0041,0.0247,0.0189,0.0000,0.0000,-0.6000,0.7280,0.7013,0.7154,0.7189,0.6197,0.5761,0.5992,0.6050,3
72,181,838980132185,-10.3968,0.1348,0.1754,0.0910,-0.0690,-0.0990,1.1629,6824.3545,6709.6289,6655.9111,6558.1548,12.0409,0.0000,0.3052,-1.1597,-0.5493,-6.2332,18.5338,-3.5517,0.0168,-0.0187,-0.0067,0.0000,0.0000,0.0000,0.0000,0.0000,0.0000,0.0000,0.0000,0.0100,0.0000,0.0000,0.0000,0.0000,0.0100,1.0000,0.0000,0.0000,0.0000,0.0000,0.0000,0.0000,0.0000,0.0000,0.0100,0.0000,0.0000,-0.0000,0.0110,0.0258,0.0190,0.0000,0.0000,-0.6000,0.7263,0.6988,0.7172,0.7213,0.6169,0.5721,0.6021,0.6089,3
73,182,838984923979,-10.3968,0.1348,0.1754,0.0910,-0.0690,-0.0990,1.1629,6824.3545,6709.6289,6655.9111,6558.1548,12.0411,0.0000,-0.7324,-1.5869,0.8545,-1.9391,15.8296,-29.6810,0.0150,-0.0194,-0.0066,0.0000,0.0000,0.0000,0.0000,0.0000,0.0000,0.0000,0.0000,0.0100,0.0000,0.0000,0.0000,0.0000,0.0100,1.0000,0.0000,0.0000,0.0000,0.0000,0.0000,0.0000,0.0000,0.0000,0.0100,0.0000,0.0000,-0.0000,0.0173,0.0238,0.0181,0.0000,0.0000,-0.6000,0.7234,0.6977,0.7195,0.7229,0.6123,0.5705,0.6058,0.6115,3
74,183,838989837804,-10.3968,0.1348,0.1754,0.0910,-0.0690,-0.0990,1.1629,6824.3545,6709.6289,6655.9111,6558.1548,12.0409,0.0000,-1.4038,0.2441,0.1831,4.8130,10.5962,-50.4660,0.0133,-0.0195,-0.0065,0.0000,0.0000,0.0000,0.0000,0.0000,0.0000,0.0000,0.0000,0.0100,0.0000,0.0000,0.0000,0.0000,0.0100,1.0000,0.0000,0.0000,0.0000,0.0000,0.0000,0.0000,0.0000,0.0000,0.0100,0.0000,0.0000,-0.0000,0.0208,0.0186,0.0177,0.0000,0.0000,-0.6000,0.7207,0.6984,0.7220,0.7225,0.6078,0.5715,0.6100,0.6108,3
75,184,838995185550,-10.3968,0.1348,0.1754,0.0910,-0.0690,-0.0990,1.1629,6824.3545,6709.6289,6655.9111,6558.1548,12.0416,0.0000,-1.3428,-0.6104,1.0986,9.4753,5.4827,-62.8635,0.0121,-0.0190,-0.0064,0.0000,0.0000,0.0000,0.0000,0.0000,0.0000,0.0000,0.0000,0.0100,0.0000,0.0000,0.0000,0.0000,0.0100,1.0000,0.0000,0.0000,0.0000,0.0000,0.0000,0.0000,0.0000,0.0000,0.0100,0.0000,0.0000,-0.0000,0.0203,0.0113,0.0168,0.0000,0.0000,-0.6000,0.7183,0.7011,0.7238,0.7205,0.6039,0.5758,0.6129,0.6074,3
76,185,838999858855,-10.3968,0.1348,0.1754,0.0910,-0.0690,-0.0990,1.1629,6824.3545,6709.6289,6655.9111,6558.1548,12.0424,0.0000,-2.5635,-0.2441,1.0376,12.6314,-0.5634,-67.1074,0.0113,-0.0180,-0.0063,0.0000,0.0000,0.0000,0.0000,0.0000,0.0000,0.0000,0.0000,0.0100,0.0000,0.0000,0.0000,0.0000,0.0100,1.0000,0.0000,0.0000,0.0000,0.0000,0.0000,0.0000,0.0000,0.0000,0.0100,0.0000,0.0000,-0.0000,0.0179,0.0033,0.0161,0.0000,0.0000,-0.6000,0.7164,0.7045,0.7253,0.7174,0.6008,0.5814,0.6154,0.6025,3
77,186,839004810302,-10.3968,0.1348,0.1754,0.0910,-0.0690,-0.0990,1.1629,6824.3545,6709.6289,6655.9111,6558.1548,12.0424,0.0000,-2.4414,1.8311,0.2441,12.7629,-6.0509,-62.0687,0.0111,-0.0165,-0.0063,0.0000,0.0000,0.0000,0.0000,0.0000,0.0000,0.0000,0.0000,0.0100,0.0000,0.0000,0.0000,0.0000,0.0100,1.0000,0.0000,0.0000,0.0000,0.0000,0.0000,0.0000,0.0000,0.0000,0.0100,0.0000,0.0000,-0.0000,0.0126,-0.0053,0.0162,0.0000,0.0000,-0.6000,0.7154,0.7087,0.7264,0.7132,0.5991,0.5883,0.6171,0.5956,3
78,187,839009799413,-10.3968,0.1348,0.1754,0.0910,-0.0690,-0.0990,1.1629,6824.3545,6709.6289,6655.9111,6558.1548,12.0426,0.0000,-1.4038,1.9531,0.6104,11.6774,-11.3658,-48.0290,0.0115,-0.0150,-0.0062,0.0000,0.0000,0.0000,0.0000,0.0000,0.0000,0.0000,0.0000,0.0100,0.0000,0.0000,0.0000,0.0000,0.0100,1.0000,0.0000,0.0000,0.0000,0.0000,0.0000,0.0000,0.0000,0.0000,0.0100,0.0000,0.0000,-0.0000,0.0053,-0.0114,0.0160,0.0000,0.0000,-0.6000,0.7157,0.7129,0.7259,0.7091,0.5997,0.5950,0.6163,0.5890,3
79,188,839015199904,-10.3968,0.1348,0.1754,0.0910,-0.0690,-0.0990,1.1629,6824.3545,6709.6289,6655.9111,6558.1548,12.0421,0.0000,-1.0986,0.4883,-0.1831,10.1926,-12.0131,-28.3968,0.0124,-0.0137,-0.0063,0.0000,0.0000,0.0000,0.0000,0.0000,0.0000,0.0000,0.0000,0.0100,0.0000,0.0000,0.0000,0.0000,0.0100,1.0000,0.0000,0.0000,0.0000,0.0000,0.0000,0.0000,0.0000,0.0000,0.0100,0.0000,0.0000,-0.0000,-0.0031,-0.0141,0.0165,0.0000,0.0000,-0.6000,0.7176,0.7161,0.7243,0.7056,0.6028,0.6004,0.6137,0.5831,3
80,189,839019853544,-10.3968,0.1348,0.1754,0.0910,-0.0690,-0.0990,1.1629,6824.3545,6709.6289,6655.9111,6558.1548,12.0421,0.0000,-0.1221,0.6104,-0.6714,6.8190,-12.9672,-8.8172,0.0135,-0.0126,-0.0064,0.0000,0.0000,0.0000,0.0000,0.0000,0.0000,0.0000,0.0000,0.0100,0.0000,0.0000,0.0000,0.0000,0.0100,1.0000,0.0000,0.0000,0.0000,0.0000,0.0000,0.0000,0.0000,0.0000,0.0100,0.0000,0.0000,-0.0000,-0.0100,-0.0151,0.0173,0.0000,0.0000,-0.6000,0.7196,0.7183,0.7227,0.7029,0.6061,0.6039,0.6112,0.5788,3
81,190,839024868194,-10.3968,0.1348,0.1754,0.0610,-0.1090,-0.0890,1.1629,6824.3545,6709.6289,6655.9111,6558.1548,12.0424,0.0000,1.0986,-0.6104,-0.7935,2.5344,-14.6118,4.0744,0.0149,-0.0120,-0.0064,0.0000,0.0000,0.0000,0.0000,0.0000,0.0000,0.0000,0.0000,0.0100,0.0000,0.0000,0.0000,0.0000,0.0100,1.0000,0.0000,0.0000,0.0000,0.0000,0.0000,0.0000,0.0000,0.0000,0.0100,0.0000,0.0000,-0.0000,-0.0162,-0.0130,0.0181,0.0000,0.0000,-0.6000,0.7224,0.7193,0.7205,0.7014,0.6107,0.6056,0.6074,0.5764,3
82,191,839044400839,-10.4028,0.1911,0.1059,0.0610,-0.1090,-0.0890,1.1629,6724.0024,6720.8906,6731.3228,6556.6147,12.0421,0.0000,1.9531,-0.5493,-0.4883,0.1769,-13.2117,10.3114,0.0165,-0.0118,-0.0065,0.0000,0.0000,0.0000,0.0000,0.0000,0.0000,0.0000,0.0000,0.0100,0.0000,0.0000,0.0000,0.0000,0.0100,1.0000,0.0000,0.0000,0.0000,0.0000,0.0000,0.0000,0.0000,0.0000,0.0100,0.0000,0.0000,-0.0000,-0.0221,-0.0090,0.0186,0.0000,0.0000,-0.6000,0.7256,0.7197,0.7176,0.7007,0.6158,0.6062,0.6028,0.5751,3
83,192,839047387539,-10.4028,0.1911,0.1059,0.0610,-0.1090,-0.0890,1.1629,6724.0024,6720.8906,6731.3228,6556.6147,12.0414,0.0000,1.3428,0.1221,0.1221,-8.4161,-3.7758,12.8367,0.0199,-0.0127,-0.0066,0.0000,0.0000,0.0000,0.0000,0.0000,0.0000,0.0000,0.0000,0.0100,0.0000,0.0000,0.0000,0.0000,0.0100,1.0000,0.0000,0.0000,0.0000,0.0000,0.0000,0.0000,0.0000,0.0000,0.0100,0.0000,0.0000,-0.0000,-0.0375,0.0002,0.0195,0.0000,0.0000,-0.6000,0.7334,0.7214,0.7103,0.6984,0.6286,0.6089,0.5909,0.5716,3
84,193,839049858659,-10.4028,0.1911,0.1059,0.0610,-0.1090,-0.0890,1.1629,6724.0024,6720.8906,6731.3228,6556.6147,12.0409,0.0000,0.9155,-0.2441,0.1831,-9.0354,0.0336,12.7030,0.0204,-0.0136,-0.0066,0.0000,0.0000,0.0000,0.0000,0.0000,0.0000,0.0000,0.0000,0.0100,0.0000,0.0000,0.0000,0.0000,0.0100,1.0000,0.0000,0.0000,0.0000,0.0000,0.0000,0.0000,0.0000,0.0000,0.0100,0.0000,0.0000,-0.0000,-0.0304,0.0064,0.0193,0.0000,0.0000,-0.6000,0.7330,0.7174,0.7105,0.7027,0.6280,0.6024,0.5913,0.5784,3
85,194,839054867768,-10.4028,0.1911,0.1059,0.0610,-0.1090,-0.0890,1.1629,6777.7183,6720.8906,6731.3228,6556.6147,12.0399,0.0000,0.5493,0.3052,1.3428,-9.9822,2.9439,14.7104,0.0205,-0.0144,-0.0065,0.0000,0.0000,0.0000,0.0000,0.0000,0.0000,0.0000,0.0000,0.0100,0.0000,0.0000,0.0000,0.0000,0.0100,1.0000,0.0000,0.0000,0.0000,0.0000,0.0000,0.0000,0.0000,0.0000,0.0100,0.0000,0.0000,-0.0000,-0.0231,0.0108,0.0181,0.0000,0.0000,-0.6000,0.7318,0.7141,0.7111,0.7066,0.6260,0.5971,0.5922,0.5848,3
86,195,839059819590,-10.4028,0.1911,0.1059,0.0610,-0.1090,-0.0890,1.1629,6777.7183,6720.8906,6731.3228,6556.6147,12.0399,0.0000,-0.1221,0.0000,-0.1221,-9.8029,4.1762,15.8299,0.0202,-0.0154,-0.0065,0.0000,0.0000,0.0000,0.0000,0.0000,0.0000,0.0000,0.0000,0.0100,0.0000,0.0000,0.0000,0.0000,0.0100,1.0000,0.0000,0.0000,0.0000,0.0000,0.0000,0.0000,0.0000,0.0000,0.0100,0.0000,0.0000,-0.0000,-0.0160,0.0145,0.0182,0.0000,0.0000,-0.6000,0.7308,0.7108,0.7121,0.7099,0.6244,0.5916,0.5938,0.5902,3
87,196,839071446752,-10.4028,0.1911,0.1059,0.0610,-0.1090,-0.0890,1.1629,6777.7183,6703.2148,6655.4097,6634.7744,12.0404,0.0000,-0.7324,-0.6104,0.7935,-10.0444,5.6457,13.6077,0.0198,-0.0164,-0.0064,0.0000,0.0000,0.0000,0.0000,0.0000,0.0000,0.0000,0.0000,0.0100,0.0000,0.0000,0.0000,0.0000,0.0100,1.0000,0.0000,0.0000,0.0000,0.0000,0.0000,0.0000,0.0000,0.0000,0.0100,0.0000,0.0000,-0.0000,-0.0102,0.0175,0.0176,0.0000,0.0000,-0.6000,0.7298,0.7083,0.7128,0.7128,0.6226,0.5875,0.5950,0.5949,3
88,197,839072947914,-10.4028,0.1911,0.1059,0.0610,-0.1090,-0.0890,1.1629,6777.7183,6703.2148,6655.4097,6634.7744,12.0404,0.0000,-0.0610,-2.1362,-0.7324,-5.2505,7.1680,6.2131,0.0193,-0.0176,-0.0065,0.0000,0.0000,0.0000,0.0000,0.0000,0.0000,0.0000,0.0000,0.0100,0.0000,0.0000,0.0000,0.0000,0.0100,1.0000,0.0000,0.0000,0.0000,0.0000,0.0000,0.0000,0.0000,0.0000,0.0100,0.0000,0.0000,-0.0000,-0.0056,0.0205,0.0182,0.0000,0.0000,-0.6000,0.7295,0.7058,0.7135,0.7149,0.6222,0.5834,0.5960,0.5984,3
89,198,839074876164,-10.4028,0.1911,0.1059,0.0610,-0.1090,-0.0890,1.1629,6777.7183,6703.2148,6655.4097,6634.7744,12.0402,0.0000,-0.3662,-0.9155,-0.0610,-0.6216,11.1812,-5.5447,0.0186,-0.0182,-0.0065,0.0000,0.0000,0.0000,0.0000,0.0000,0.0000,0.0000,0.0000,0.0100,0.0000,0.0000,0.0000,0.0000,0.0100,1.0000,0.0000,0.0000,0.0000,0.0000,0.0000,0.0000,0.0000,0.0000,0.0100,0.0000,0.0000,-0.0000,-0.0013,0.0192,0.0182,0.0000,0.0000,-0.6000,0.7277,0.7048,0.7152,0.7158,0.6193,0.5819,0.5988,0.5999,3
90,199,839080422809,-10.4028,0.1911,0.1059,0.0610,-0.1090,-0.0890,1.1629,6777.7183,6703.2148,6655.4097,6634.7744,12.0399,0.0000,0.3052,-3.2349,-2.0752,1.6330,11.3154,-24.3057,0.0175,-0.0185,-0.0067,0.0000,0.0000,0.0000,0.0000,0.0000,0.0000,0.0000,0.0000,0.0100,0.0000,0.0000,0.0000,0.0000,0.0100,1.0000,0.0000,0.0000,0.0000,0.0000,0.0000,0.0000,0.0000,0.0000,0.0100,0.0000,0.0000,-0.0000,0.0039,0.0168,0.0196,0.0000,0.0000,-0.6000,0.7259,0.7036,0.7180,0.7162,0.6162,0.5799,0.6034,0.6005,3
91,200,839084894506,-10.4028,0.1911,0.1059,0.0610,-0.1090,-0.0890,1.1629,6777.7183,6703.2148,6655.4097,6634.7744,12.0404,0.0000,-0.3662,0.1221,-0.2441,6.5990,12.0538,-39.8611,0.0164,-0.0183,-0.0067,0.0000,0.0000,0.0000,0.0000,0.0000,0.0000,0.0000,0.0000,0.0100,0.0000,0.0000,0.0000,0.0000,0.0100,1.0000,0.0000,0.0000,0.0000,0.0000,0.0000,0.0000,0.0000,0.0000,0.0100,0.0000,0.0000,-0.0000,0.0082,0.0117,0.0195,0.0000,0.0000,-0.6000,0.7230,0.7038,0.7208,0.7160,0.6115,0.5803,0.6079,0.6002,3
92,201,839089844037,-10.4028,0.1911,0.1059,0.0610,-0.1090,-0.0890,1.1629,6777.7183,6703.2148,6655.4097,6634.7744,12.0407,0.0000,-0.2441,0.0610,-1.3428,8.8608,10.7904,-56.6505,0.0151,-0.0176,-0.0068,0.0000,0.0000,0.0000,0.0000,0.0000,0.0000,0.0000,0.0000,0.0100,0.0000,0.0000,0.0000,0.0000,0.0100,1.0000,0.0000,0.0000,0.0000,0.0000,0.0000,0.0000,0.0000,0.0000,0.0100,0.0000,0.0000,-0.0000,0.0117,0.0052,0.0202,0.0000,0.0000,-0.6000,0.7201,0.7045,0.7241,0.7149,0.6069,0.5814,0.6133,0.5984,3
93,202,839095131455,-10.4028,0.1911,0.1059,0.0610,-0.1090,-0.0890,1.1629,6777.7183,6703.2148,6655.4097,6634.7744,12.0399,0.0000,-1.5259,-1.2207,-0.3052,10.0659,10.6346,-66.1192,0.0139,-0.0167,-0.0068,0.0000,0.0000,0.0000,0.0000,0.0000,0.0000,0.0000,0.0000,0.0100,0.0000,0.0000,0.0000,0.0000,0.0100,1.0000,0.0000,0.0000,0.0000,0.0000,0.0000,0.0000,0.0000,0.0000,0.0100,0.0000,0.0000,-0.0000,0.0143,-0.0000,0.0201,0.0000,0.0000,-0.6000,0.7177,0.7054,0.7264,0.7141,0.6029,0.5829,0.6172,0.5971,3
94,203,839099803260,-10.4028,0.1911,0.1059,0.0610,-0.1090,-0.0890,1.1629,6777.7183,6703.2148,6655.4097,6634.7744,12.0392,0.0000,-1.7090,1.7700,0.7324,10.6421,6.2475,-65.8042,0.0126,-0.0155,-0.0067,0.0000,0.0000,0.0000,0.0000,0.0000,0.0000,0.0000,0.0000,0.0100,0.0000,0.0000,0.0000,0.0000,0.0100,1.0000,0.0000,0.0000,0.0000,0.0000,0.0000,0.0000,0.0000,0.0000,0.0100,0.0000,0.0000,-0.0000,0.0162,-0.0061,0.0192,0.0000,0.0000,-0.6000,0.7149,0.7069,0.7286,0.7131,0.5984,0.5854,0.6208,0.5954,3
95,204,839104800411,-10.4028,0.1911,0.1059,0.0610,-0.1090,-0.0890,1.1629,6777.7183,6703.2148,6655.4097,6634.7744,12.0387,0.0000,-1.8921,2.0142,0.3052,12.9183,1.3449,-56.0800,0.0118,-0.0142,-0.0067,0.0000,0.0000,0.0000,0.0000,0.0000,0.0000,0.0000,0.0000,0.0100,0.0000,0.0000,0.0000,0.0000,0.0100,1.0000,0.0000,0.0000,0.0000,0.0000,0.0000,0.0000,0.0000,0.0000,0.0100,0.0000,0.0000,-0.0000,0.0151,-0.0108,0.0188,0.0000,0.0000,-0.6000,0.7137,0.7088,0.7296,0.7115,0.5964,0.5884,0.6224,0.5927,3
96,205,839109829851,-10.4028,0.1911,0.1059,0.0610,-0.1090,-0.0890,1.1629,6777.7183,6703.2148,6655.4097,6634.7744,12.0390,0.0000,-1.9531,1.7700,1.1597,7.7849,-4.7659,-32.5142,0.0114,-0.0127,-0.0066,0.0000,0.0000,0.0000,0.0000,0.0000,0.0000,0.0000,0.0000,0.0100,0.0000,0.0000,0.0000,0.0000,0.0100,1.0000,0.0000,0.0000,0.0000,0.0000,0.0000,0.0000,0.0000,0.0000,0.0100,0.0000,0.0000,-0.0000,0.0115,-0.0152,0.0179,0.0000,0.0000,-0.6000,0.7132,0.7115,0.7296,0.7093,0.5956,0.5929,0.6223,0.5892,3
97,206,839114823503,-10.4028,0.1911,0.1059,0.0610,-0.1090,-0.0890,1.1629,6777.7183,6703.2148,6655.4097,6634.7744,12.0382,0.0000,-1.9531,1.8311,0.7324,6.4006,-8.9588,-4.1436,0.0117,-0.0117,-0.0065,0.0000,0.0000,0.0000,0.0000,0.0000,0.0000,0.0000,0.0000,0.0100,0.0000,0.0000,0.0000,0.0000,0.0100,1.0000,0.0000,0.0000,0.0000,0.0000,0.0000,0.0000,0.0000,0.0000,0.0100,0.0000,0.0000,-0.0000,0.0054,-0.0152,0.0175,0.0000,0.0000,-0.6000,0.7150,0.7136,0.7275,0.7075,0.5985,0.5962,0.6190,0.5863,3
98,207,839120192498,-10.4028,0.1911,0.1059,0.0610,-0.1090,-0.0890,1.1629,6777.7183,6703.2148,6655.4097,6634.7744,12.0375,0.0000,-0.9155,2.3193,1.3428,-0.0120,-14.6381,22.8306,0.0125,-0.0109,-0.0064,0.0000,0.0000,0.0000,0.0000,0.0000,0.0000,0.0000,0.0000,0.0100,0.0000,0.0000,0.0000,0.0000,0.0100,1.0000,0.0000,0.0000,0.0000,0.0000,0.0000,0.0000,0.0000,0.0000,0.0100,0.0000,0.0000,-0.0000,-0.0021,-0.0145,0.0167,0.0000,0.0000,-0.6000,0.7172,0.7159,0.7248,0.7057,0.6022,0.5999,0.6145,0.5834,3
99,208,839124909965,-10.4028,0.1911,0.1059,0.0610,-0.1090,-0.0890,1.1629,6777.7183,6703.2148,6655.4097,6634.7744,12.0375,0.0000,0.4883,0.2441,-0.1221,-3.9116,-19.0924,42.6800,0.0140,-0.0109,-0.0065,0.0000,0.0000,0.0000,0.0000,0.0000,0.0000,0.0000,0.0000,0.0100,0.0000,0.0000,0.0000,0.0000,0.0100,1.0000,0.0000,0.0000,0.0000,0.0000,0.0000,0.0000,0.0000,0.0000,0.0100,0.0000,0.0000,-0.0000,-0.0115,-0.0090,0.0171,0.0000,0.0000,-0.6000,0.7219,0.7169,0.7204,0.7044,0.6098,0.6017,0.6073,0.5812,3
100,209,839131453774,-10.4028,0.1911,0.1059,0.0610,-0.1090,-0.0890,1.1629,6777.7183,6703.2148,6655.4097,6634.7744,12.0373,0.0000,2.9297,-1.8311,0.8545,-7.8040,-21.0534,49.2797,0.0161,-0.0114,-0.0064,0.0000,0.0000,0.0000,0.0000,0.0000,0.0000,0.0000,0.0000,0.0100,0.0000,0.0000,0.0000,0.0000,0.0100,1.0000,0.0000,0.0000,0.0000,0.0000,0.0000,0.0000,0.0000,0.0000,0.0100,0.0000,0.0000,-0.0000,-0.0223,-0.0017,0.0169,0.0000,0.0000,-0.6000,0.7274,0.7181,0.7148,0.7034,0.6187,0.6035,0.5981,0.5796,3
101,210,839134905101,-10.4028,0.1911,0.1059,0.0610,-0.1090,-0.0890,1.1629,6777.7183,6703.2148,6655.4097,6634.7744,12.0375,0.0000,3.3569,1.2207,-0.4883,-9.5231,-18.1215,48.3679,0.0185,-0.0121,-0.0065,0.0000,0.0000,0.0000,0.0000,0.0000,0.0000,0.0000,0.0000,0.0100,0.0000,0.0000,0.0000,0.0000,0.0100,1.0000,0.0000,0.0000,0.0000,0.0000,0.0000,0.0000,0.0000,0.0000,0.0100,0.0000,0.0000,-0.0000,-0.0313,0.0041,0.0176,0.0000,0.0000,-0.6000,0.7321,0.7188,0.7105,0.7022,0.6265,0.6048,0.5911,0.5776,3
102,211,839139767639,-10.4028,0.1911,0.1059,0.0610,-0.1090,-0.0890,1.1629,6777.7183,6703.2148,6655.4097,6634.7744,12.0382,0.0000,3.5400,-3.5400,-0.0000,-8.6241,-14.3696,28.2035,0.0207,-0.0134,-0.0065,0.0000,0.0000,0.0000,0.0000,0.0000,0.0000,0.0000,0.0000,0.0100,0.0000,0.0000,0.0000,0.0000,0.0100,1.0000,0.0000,0.0000,0.0000,0.0000,0.0000,0.0000,0.0000,0.0000,0.0100,0.0000,0.0000,-0.0000,-0.0361,0.0116,0.0179,0.0000,0.0000,-0.6000,0.7360,0.7179,0.7068,0.7029,0.6328,0.6033,0.5851,0.5788,3
103,212,839153341258,-10.4028,0.1911,0.1059,0.0610,-0.1090,-0.0890,1.1629,6777.7183,6703.2148,6655.4097,6634.7744,12.0385,0.0000,2.0142,-0.0610,-1.2207,-2.6181,-1.9131,-16.6533,0.0236,-0.0152,-0.0067,0.0000,0.0000,0.0000,0.0000,0.0000,0.0000,0.0000,0.0000,0.0100,0.0000,0.0000,0.0000,0.0000,0.0100,1.0000,0.0000,0.0000,0.0000,0.0000,0.0000,0.0000,0.0000,0.0000,0.0100,0.0000,0.0000,-0.0000,-0.0442,0.0199,0.0194,0.0000,0.0000,-0.6000,0.7415,0.7174,0.7022,0.7025,0.6417,0.6024,0.5777,0.5782,3
104,213,839155007822,-10.4028,0.1911,0.1059,0.0610,-0.1090,-0.0890,1.1629,6777.7183,6703.2148,6655.4097,6634.7744,12.0387,0.0000,1.2817,-1.8311,1.2817,-0.5284,3.2796,-32.0846,0.0238,-0.0156,-0.0066,0.0000,0.0000,0.0000,0.0000,0.0000,0.0000,0.0000,0.0000,0.0100,0.0000,0.0000,0.0000,0.0000,0.0100,1.0000,0.0000,0.0000,0.0000,0.0000,0.0000,0.0000,0.0000,0.0000,0.0100,0.0000,0.0000,-0.0000,-0.0339,0.0173,0.0184,0.0000,0.0000,-0.6000,0.7372,0.7154,0.7058,0.7052,0.6348,0.5991,0.5836,0.5825,3
105,214,839159768578,-10.4028,0.1911,0.1059,0.0610,-0.1090,-0.0890,1.1629,6777.7183,6703.2148,6655.4097,6634.7744,12.0387,0.0000,-0.4272,0.6104,-1.6479,-2.3049,11.7469,-34.9369,0.0234,-0.0155,-0.0067,0.0000,0.0000,0.0000,0.0000,0.0000,0.0000,0.0000,0.0000,0.0100,0.0000,0.0000,0.0000,0.0000,0.0100,1.0000,0.0000,0.0000,0.0000,0.0000,0.0000,0.0000,0.0000,0.0000,0.0100,0.0000,0.0000,-0.0000,-0.0228,0.0129,0.0196,0.0000,0.0000,-0.6000,0.7328,0.7129,0.7110,0.7069,0.6276,0.5952,0.5920,0.5853,3
106,215,839165087826,-10.4028,0.1911,0.1059,0.0610,-0.1090,-0.0890,1.1629,6777.7183,6703.2148,6655.4097,6634.7744,12.0392,0.0000,-2.0752,1.5869,1.0376,-1.6115,14.6261,-36.2521,0.0220,-0.0156,-0.0066,0.0000,0.0000,0.0000,0.0000,0.0000,0.0000,0.0000,0.0000,0.0100,0.0000,0.0000,0.0000,0.0000,0.0100,1.0000,0.0000,0.0000,0.0000,0.0000,0.0000,0.0000,0.0000,0.0000,0.0100,0.0000,0.0000,-0.0000,-0.0092,0.0103,0.0185,0.0000,0.0000,-0.6000,0.7276,0.7099,0.7156,0.7106,0.6190,0.5902,0.5995,0.5913,3
107,216,839169849456,-10.4028,0.1911,0.1059,0.0610,-0.1090,-0.0890,1.1629,6777.7183,6703.2148,6655.4097,6634.7744,12.0392,0.0000,-2.1362,-0.4272,-1.3428,-2.4579,18.6009,-31.0009,0.0204,-0.0157,-0.0067,0.0000,0.0000,0.0000,0.0000,0.0000,0.0000,0.0000,0.0000,0.0100,0.0000,0.0000,0.0000,0.0000,0.0100,1.0000,0.0000,0.0000,0.0000,0.0000,0.0000,0.0000,0.0000,0.0000,0.0100,0.0000,0.0000,-0.0000,0.0018,0.0092,0.0193,0.0000,0.0000,-0.6000,0.7241,0.7066,0.7195,0.7134,0.6133,0.5848,0.6059,0.5959,3
108,217,839174954140,-10.4028,0.1911,0.1059,0.0610,-0.1090,-0.0890,1.1629,6777.7183,6703.2148,6655.4097,6634.7744,12.0390,0.0000,-2.4414,-0.5493,1.0376,-2.7281,18.6465,-23.1743,0.0183,-0.0159,-0.0066,0.0000,0.0000,0.0000,0.0000,0.0000,0.0000,0.0000,0.0000,0.0100,0.0000,0.0000,0.0000,0.0000,0.0100,1.0000,0.0000,0.0000,0.0000,0.0000,0.0000,0.0000,0.0000,0.0000,0.0100,0.0000,0.0000,-0.0000,0.0120,0.0091,0.0182,0.0000,0.0000,-0.6000,0.7206,0.7039,0.7223,0.7168,0.6077,0.5804,0.6105,0.6014,3
109,218,839179963624,-10.4028,0.1911,0.1059,0.0610,-0.1090,-0.0890,1.1629,6777.7183,6703.2148,6655.4097,6634.7744,12.0390,0.0000,-2.1362,-0.6714,-1.8921,-1.1955,17.8290,-16.8467,0.0163,-0.0162,-0.0067,0.0000,0.0000,0.0000,0.0000,0.0000,0.0000,0.0000,0.0000,0.0100,0.0000,0.0000,0.0000,0.0000,0.0100,1.0000,0.0000,0.0000,0.0000,0.0000,0.0000,0.0000,0.0000,0.0000,0.0100,0.0000,0.0000,-0.0000,0.0188,0.0093,0.0194,0.0000,0.0000,-0.6000,0.7189,0.7013,0.7248,0.7186,0.6050,0.5762,0.6145,0.6044,3
110,219,839184874325,-10.4028,0.1911,0.1059,0.0610,-0.1090,-0.0890,1.1629,6777.7183,6703.2148,6655.4097,6634.7744,12.0392,0.0000,-1.3428,-1.3428,1.1597,0.3491,13.8230,-12.2376,0.0145,-0.0164,-0.0066,0.0000,0.0000,0.0000,0.0000,0.0000,0.0000,0.0000,0.0000,0.0100,0.0000,0.0000,0.0000,0.0000,0.0100,1.0000,0.0000,0.0000,0.0000,0.0000,0.0000,0.0000,0.0000,0.0000,0.0100,0.0000,0.0000,-0.0000,0.0227,0.0090,0.0183,0.0000,0.0000,-0.6000,0.7173,0.7006,0.7257,0.7200,0.6023,0.5750,0.6160,0.6068,3
111,220,839189760486,-10.4028,0.1911,0.1059,0.0610,-0.1090,-0.0890,1.1629,6777.7183,6703.2148,6655.4097,6634.7744,12.0390,0.0000,-1.5259,-1.8311,-1.0986,0.9205,9.4695,-13.9490,0.0130,-0.0165,-0.0067,0.0000,0.0000,0.0000,0.0000,0.0000,0.0000,0.0000,0.0000,0.0100,0.0000,0.0000,0.0000,0.0000,0.0100,1.0000,0.0000,0.0000,0.0000,0.0000,0.0000,0.0000,0.0000,0.0000,0.0100,0.0000,0.0000,-0.0000,0.0233,0.0082,0.0190,0.0000,0.0000,-0.6000,0.7171,0.7005,0.7263,0.7197,0.6020,0.5748,0.6170,0.6063,3
112,221,839194785718,-10.4028,0.1911,0.1059,0.0610,-0.1090,-0.0890,1.1629,6777.7183,6703.2148,6655.4097,6634.7744,12.0387,0.0000,-0.7935,-0.7935,0.3052,4.2750,2.9367,-17.1092,0.0120,-0.0165,-0.0067,0.0000,0.0000,0.0000,0.0000,0.0000,0.0000,0.0000,0.0000,0.0100,0.0000,0.0000,0.0000,0.0000,0.0100,1.0000,0.0000,0.0000,0.0000,0.0000,0.0000,0.0000,0.0000,0.0000,0.0100,0.0000,0.0000,-0.0000,0.0208,0.0068,0.0186,0.0000,0.0000,-0.6000,0.7173,0.7018,0.7259,0.7187,0.6023,0.5769,0.6163,0.6045,3
113,222,839199882819,-10.4028,0.1911,0.1059,0.0610,-0.1090,-0.0890,1.1629,6777.7183,6703.2148,6655.4097,6634.7744,12.0387,0.0000,-0.3662,-0.3052,0.9155,6.7114,-4.1666,-20.0952,0.0117,-0.0160,-0.0066,0.0000,0.0000,0.0000,0.0000,0.0000,0.0000,0.0000,0.0000,0.0100,0.0000,0.0000,0.0000,0.0000,0.0100,1.0000,0.0000,0.0000,0.0000,0.0000,0.0000,0.0000,0.0000,0.0000,0.0100,0.0000,0.0000,-0.0000,0.0152,0.0036,0.0179,0.0000,0.0000,-0.6000,0.7178,0.7047,0.7250,0.7162,0.6031,0.5817,0.6148,0.6004,3
114,223,839204915093,-10.4028,0.1911,0.1059,0.0610,-0.1090,-0.0890,1.1629,6777.7183,6703.2148,6655.4097,6634.7744,12.0395,0.0000,-0.3662,1.1597,-0.0610,8.2177,-8.6879,-20.5201,0.0120,-0.0152,-0.0066,0.0000,0.0000,0.0000,0.0000,0.0000,0.0000,0.0000,0.0000,0.0100,0.0000,0.0000,0.0000,0.0000,0.0100,1.0000,0.0000,0.0000,0.0000,0.0000,0.0000,0.0000,0.0000,0.0000,0.0100,0.0000,0.0000,-0.0000,0.0073,-0.0010,0.0181,0.0000,0.0000,-0.6000,0.7189,0.7084,0.7240,0.7123,0.6049,0.5878,0.6132,0.5941,3
115,224,839209804087,-10.4028,0.1911,0.1059,0.0610,-0.1090,-0.0890,1.1629,6777.7183,6703.2148,6655.4097,6634.7744,12.0404,0.0000,0.0000,1.4648,1.5259,6.6660,-14.3936,-20.1239,0.0128,-0.0143,-0.0065,0.0000,0.0000,0.0000,0.0000,0.0000,0.0000,0.0000,0.0000,0.0100,0.0000,0.0000,0.0000,0.0000,0.0100,1.0000,0.0000,0.0000,0.0000,0.0000,0.0000,0.0000,0.0000,0.0000,0.0100,0.0000,0.0000,-0.0000,-0.0010,-0.0051,0.0171,0.0000,0.0000,-0.6000,0.7199,0.7125,0.7224,0.7088,0.6065,0.5945,0.6106,0.5884,3
116,225,839214823320,-10.4028,0.1911,0.1059,0.0610,-0.1090,-0.0890,1.1629,6777.7183,6703.2148,6655.4097,6634.7744,12.0404,0.0000,0.2441,2.2583,0.2441,2.1495,-17.3567,-15.4766,0.0142,-0.0134,-0.0065,0.0000,0.0000,0.0000,0.0000,0.0000,0.0000,0.0000,0.0000,0.0100,0.0000,0.0000,0.0000,0.0000,0.0100,1.0000,0.0000,0.0000,0.0000,0.0000,0.0000,0.0000,0.0000,0.0000,0.0100,0.0000,0.0000,-0.0000,-0.0102,-0.0076,0.0172,0.0000,0.0000,-0.6000,0.7220,0.7161,0.7204,0.7052,0.6099,0.6003,0.6073,0.5825,3
117,226,839219813555,-10.4028,0.1911,0.1059,0.0610,-0.1090,-0.0890,1.1629,6777.7183,6703.2148,6655.4097,6634.7744,12.0407,0.0000,0.4272,0.6714,0.4883,1.8912,-18.2845,-10.7744,0.0159,-0.0131,-0.0065,0.0000,0.0000,0.0000,0.0000,0.0000,0.0000,0.0000,0.0000,0.0100,0.0000,0.0000,0.0000,0.0000,0.0100,1.0000,0.0000,0.0000,0.0000,0.0000,0.0000,0.0000,0.0000,0.0000,0.0100,0.0000,0.0000,-0.0000,-0.0185,-0.0058,0.0172,0.0000,0.0000,-0.6000,0.7251,0.7181,0.7173,0.7032,0.6150,0.6035,0.6022,0.5793,3
118,227,839224794125,-10.4028,0.1911,0.1059,0.0710,-0.0790,-0.0890,1.1629,6777.7183,6703.2148,6655.4097,6634.7744,12.0407,0.0000,0.7324,0.7935,-0.0000,-2.2045,-16.7478,-4.3179,0.0177,-0.0129,-0.0065,0.0000,0.0000,0.0000,0.0000,0.0000,0.0000,0.0000,0.0000,0.0100,0.0000,0.0000,0.0000,0.0000,0.0100,1.0000,0.0000,0.0000,0.0000,0.0000,0.0000,0.0000,0.0000,0.0000,0.0100,0.0000,0.0000,-0.0000,-0.0251,-0.0045,0.0175,0.0000,0.0000,-0.6000,0.7276,0.7196,0.7149,0.7015,0.6191,0.6060,0.5984,0.5765,3
119,228,839243711615,-10.3975,0.1652,0.1467,0.0710,-0.0790,-0.0890,1.1629,6770.8940,6721.4253,6679.1221,6555.2148,12.0409,0.0000,1.4648,-0.6714,-0.3052,-4.5715,-15.8368,0.7471,0.0195,-0.0131,-0.0065,0.0000,0.0000,0.0000,0.0000,0.0000,0.0000,0.0000,0.0000,0.0100,0.0000,0.0000,0.0000,0.0000,0.0100,1.0000,0.0000,0.0000,0.0000,0.0000,0.0000,0.0000,0.0000,0.0000,0.0100,0.0000,0.0000,-0.0000,-0.0293,-0.0003,0.0180,0.0000,0.0000,-0.6000,0.7303,0.7195,0.7125,0.7013,0.6235,0.6058,0.5945,0.5761,3
120,229,839247165650,-10.3975,0.1652,0.1467,0.0710,-0.0790,-0.0890,1.1629,6770.8940,6721.4253,6679.1221,6555.2148,12.0419,0.0000,2.1362,-2.0752,-0.9155,-3.8446,-0.9302,-3.6663,0.0231,-0.0149,-0.0068,0.0000,0.0000,0.0000,0.0000,0.0000,0.0000,0.0000,0.0000,0.0100,0.0000,0.0000,0.0000,0.0000,0.0100,1.0000,0.0000,0.0000,0.0000,0.0000,0.0000,0.0000,0.0000,0.0000,0.0100,0.0000,0.0000,-0.0000,-0.0440,0.0120,0.0204,0.0000,0.0000,-0.6000,0.7393,0.7195,0.7050,0.6998,0.6382,0.6058,0.5822,0.5737,3
121,230,839249958825,-10.3975,0.1652,0.1467,0.0710,-0.0790,-0.0890,1.1629,6770.8940,6721.4253,6679.1221,6555.2148,12.0419,0.0000,1.5259,-1.0986,-0.4272,-1.5206,3.7974,-7.6739,0.0234,-0.0154,-0.0069,0.0000,0.0000,0.0000,0.0000,0.0000,0.0000,0.0000,0.0000,0.0100,0.0000,0.0000,0.0000,0.0000,0.0100,1.0000,0.0000,0.0000,0.0000,0.0000,0.0000,0.0000,0.0000,0.0000,0.0100,0.0000,0.0000,-0.0000,-0.0336,0.0123,0.0206,0.0000,0.0000,-0.6000,0.7363,0.7161,0.7082,0.7031,0.6332,0.6003,0.5873,0.5791,3
