loop_index, counter, last_step_ns, T_ref, theta_ref, phi_ref, uwind, vwind, wwind, rho, rpm1, rpm2, rpm3, rpm4,v_batt,alt,gyro_roll,gyro_pitch,gyro_yaw,accel_X,accel_Y,accel_Z,roll,pitch,yaw,X,Y,Z,Xdot,Ydot,Zdot,x0,y0,z0,e.xbee_time,xbee_time_received_ns,xbee_x,xbee_y,xbee_z,xbee_qw,xbee_qx,xbee_qy,xbee_qz,sp_roll,sp_pitch,sp_yaw,sp_X,sp_Y,sp_Z,sp_Xdot,sp_Ydot,sp_Zdot,u_roll,u_pitch,u_yaw,u_X,u_Y,u_Z,mot_1,mot_2,mot_3,mot_4,flight mode
0,-1,0,-10.5249,-0.1432,-0.0648,-0.3190,0.7010,0.1010,1.1622,23.4375,23.4375,23.4375,23.4375,12.2292,0.0000,-0.0610,-0.1221,-0.0000,-0.1458,-0.1870,-10.6073,0.0105,-0.0005,0.0001,0.0000,0.0000,0.0000,0.0000,0.0000,0.0000,0.0000,0.0000,0.0000,0.0000,0.0000,0.0000,0.0000,0.0000,1.0000,0.0000,0.0000,0.0000,0.0000,0.0000,0.0000,0.0000,0.0000,0.0000,0.0000,0.0000,0.0000,0.0000,0.0000,0.0000,0.0000,0.0000,0.0000,-0.1000,-0.1000,-0.1000,-0.1000,4
0,-1,0,-10.5249,-0.1432,-0.0648,-0.3190,0.7010,0.1010,1.1622,23.4375,23.4375,23.4375,23.4375,12.2302,0.0000,-0.1831,-0.1831,-0.0000,-0.1506,-0.2038,-10.6097,0.0105,-0.0006,0.0001,0.0000,0.0000,0.0000,0.0000,0.0000,0.0000,0.0000,0.0000,0.0000,0.0000,0.0000,0.0000,0.0000,0.0000,1.0000,0.0000,0.0000,0.0000,0.0000,0.0000,0.0000,0.0000,0.0000,0.0000,0.0000,0.0000,0.0000,0.0000,0.0000,0.0000,0.0000,0.0000,0.0000,-0.1000,-0.1000,-0.1000,-0.1000,4
0,-1,0,-10.5249,-0.1432,-0.0648,-0.3190,0.7010,0.1010,1.1622,23.4375,23.4375,23.4375,23.4375,12.2307,0.0000,-0.0610,-0.1831,-0.0000,-0.1554,-0.2541,-10.6551,0.0106,-0.0006,0.0000,0.0000,0.0000,0.0000,0.0000,0.0000,0.0000,0.0000,0.0000,0.0000,0.0000,0.0000,0.0000,0.0000,0.0000,1.0000,0.0000,0.0000,0.0000,0.0000,0.0000,0.0000,0.0000,0.0000,0.0000,0.0000,0.0000,0.0000,0.0000,0.0000,0.0000,0.0000,0.0000,0.0000,-0.1000,-0.1000,-0.1000,-0.1000,4
0,-1,0,-10.5249,-0.1432,-0.0648,-0.3190,0.7010,0.1010,1.1622,23.4375,23.4375,23.4375,23.4375,12.2319,0.0000,0.0000,0.1221,-0.0000,-0.1458,-0.2182,-10.6408,0.0106,-0.0006,0.0000,0.0000,0.0000,0.0000,0.0000,0.0000,0.0000,0.0000,0.0000,0.0000,0.0000,0.0000,0.0000,0.0000,0.0000,1.0000,0.0000,0.0000,0.0000,0.0000,0.0000,0.0000,0.0000,0.0000,0.0000,0.0000,0.0000,0.0000,0.0000,0.0000,0.0000,0.0000,0.0000,0.0000,-0.1000,-0.1000,-0.1000,-0.1000,4
0,-1,0,-10.5249,-0.1432,-0.0648,-0.3190,0.7010,0.1010,1.1622,23.4375,23.4375,23.4375,23.4375,12.2326,0.0000,0.0610,0.0000,-0.0610,-0.1650,-0.1822,-10.5739,0.0106,-0.0006,0.0000,0.0000,0.0000,0.0000,0.0000,0.0000,0.0000,0.0000,0.0000,0.0000,0.0000,0.0000,0.0000,0.0000,0.0000,1.0000,0.0000,0.0000,0.0000,0.0000,0.0000,0.0000,0.0000,0.0000,0.0000,0.0000,0.0000,0.0000,0.0000,0.0000,0.0000,0.0000,0.0000,0.0000,-0.1000,-0.1000,-0.1000,-0.1000,4
0,-1,0,-10.5249,-0.1432,-0.0648,-0.3190,0.7010,0.1010,1.1622,23.4375,23.4375,23.4375,23.4375,12.2333,0.0000,-0.3052,-0.1831,0.1221,-0.1411,-0.2421,-10.5930,0.0106,-0.0006,0.0000,0.0000,0.0000,0.0000,0.0000,0.0000,0.0000,0.0000,0.0000,0.0000,0.0000,0.0000,0.0000,0.0000,0.0000,1.0000,0.0000,0.0000,0.0000,0.0000,0.0000,0.0000,0.0000,0.0000,0.0000,0.0000,0.0000,0.0000,0.0000,0.0000,0.0000,0.0000,0.0000,0.0000,-0.1000,-0.1000,-0.1000,-0.1000,4
0,-1,0,-10.5249,-0.1432,-0.0648,-0.3190,0.7010,0.1010,1.1622,23.4375,23.4375,23.4375,23.4375,12.2336,0.0000,-0.2441,-0.1831,-0.0000,-0.1363,-0.2062,-10.5691,0.0106,-0.0006,0.0000,0.0000,0.0000,0.0000,0.0000,0.0000,0.0000,0.0000,0.0000,0.0000,0.0000,0.0000,0.0000,0.0000,0.0000,1.0000,0.0000,0.0000,0.0000,0.0000,0.0000,0.0000,0.0000,0.0000,0.0000,0.0000,0.0000,0.0000,0.0000,0.0000,0.0000,0.0000,0.0000,0.0000,-0.1000,-0.1000,-0.1000,-0.1000,4
0,-1,0,-10.5249,-0.1432,-0.0648,-0.3190,0.7010,0.1010,1.1622,23.4375,23.4375,23.4375,23.4375,12.2341,0.0000,-0.1221,0.0000,0.1831,-0.1243,-0.2158,-10.5668,0.0106,-0.0006,0.0001,0.0000,0.0000,0.0000,0.0000,0.0000,0.0000,0.0000,0.0000,0.0000,0.0000,0.0000,0.0000,0.0000,0.0000,1.0000,0.0000,0.0000,0.0000,0.0000,0.0000,0.0000,0.0000,0.0000,0.0000,0.0000,0.0000,0.0000,0.0000,0.0000,0.0000,0.0000,0.0000,0.0000,-0.1000,-0.1000,-0.1000,-0.1000,4
0,-1,0,-10.5249,-0.1432,-0.0648,-0.3190,0.7010,0.1010,1.1622,23.4375,23.4375,23.4375,23.4375,12.2348,0.0000,-0.1831,-0.1221,-0.0000,-0.1124,-0.2589,-10.6312,0.0106,-0.0007,0.0000,0.0000,0.0000,0.0000,0.0000,0.0000,0.0000,0.0000,0.0000,0.0000,0.0000,0.0000,0.0000,0.0000,0.0000,1.0000,0.0000,0.0000,0.0000,0.0000,0.0000,0.0000,0.0000,0.0000,0.0000,0.0000,0.0000,0.0000,0.0000,0.0000,0.0000,0.0000,0.0000,0.0000,-0.1000,-0.1000,-0.1000,-0.1000,4
0,-1,0,-10.5249,-0.1432,-0.0648,-0.3190,0.7010,0.1010,1.1622,23.4375,23.4375,23.4375,23.4375,12.2355,0.0000,-0.2441,-0.1221,-0.0000,-0.1913,-0.1942,-10.6145,0.0106,-0.0007,0.0000,0.0000,0.0000,0.0000,0.0000,0.0000,0.0000,0.0000,0.0000,0.0000,0.0000,0.0000,0.0000,0.0000,0.0000,1.0000,0.0000,0.0000,0.0000,0.0000,0.0000,0.0000,0.0000,0.0000,0.0000,0.0000,0.0000,0.0000,0.0000,0.0000,0.0000,0.0000,0.0000,0.0000,-0.1000,-0.1000,-0.1000,-0.1000,4
0,-1,0,-10.5249,-0.1432,-0.0648,-0.3190,0.7010,0.1010,1.1622,23.4375,23.4375,23.4375,23.4375,12.2362,0.0000,0.0000,0.0000,-0.0000,-0.1745,-0.2325,-10.7171,0.0106,-0.0007,0.0000,0.0000,0.0000,0.0000,0.0000,0.0000,0.0000,0.0000,0.0000,0.0000,0.0000,0.0000,0.0000,0.0000,0.0000,1.0000,0.0000,0.0000,0.0000,0.0000,0.0000,0.0000,0.0000,0.0000,0.0000,0.0000,0.0000,0.0000,0.0000,0.0000,0.0000,0.0000,0.0000,0.0000,-0.1000,-0.1000,-0.1000,-0.1000,4
0,-1,0,-10.5249,-0.1432,-0.0648,-0.3190,0.7010,0.1010,1.1622,23.4375,23.4375,23.4375,23.4375,12.2372,0.0000,-0.0610,-0.3052,-0.0000,-0.1148,-0.2565,-10.6599,0.0106,-0.0007,0.0000,0.0000,0.0000,0.0000,0.0000,0.0000,0.0000,0.0000,0.0000,0.0000,0.0000,0.0000,0.0000,0.0000,0.0000,1.0000,0.0000,0.0000,0.0000,0.0000,0.0000,0.0000,0.0000,0.0000,0.0000,0.0000,0.0000,0.0000,0.0000,0.0000,0.0000,0.0000,0.0000,0.0000,-0.1000,-0.1000,-0.1000,-0.1000,4
0,-1,0,-10.5249,-0.1432,-0.0648,-0.3190,0.7010,0.1010,1.1622,23.4375,23.4375,23.4375,23.4375,12.2377,0.0000,-0.0610,-0.1221,-0.0000,-0.1458,-0.1942,-10.5954,0.0106,-0.0007,0.0000,0.0000,0.0000,0.0000,0.0000,0.0000,0.0000,0.0000,0.0000,0.0000,0.0000,0.0000,0.0000,0.0000,0.0000,1.0000,0.0000,0.0000,0.0000,0.0000,0.0000,0.0000,0.0000,0.0000,0.0000,0.0000,0.0000,0.0000,0.0000,0.0000,0.0000,0.0000,0.0000,0.0000,-0.1000,-0.1000,-0.1000,-0.1000,4
0,-1,0,-10.5249,-0.1432,-0.0648,-0.3190,0.7010,0.1010,1.1622,23.4375,23.4375,23.4375,23.4375,12.2384,0.0000,0.0000,-0.0610,-0.0000,-0.1219,-0.2397,-10.5644,0.0107,-0.0008,0.0000,0.0000,0.0000,0.0000,0.0000,0.0000,0.0000,0.0000,0.0000,0.0000,0.0000,0.0000,0.0000,0.0000,0.0000,1.0000,0.0000,0.0000,0.0000,0.0000,0.0000,0.0000,0.0000,0.0000,0.0000,0.0000,0.0000,0.0000,0.0000,0.0000,0.0000,0.0000,0.0000,0.0000,-0.1000,-0.1000,-0.1000,-0.1000,4
0,-1,0,-10.5249,-0.1432,-0.0648,-0.3190,0.7010,0.1010,1.1622,23.4375,23.4375,23.4375,23.4375,12.2391,0.0000,-0.0610,-0.1831,-0.0000,-0.1339,-0.2134,-10.6073,0.0107,-0.0008,0.0000,0.0000,0.0000,0.0000,0.0000,0.0000,0.0000,0.0000,0.0000,0.0000,0.0000,0.0000,0.0000,0.0000,0.0000,1.0000,0.0000,0.0000,0.0000,0.0000,0.0000,0.0000,0.0000,0.0000,0.0000,0.0000,0.0000,0.0000,0.0000,0.0000,0.0000,0.0000,0.0000,0.0000,-0.1000,-0.1000,-0.1000,-0.1000,4
0,-1,0,-10.5249,-0.1432,-0.0648,-0.3190,0.7010,0.1010,1.1622,23.4375,23.4375,23.4375,23.4375,12.2394,0.0000,0.0000,0.0000,-0.0000,-0.1745,-0.2014,-10.6073,0.0107,-0.0008,0.0000,0.0000,0.0000,0.0000,0.0000,0.0000,0.0000,0.0000,0.0000,0.0000,0.0000,0.0000,0.0000,0.0000,0.0000,1.0000,0.0000,0.0000,0.0000,0.0000,0.0000,0.0000,0.0000,0.0000,0.0000,0.0000,0.0000,0.0000,0.0000,0.0000,0.0000,0.0000,0.0000,0.0000,-0.1000,-0.1000,-0.1000,-0.1000,4
0,-1,0,-10.5249,-0.1432,-0.0648,-0.3190,0.7010,0.1010,1.1622,23.4375,23.4375,23.4375,23.4375,12.2404,0.0000,-0.0610,-0.1831,-0.0000,-0.0932,-0.2182,-10.5429,0.0107,-0.0008,0.0000,0.0000,0.0000,0.0000,0.0000,0.0000,0.0000,0.0000,0.0000,0.0000,0.0000,0.0000,0.0000,0.0000,0.0000,1.0000,0.0000,0.0000,0.0000,0.0000,0.0000,0.0000,0.0000,0.0000,0.0000,0.0000,0.0000,0.0000,0.0000,0.0000,0.0000,0.0000,0.0000,0.0000,-0.1000,-0.1000,-0.1000,-0.1000,4
0,-1,0,-10.5249,-0.1432,-0.0648,-0.3190,0.7010,0.1010,1.1622,23.4375,23.4375,23.4375,23.4375,12.2406,0.0000,-0.0610,-0.2441,-0.0000,-0.1339,-0.2301,-10.5954,0.0107,-0.0009,0.0000,0.0000,0.0000,0.0000,0.0000,0.0000,0.0000,0.0000,0.0000,0.0000,0.0000,0.0000,0.0000,0.0000,0.0000,1.0000,0.0000,0.0000,0.0000,0.0000,0.0000,0.0000,0.0000,0.0000,0.0000,0.0000,0.0000,0.0000,0.0000,0.0000,0.0000,0.0000,0.0000,0.0000,-0.1000,-0.1000,-0.1000,-0.1000,4
0,-1,0,-10.5249,-0.1432,-0.0648,-0.3190,0.7010,0.1010,1.1622,23.4375,23.4375,23.4375,23.4375,12.2418,0.0000,-0.1831,-0.1831,-0.0000,-0.1578,-0.2349,-10.6933,0.0107,-0.0009,0.0000,0.0000,0.0000,0.0000,0.0000,0.0000,0.0000,0.0000,0.0000,0.0000,0.0000,0.0000,0.0000,0.0000,0.0000,1.0000,0.0000,0.0000,0.0000,0.0000,0.0000,0.0000,0.0000,0.0000,0.0000,0.0000,0.0000,0.0000,0.0000,0.0000,0.0000,0.0000,0.0000,0.0000,-0.1000,-0.1000,-0.1000,-0.1000,4
0,-1,0,-10.5249,-0.1432,-0.0648,-0.3190,0.7010,0.1010,1.1622,23.4375,23.4375,23.4375,23.4375,12.2420,0.0000,-0.0610,-0.2441,0.1831,-0.1745,-0.2253,-10.6217,0.0107,-0.0009,0.0000,0.0000,0.0000,0.0000,0.0000,0.0000,0.0000,0.0000,0.0000,0.0000,0.0000,0.0000,0.0000,0.0000,0.0000,1.0000,0.0000,0.0000,0.0000,0.0000,0.0000,0.0000,0.0000,0.0000,0.0000,0.0000,0.0000,0.0000,0.0000,0.0000,0.0000,0.0000,0.0000,0.0000,-0.1000,-0.1000,-0.1000,-0.1000,4
0,-1,0,-10.5249,-0.1432,-0.0648,-0.3190,0.7010,0.1010,1.1622,23.4375,23.4375,23.4375,23.4375,12.2406,0.0000,0.0000,0.0000,0.2441,-0.1411,-0.2182,-10.5596,0.0107,-0.0009,0.0001,0.0000,0.0000,0.0000,0.0000,0.0000,0.0000,0.0000,0.0000,0.0000,0.0000,0.0000,0.0000,0.0000,0.0000,1.0000,0.0000,0.0000,0.0000,0.0000,0.0000,0.0000,0.0000,0.0000,0.0000,0.0000,0.0000,0.0000,0.0000,0.0000,0.0000,0.0000,0.0000,0.0000,-0.1000,-0.1000,-0.1000,-0.1000,4
0,-1,0,-10.5249,-0.1432,-0.0648,-0.3190,0.7010,0.1010,1.1622,23.4375,23.4375,23.4375,23.4375,12.2394,0.0000,-0.1221,0.0000,0.1221,-0.1124,-0.1990,-10.5524,0.0107,-0.0009,0.0001,0.0000,0.0000,0.0000,0.0000,0.0000,0.0000,0.0000,0.0000,0.0000,0.0000,0.0000,0.0000,0.0000,0.0000,1.0000,0.0000,0.0000,0.0000,0.0000,0.0000,0.0000,0.0000,0.0000,0.0000,0.0000,0.0000,0.0000,0.0000,0.0000,0.0000,0.0000,0.0000,0.0000,-0.1000,-0.1000,-0.1000,-0.1000,4
0,-1,0,-10.5249,-0.1432,-0.0648,-0.3190,0.7010,0.1010,1.1622,23.4375,23.4375,23.4375,23.4375,12.2387,0.0000,-0.1221,-0.0610,-0.0000,-0.1148,-0.2230,-10.6408,0.0107,-0.0009,0.0001,0.0000,0.0000,0.0000,0.0000,0.0000,0.0000,0.0000,0.0000,0.0000,0.0000,0.0000,0.0000,0.0000,0.0000,1.0000,0.0000,0.0000,0.0000,0.0000,0.0000,0.0000,0.0000,0.0000,0.0000,0.0000,0.0000,0.0000,0.0000,0.0000,0.0000,0.0000,0.0000,0.0000,-0.1000,-0.1000,-0.1000,-0.1000,4
0,-1,0,-10.5249,-0.1432,-0.0648,-0.3190,0.7010,0.1010,1.1622,23.4375,23.4375,23.4375,23.4375,12.2377,0.0000,-0.2441,-0.1221,-0.1221,-0.1506,-0.2277,-10.6073,0.0107,-0.0009,0.0000,0.0000,0.0000,0.0000,0.0000,0.0000,0.0000,0.0000,0.0000,0.0000,0.0000,0.0000,0.0000,0.0000,0.0000,1.0000,0.0000,0.0000,0.0000,0.0000,0.0000,0.0000,0.0000,0.0000,0.0000,0.0000,0.0000,0.0000,0.0000,0.0000,0.0000,0.0000,0.0000,0.0000,-0.1000,-0.1000,-0.1000,-0.1000,4
0,-1,0,-10.5249,-0.1432,-0.0648,-0.3190,0.7010,0.1010,1.1622,23.4375,23.4375,23.4375,23.4375,12.2355,0.0000,0.0000,0.0000,-0.0610,-0.1339,-0.1822,-10.5978,0.0108,-0.0010,0.0000,0.0000,0.0000,0.0000,0.0000,0.0000,0.0000,0.0000,0.0000,0.0000,0.0000,0.0000,0.0000,0.0000,0.0000,1.0000,0.0000,0.0000,0.0000,0.0000,0.0000,0.0000,0.0000,0.0000,0.0000,0.0000,0.0000,0.0000,0.0000,0.0000,0.0000,0.0000,0.0000,0.0000,-0.1000,-0.1000,-0.1000,-0.1000,4
0,-1,0,-10.5249,-0.1432,-0.0648,-0.3190,0.7010,0.1010,1.1622,23.4375,23.4375,23.4375,23.4375,12.2343,0.0000,-0.1221,-0.0610,0.1831,-0.1363,-0.2014,-10.5333,0.0108,-0.0010,0.0000,0.0000,0.0000,0.0000,0.0000,0.0000,0.0000,0.0000,0.0000,0.0000,0.0000,0.0000,0.0000,0.0000,0.0000,1.0000,0.0000,0.0000,0.0000,0.0000,0.0000,0.0000,0.0000,0.0000,0.0000,0.0000,0.0000,0.0000,0.0000,0.0000,0.0000,0.0000,0.0000,0.0000,-0.1000,-0.1000,-0.1000,-0.1000,4
0,-1,0,-10.5249,-0.1432,-0.0648,-0.1290,0.7510,0.2710,1.1622,23.4375,23.4375,23.4375,23.4375,12.2338,0.0000,0.1221,0.0000,-0.1831,-0.1124,-0.2158,-10.6240,0.0108,-0.0010,0.0000,0.0000,0.0000,0.0000,0.0000,0.0000,0.0000,0.0000,0.0000,0.0000,0.0000,0.0000,0.0000,0.0000,0.0000,1.0000,0.0000,0.0000,0.0000,0.0000,0.0000,0.0000,0.0000,0.0000,0.0000,0.0000,0.0000,0.0000,0.0000,0.0000,0.0000,0.0000,0.0000,0.0000,-0.1000,-0.1000,-0.1000,-0.1000,4
0,-1,0,-10.5249,-0.1432,-0.0648,-0.1290,0.7510,0.2710,1.1622,23.4375,23.4375,23.4375,23.4375,12.2329,0.0000,-0.0610,-0.1831,-0.0000,-0.1435,-0.2086,-10.6288,0.0108,-0.0010,0.0000,0.0000,0.0000,0.0000,0.0000,0.0000,0.0000,0.0000,0.0000,0.0000,0.0000,0.0000,0.0000,0.0000,0.0000,1.0000,0.0000,0.0000,0.0000,0.0000,0.0000,0.0000,0.0000,0.0000,0.0000,0.0000,0.0000,0.0000,0.0000,0.0000,0.0000,0.0000,0.0000,0.0000,-0.1000,-0.1000,-0.1000,-0.1000,4
0,-1,0,-10.5249,-0.1432,-0.0648,-0.1290,0.7510,0.2710,1.1622,23.4375,23.4375,23.4375,23.4375,12.2319,0.0000,-0.1831,-0.1221,0.1221,-0.1339,-0.2014,-10.5668,0.0108,-0.0010,0.0000,0.0000,0.0000,0.0000,0.0000,0.0000,0.0000,0.0000,0.0000,0.0000,0.0000,0.0000,0.0000,0.0000,0.0000,1.0000,0.0000,0.0000,0.0000,0.0000,0.0000,0.0000,0.0000,0.0000,0.0000,0.0000,0.0000,0.0000,0.0000,0.0000,0.0000,0.0000,0.0000,0.0000,-0.1000,-0.1000,-0.1000,-0.1000,4
0,-1,0,-10.5249,-0.1432,-0.0648,-0.1290,0.7510,0.2710,1.1622,23.4375,23.4375,23.4375,23.4375,12.2304,0.0000,-0.0610,-0.1221,-0.0000,-0.1721,-0.2397,-10.6909,0.0108,-0.0010,0.0000,0.0000,0.0000,0.0000,0.0000,0.0000,0.0000,0.0000,0.0000,0.0000,0.0000,0.0000,0.0000,0.0000,0.0000,1.0000,0.0000,0.0000,0.0000,0.0000,0.0000,0.0000,0.0000,0.0000,0.0000,0.0000,0.0000,0.0000,0.0000,0.0000,0.0000,0.0000,0.0000,0.0000,-0.1000,-0.1000,-0.1000,-0.1000,4
0,-1,0,-10.5249,-0.1432,-0.0648,-0.1290,0.7510,0.2710,1.1622,23.4375,23.4375,23.4375,23.4375,12.2297,0.0000,-0.0610,-0.1831,-0.0610,-0.1411,-0.2206,-10.5644,0.0108,-0.0011,0.0000,0.0000,0.0000,0.0000,0.0000,0.0000,0.0000,0.0000,0.0000,0.0000,0.0000,0.0000,0.0000,0.0000,0.0000,1.0000,0.0000,0.0000,0.0000,0.0000,0.0000,0.0000,0.0000,0.0000,0.0000,0.0000,0.0000,0.0000,0.0000,0.0000,0.0000,0.0000,0.0000,0.0000,-0.1000,-0.1000,-0.1000,-0.1000,4
0,-1,0,-10.5249,-0.1432,-0.0648,-0.1290,0.7510,0.2710,1.1622,23.4375,23.4375,23.4375,23.4375,12.2287,0.0000,-0.0610,-0.1221,-0.0610,-0.1076,-0.2206,-10.5811,0.0108,-0.0011,-0.0000,0.0000,0.0000,0.0000,0.0000,0.0000,0.0000,0.0000,0.0000,0.0000,0.0000,0.0000,0.0000,0.0000,0.0000,1.0000,0.0000,0.0000,0.0000,0.0000,0.0000,0.0000,0.0000,0.0000,0.0000,0.0000,0.0000,0.0000,0.0000,0.0000,0.0000,0.0000,0.0000,0.0000,-0.1000,-0.1000,-0.1000,-0.1000,4
0,-1,0,-10.5249,-0.1432,-0.0648,-0.1290,0.7510,0.2710,1.1622,23.4375,23.4375,23.4375,23.4375,12.2280,0.0000,-0.0610,-0.2441,-0.0000,-0.1435,-0.2062,-10.6217,0.0108,-0.0011,-0.0000,0.0000,0.0000,0.0000,0.0000,0.0000,0.0000,0.0000,0.0000,0.0000,0.0000,0.0000,0.0000,0.0000,0.0000,1.0000,0.0000,0.0000,0.0000,0.0000,0.0000,0.0000,0.0000,0.0000,0.0000,0.0000,0.0000,0.0000,0.0000,0.0000,0.0000,0.0000,0.0000,0.0000,-0.1000,-0.1000,-0.1000,-0.1000,4
0,-1,0,-10.4534,-0.1931,-0.0329,-0.1290,0.7510,0.2710,1.1622,23.4375,23.4375,23.4375,23.4375,12.2271,0.0000,-0.0610,-0.2441,0.2441,-0.1506,-0.2062,-10.5715,0.0109,-0.0011,0.0000,0.0000,0.0000,0.0000,0.0000,0.0000,0.0000,0.0000,0.0000,0.0000,0.0000,0.0000,0.0000,0.0000,0.0000,1.0000,0.0000,0.0000,0.0000,0.0000,0.0000,0.0000,0.0000,0.0000,0.0000,0.0000,0.0000,0.0000,0.0000,0.0000,0.0000,0.0000,0.0000,0.0000,-0.1000,-0.1000,-0.1000,-0.1000,4
0,-1,0,-10.4534,-0.1931,-0.0329,-0.1290,0.7510,0.2710,1.1622,23.4375,23.4375,23.4375,23.4375,12.2261,0.0000,0.0000,-0.0610,-0.0000,-0.1554,-0.2086,-10.5524,0.0109,-0.0012,0.0000,0.0000,0.0000,0.0000,0.0000,0.0000,0.0000,0.0000,0.0000,0.0000,0.0000,0.0000,0.0000,0.0000,0.0000,1.0000,0.0000,0.0000,0.0000,0.0000,0.0000,0.0000,0.0000,0.0000,0.0000,0.0000,0.0000,0.0000,0.0000,0.0000,0.0000,0.0000,0.0000,0.0000,-0.1000,-0.1000,-0.1000,-0.1000,4
0,-1,0,-10.4534,-0.1931,-0.0329,-0.1290,0.7510,0.2710,1.1622,23.4375,23.4375,23.4375,23.4375,12.2261,0.0000,0.0000,-0.0610,-0.0610,-0.1674,-0.1966,-10.5477,0.0109,-0.0012,0.0000,0.0000,0.0000,0.0000,0.0000,0.0000,0.0000,0.0000,0.0000,0.0000,0.0000,0.0000,0.0000,0.0000,0.0000,1.0000,0.0000,0.0000,0.0000,0.0000,0.0000,0.0000,0.0000,0.0000,0.0000,0.0000,0.0000,0.0000,0.0000,0.0000,0.0000,0.0000,0.0000,0.0000,-0.1000,-0.1000,-0.1000,-0.1000,4
0,-1,0,-10.4534,-0.1931,-0.0329,-0.1290,0.7510,0.2710,1.1622,23.4375,23.4375,23.4375,23.4375,12.2249,0.0000,-0.1831,-0.2441,-0.0000,-0.1387,-0.2253,-10.6193,0.0109,-0.0013,0.0000,0.0000,0.0000,0.0000,0.0000,0.0000,0.0000,0.0000,0.0000,0.0000,0.0000,0.0000,0.0000,0.0000,0.0000,1.0000,0.0000,0.0000,0.0000,0.0000,0.0000,0.0000,0.0000,0.0000,0.0000,0.0000,0.0000,0.0000,0.0000,0.0000,0.0000,0.0000,0.0000,0.0000,-0.1000,-0.1000,-0.1000,-0.1000,4
0,-1,0,-10.4534,-0.1931,-0.0329,-0.1290,0.7510,0.2710,1.1622,23.4375,23.4375,23.4375,23.4375,12.2244,0.0000,-0.0610,-0.1221,-0.0000,-0.1626,-0.1918,-10.5787,0.0110,-0.0013,0.0000,0.0000,0.0000,0.0000,0.0000,0.0000,0.0000,0.0000,0.0000,0.0000,0.0000,0.0000,0.0000,0.0000,0.0000,1.0000,0.0000,0.0000,0.0000,0.0000,0.0000,0.0000,0.0000,0.0000,0.0000,0.0000,0.0000,0.0000,0.0000,0.0000,0.0000,0.0000,0.0000,0.0000,-0.1000,-0.1000,-0.1000,-0.1000,4
0,-1,0,-10.4534,-0.1931,-0.0329,-0.1290,0.7510,0.2710,1.1622,23.4375,23.4375,23.4375,23.4375,12.2227,0.0000,-0.0610,-0.1221,0.1221,-0.1482,-0.2134,-10.5906,0.0110,-0.0013,0.0000,0.0000,0.0000,0.0000,0.0000,0.0000,0.0000,0.0000,0.0000,0.0000,0.0000,0.0000,0.0000,0.0000,0.0000,1.0000,0.0000,0.0000,0.0000,0.0000,0.0000,0.0000,0.0000,0.0000,0.0000,0.0000,0.0000,0.0000,0.0000,0.0000,0.0000,0.0000,0.0000,0.0000,-0.1000,-0.1000,-0.1000,-0.1000,4
0,-1,0,-10.4534,-0.1931,-0.0329,-0.1290,0.7510,0.2710,1.1622,23.4375,23.4375,23.4375,23.4375,12.2222,0.0000,-0.1221,-0.0610,-0.0000,-0.1482,-0.2014,-10.5381,0.0110,-0.0014,0.0000,0.0000,0.0000,0.0000,0.0000,0.0000,0.0000,0.0000,0.0000,0.0000,0.0000,0.0000,0.0000,0.0000,0.0000,1.0000,0.0000,0.0000,0.0000,0.0000,0.0000,0.0000,0.0000,0.0000,0.0000,0.0000,0.0000,0.0000,0.0000,0.0000,0.0000,0.0000,0.0000,0.0000,-0.1000,-0.1000,-0.1000,-0.1000,4
0,-1,0,-10.4534,-0.1931,-0.0329,-0.1290,0.7510,0.2710,1.1622,23.4375,23.4375,23.4375,23.4375,12.2222,0.0000,-0.0610,-0.1221,-0.0000,-0.1172,-0.2206,-10.5524,0.0110,-0.0014,0.0000,0.0000,0.0000,0.0000,0.0000,0.0000,0.0000,0.0000,0.0000,0.0000,0.0000,0.0000,0.0000,0.0000,0.0000,1.0000,0.0000,0.0000,0.0000,0.0000,0.0000,0.0000,0.0000,0.0000,0.0000,0.0000,0.0000,0.0000,0.0000,0.0000,0.0000,0.0000,0.0000,0.0000,-0.1000,-0.1000,-0.1000,-0.1000,4
0,-1,0,-10.4534,-0.1931,-0.0329,-0.1290,0.7510,0.2710,1.1622,23.4375,23.4375,23.4375,23.4375,12.2222,0.0000,-0.2441,-0.1831,-0.0000,-0.1602,-0.2325,-10.6336,0.0110,-0.0014,0.0000,0.0000,0.0000,0.0000,0.0000,0.0000,0.0000,0.0000,0.0000,0.0000,0.0000,0.0000,0.0000,0.0000,0.0000,1.0000,0.0000,0.0000,0.0000,0.0000,0.0000,0.0000,0.0000,0.0000,0.0000,0.0000,0.0000,0.0000,0.0000,0.0000,0.0000,0.0000,0.0000,0.0000,-0.1000,-0.1000,-0.1000,-0.1000,4
0,-1,0,-10.4534,-0.1931,-0.0329,-0.1290,0.7510,0.2710,1.1622,23.4375,23.4375,23.4375,23.4375,12.2222,0.0000,0.0000,0.1221,0.1221,-0.1076,-0.2373,-10.5357,0.0110,-0.0014,0.0000,0.0000,0.0000,0.0000,0.0000,0.0000,0.0000,0.0000,0.0000,0.0000,0.0000,0.0000,0.0000,0.0000,0.0000,1.0000,0.0000,0.0000,0.0000,0.0000,0.0000,0.0000,0.0000,0.0000,0.0000,0.0000,0.0000,0.0000,0.0000,0.0000,0.0000,0.0000,0.0000,0.0000,-0.1000,-0.1000,-0.1000,-0.1000,4
0,-1,0,-10.4534,-0.1931,-0.0329,-0.1290,0.7510,0.2710,1.1622,23.4375,23.4375,23.4375,23.4375,12.2198,0.0000,0.0000,-0.0610,-0.0000,-0.1793,-0.2182,-10.6408,0.0111,-0.0014,0.0000,0.0000,0.0000,0.0000,0.0000,0.0000,0.0000,0.0000,0.0000,0.0000,0.0000,0.0000,0.0000,0.0000,0.0000,1.0000,0.0000,0.0000,0.0000,0.0000,0.0000,0.0000,0.0000,0.0000,0.0000,0.0000,0.0000,0.0000,0.0000,0.0000,0.0000,0.0000,0.0000,0.0000,-0.1000,-0.1000,-0.1000,-0.1000,4
0,-1,0,-10.4534,-0.1931,-0.0329,-0.1290,0.7510,0.2710,1.1622,23.4375,23.4375,23.4375,23.4375,12.2210,0.0000,0.0610,-0.0610,-0.0000,-0.1100,-0.1822,-10.6145,0.0111,-0.0015,0.0000,0.0000,0.0000,0.0000,0.0000,0.0000,0.0000,0.0000,0.0000,0.0000,0.0000,0.0000,0.0000,0.0000,0.0000,1.0000,0.0000,0.0000,0.0000,0.0000,0.0000,0.0000,0.0000,0.0000,0.0000,0.0000,0.0000,0.0000,0.0000,0.0000,0.0000,0.0000,0.0000,0.0000,-0.1000,-0.1000,-0.1000,-0.1000,4
0,-1,0,-10.4534,-0.1931,-0.0329,-0.1290,0.7510,0.2710,1.1622,23.4375,23.4375,23.4375,23.4375,12.2213,0.0000,-0.1831,-0.1831,-0.0000,-0.1411,-0.1774,-10.5978,0.0111,-0.0015,0.0000,0.0000,0.0000,0.0000,0.0000,0.0000,0.0000,0.0000,0.0000,0.0000,0.0000,0.0000,0.0000,0.0000,0.0000,1.0000,0.0000,0.0000,0.0000,0.0000,0.0000,0.0000,0.0000,0.0000,0.0000,0.0000,0.0000,0.0000,0.0000,0.0000,0.0000,0.0000,0.0000,0.0000,-0.1000,-0.1000,-0.1000,-0.1000,4
0,-1,0,-10.4534,-0.1931,-0.0329,-0.1290,0.7510,0.2710,1.1622,23.4375,23.4375,23.4375,23.4375,12.2215,0.0000,-0.0610,-0.2441,0.1221,-0.1793,-0.2253,-10.6097,0.0111,-0.0015,0.0000,0.0000,0.0000,0.0000,0.0000,0.0000,0.0000,0.0000,0.0000,0.0000,0.0000,0.0000,0.0000,0.0000,0.0000,1.0000,0.0000,0.0000,0.0000,0.0000,0.0000,0.0000,0.0000,0.0000,0.0000,0.0000,0.0000,0.0000,0.0000,0.0000,0.0000,0.0000,0.0000,0.0000,-0.1000,-0.1000,-0.1000,-0.1000,4
0,-1,0,-10.4534,-0.1931,-0.0329,-0.1290,0.7510,0.2710,1.1622,23.4375,23.4375,23.4375,23.4375,12.2217,0.0000,-0.1831,-0.1221,-0.0610,-0.1387,-0.2086,-10.6050,0.0111,-0.0015,0.0000,0.0000,0.0000,0.0000,0.0000,0.0000,0.0000,0.0000,0.0000,0.0000,0.0000,0.0000,0.0000,0.0000,0.0000,1.0000,0.0000,0.0000,0.0000,0.0000,0.0000,0.0000,0.0000,0.0000,0.0000,0.0000,0.0000,0.0000,0.0000,0.0000,0.0000,0.0000,0.0000,0.0000,-0.1000,-0.1000,-0.1000,-0.1000,4
0,-1,0,-10.4534,-0.1931,-0.0329,-0.1290,0.7510,0.2710,1.1622,23.4375,23.4375,23.4375,23.4375,12.2208,0.0000,-0.1221,-0.0610,-0.0000,-0.1482,-0.1798,-10.6264,0.0111,-0.0015,0.0000,0.0000,0.0000,0.0000,0.0000,0.0000,0.0000,0.0000,0.0000,0.0000,0.0000,0.0000,0.0000,0.0000,0.0000,1.0000,0.0000,0.0000,0.0000,0.0000,0.0000,0.0000,0.0000,0.0000,0.0000,0.0000,0.0000,0.0000,0.0000,0.0000,0.0000,0.0000,0.0000,0.0000,-0.1000,-0.1000,-0.1000,-0.1000,4
0,-1,0,-10.4534,-0.1931,-0.0329,-0.1290,0.7510,0.2710,1.1622,23.4375,23.4375,23.4375,23.4375,12.2215,0.0000,-0.1831,-0.3052,-0.0000,-0.1482,-0.2277,-10.6360,0.0111,-0.0016,0.0000,0.0000,0.0000,0.0000,0.0000,0.0000,0.0000,0.0000,0.0000,0.0000,0.0000,0.0000,0.0000,0.0000,0.0000,1.0000,0.0000,0.0000,0.0000,0.0000,0.0000,0.0000,0.0000,0.0000,0.0000,0.0000,0.0000,0.0000,0.0000,0.0000,0.0000,0.0000,0.0000,0.0000,-0.1000,-0.1000,-0.1000,-0.1000,4
0,-1,0,-10.4534,-0.1931,-0.0329,-0.1290,0.7510,0.2710,1.1622,23.4375,23.4375,23.4375,23.4375,12.2213,0.0000,0.0610,-0.0610,0.1221,-0.1172,-0.1942,-10.5238,0.0111,-0.0016,0.0000,0.0000,0.0000,0.0000,0.0000,0.0000,0.0000,0.0000,0.0000,0.0000,0.0000,0.0000,0.0000,0.0000,0.0000,1.0000,0.0000,0.0000,0.0000,0.0000,0.0000,0.0000,0.0000,0.0000,0.0000,0.0000,0.0000,0.0000,0.0000,0.0000,0.0000,0.0000,0.0000,0.0000,-0.1000,-0.1000,-0.1000,-0.1000,4
0,-1,0,-10.4534,-0.1931,-0.0329,-0.1290,0.7510,0.2710,1.1622,23.4375,23.4375,23.4375,23.4375,12.2205,0.0000,-0.3662,-0.1831,-0.0000,-0.1148,-0.2230,-10.5501,0.0111,-0.0016,0.0000,0.0000,0.0000,0.0000,0.0000,0.0000,0.0000,0.0000,0.0000,0.0000,0.0000,0.0000,0.0000,0.0000,0.0000,1.0000,0.0000,0.0000,0.0000,0.0000,0.0000,0.0000,0.0000,0.0000,0.0000,0.0000,0.0000,0.0000,0.0000,0.0000,0.0000,0.0000,0.0000,0.0000,-0.1000,-0.1000,-0.1000,-0.1000,4
0,-1,0,-10.4534,-0.1931,-0.0329,-0.1290,0.7510,0.2710,1.1622,23.4375,23.4375,23.4375,23.4375,12.2208,0.0000,-0.1831,-0.1831,0.1221,-0.1315,-0.2589,-10.6622,0.0111,-0.0016,0.0000,0.0000,0.0000,0.0000,0.0000,0.0000,0.0000,0.0000,0.0000,0.0000,0.0000,0.0000,0.0000,0.0000,0.0000,1.0000,0.0000,0.0000,0.0000,0.0000,0.0000,0.0000,0.0000,0.0000,0.0000,0.0000,0.0000,0.0000,0.0000,0.0000,0.0000,0.0000,0.0000,0.0000,-0.1000,-0.1000,-0.1000,-0.1000,4
0,-1,0,-10.5067,-0.1391,-0.0944,-0.4990,0.7310,0.1610,1.1622,23.4375,23.4375,23.4375,23.4375,12.2196,0.0000,-0.0610,-0.1221,-0.0000,-0.1626,-0.2134,-10.6050,0.0111,-0.0016,0.0000,0.0000,0.0000,0.0000,0.0000,0.0000,0.0000,0.0000,0.0000,0.0000,0.0000,0.0000,0.0000,0.0000,0.0000,1.0000,0.0000,0.0000,0.0000,0.0000,0.0000,0.0000,0.0000,0.0000,0.0000,0.0000,0.0000,0.0000,0.0000,0.0000,0.0000,0.0000,0.0000,0.0000,-0.1000,-0.1000,-0.1000,-0.1000,4
0,-1,0,-10.5067,-0.1391,-0.0944,-0.4990,0.7310,0.1610,1.1622,23.4375,23.4375,23.4375,23.4375,12.2193,0.0000,-0.1831,-0.1831,-0.0000,-0.1745,-0.2182,-10.6026,0.0112,-0.0019,0.0000,0.0000,0.0000,0.0000,0.0000,0.0000,0.0000,0.0000,0.0000,0.0000,0.0000,0.0000,0.0000,0.0000,0.0000,1.0000,0.0000,0.0000,0.0000,0.0000,0.0000,0.0000,0.0000,0.0000,0.0000,0.0000,0.0000,0.0000,0.0000,0.0000,0.0000,0.0000,0.0000,0.0000,-0.1000,-0.1000,-0.1000,-0.1000,4
0,-1,0,-10.5067,-0.1391,-0.0944,-0.4990,0.7310,0.1610,1.1622,23.4375,23.4375,23.4375,23.4375,12.2184,0.0000,0.0610,-0.0610,0.1831,-0.1435,-0.2253,-10.6097,0.0113,-0.0019,0.0001,0.0000,0.0000,0.0000,0.0000,0.0000,0.0000,0.0000,0.0000,0.0000,0.0000,0.0000,0.0000,0.0000,0.0000,1.0000,0.0000,0.0000,0.0000,0.0000,0.0000,0.0000,0.0000,0.0000,0.0000,0.0000,0.0000,0.0000,0.0000,0.0000,0.0000,0.0000,0.0000,0.0000,-0.1000,-0.1000,-0.1000,-0.1000,4
0,-1,0,-10.5067,-0.1391,-0.0944,-0.4990,0.7310,0.1610,1.1622,23.4375,23.4375,23.4375,23.4375,12.2181,0.0000,0.0000,0.0000,-0.0000,-0.1506,-0.2014,-10.5333,0.0113,-0.0019,0.0000,0.0000,0.0000,0.0000,0.0000,0.0000,0.0000,0.0000,0.0000,0.0000,0.0000,0.0000,0.0000,0.0000,0.0000,1.0000,0.0000,0.0000,0.0000,0.0000,0.0000,0.0000,0.0000,0.0000,0.0000,0.0000,0.0000,0.0000,0.0000,0.0000,0.0000,0.0000,0.0000,0.0000,-0.1000,-0.1000,-0.1000,-0.1000,4
0,-1,0,-10.5067,-0.1391,-0.0944,-0.4990,0.7310,0.1610,1.1622,23.4375,23.4375,23.4375,23.4375,12.2181,0.0000,-0.2441,-0.0610,-0.0000,-0.1554,-0.2014,-10.6073,0.0113,-0.0019,0.0000,0.0000,0.0000,0.0000,0.0000,0.0000,0.0000,0.0000,0.0000,0.0000,0.0000,0.0000,0.0000,0.0000,0.0000,1.0000,0.0000,0.0000,0.0000,0.0000,0.0000,0.0000,0.0000,0.0000,0.0000,0.0000,0.0000,0.0000,0.0000,0.0000,0.0000,0.0000,0.0000,0.0000,-0.1000,-0.1000,-0.1000,-0.1000,4
0,-1,0,-10.5067,-0.1391,-0.0944,-0.4990,0.7310,0.1610,1.1622,23.4375,23.4375,23.4375,23.4375,12.2184,0.0000,-0.2441,-0.1221,-0.0000,-0.1411,-0.2397,-10.5691,0.0113,-0.0019,0.0000,0.0000,0.0000,0.0000,0.0000,0.0000,0.0000,0.0000,0.0000,0.0000,0.0000,0.0000,0.0000,0.0000,0.0000,1.0000,0.0000,0.0000,0.0000,0.0000,0.0000,0.0000,0.0000,0.0000,0.0000,0.0000,0.0000,0.0000,0.0000,0.0000,0.0000,0.0000,0.0000,0.0000,-0.1000,-0.1000,-0.1000,-0.1000,4
0,-1,0,-10.5067,-0.1391,-0.0944,-0.4990,0.7310,0.1610,1.1622,23.4375,23.4375,23.4375,23.4375,12.2186,0.0000,0.0000,-0.1831,-0.0000,-0.1100,-0.2565,-10.6288,0.0113,-0.0020,0.0000,0.0000,0.0000,0.0000,0.0000,0.0000,0.0000,0.0000,0.0000,0.0000,0.0000,0.0000,0.0000,0.0000,0.0000,1.0000,0.0000,0.0000,0.0000,0.0000,0.0000,0.0000,0.0000,0.0000,0.0000,0.0000,0.0000,0.0000,0.0000,0.0000,0.0000,0.0000,0.0000,0.0000,-0.1000,-0.1000,-0.1000,-0.1000,4
0,-1,0,-10.5067,-0.1391,-0.0944,-0.4990,0.7310,0.1610,1.1622,23.4375,23.4375,23.4375,23.4375,12.2186,0.0000,-0.0610,-0.1831,-0.0610,-0.1363,-0.2134,-10.6145,0.0113,-0.0020,0.0000,0.0000,0.0000,0.0000,0.0000,0.0000,0.0000,0.0000,0.0000,0.0000,0.0000,0.0000,0.0000,0.0000,0.0000,1.0000,0.0000,0.0000,0.0000,0.0000,0.0000,0.0000,0.0000,0.0000,0.0000,0.0000,0.0000,0.0000,0.0000,0.0000,0.0000,0.0000,0.0000,0.0000,-0.1000,-0.1000,-0.1000,-0.1000,4
0,-1,0,-10.5067,-0.1391,-0.0944,-0.4990,0.7310,0.1610,1.1622,23.4375,23.4375,23.4375,23.4375,12.2193,0.0000,-0.0610,-0.1221,-0.0610,-0.1339,-0.2301,-10.6193,0.0113,-0.0020,0.0000,0.0000,0.0000,0.0000,0.0000,0.0000,0.0000,0.0000,0.0000,0.0000,0.0000,0.0000,0.0000,0.0000,0.0000,1.0000,0.0000,0.0000,0.0000,0.0000,0.0000,0.0000,0.0000,0.0000,0.0000,0.0000,0.0000,0.0000,0.0000,0.0000,0.0000,0.0000,0.0000,0.0000,-0.1000,-0.1000,-0.1000,-0.1000,4
0,-1,0,-10.5067,-0.1391,-0.0944,-0.4990,0.7310,0.1610,1.1622,23.4375,23.4375,23.4375,23.4375,12.2193,0.0000,-0.1831,-0.1221,-0.0000,-0.1506,-0.2469,-10.5501,0.0113,-0.0020,0.0000,0.0000,0.0000,0.0000,0.0000,0.0000,0.0000,0.0000,0.0000,0.0000,0.0000,0.0000,0.0000,0.0000,0.0000,1.0000,0.0000,0.0000,0.0000,0.0000,0.0000,0.0000,0.0000,0.0000,0.0000,0.0000,0.0000,0.0000,0.0000,0.0000,0.0000,0.0000,0.0000,0.0000,-0.1000,-0.1000,-0.1000,-0.1000,4
0,-1,0,-10.5067,-0.1391,-0.0944,-0.4990,0.7310,0.1610,1.1622,23.4375,23.4375,23.4375,23.4375,12.2213,0.0000,-0.1831,-0.0610,-0.0000,-0.1530,-0.2062,-10.6026,0.0113,-0.0020,0.0000,0.0000,0.0000,0.0000,0.0000,0.0000,0.0000,0.0000,0.0000,0.0000,0.0000,0.0000,0.0000,0.0000,0.0000,1.0000,0.0000,0.0000,0.0000,0.0000,0.0000,0.0000,0.0000,0.0000,0.0000,0.0000,0.0000,0.0000,0.0000,0.0000,0.0000,0.0000,0.0000,0.0000,-0.1000,-0.1000,-0.1000,-0.1000,4
0,-1,0,-10.5067,-0.1391,-0.0944,-0.4990,0.7310,0.1610,1.1622,23.4375,23.4375,23.4375,23.4375,12.2213,0.0000,0.0610,0.0000,0.1831,-0.1530,-0.2421,-10.5906,0.0113,-0.0020,0.0000,0.0000,0.0000,0.0000,0.0000,0.0000,0.0000,0.0000,0.0000,0.0000,0.0000,0.0000,0.0000,0.0000,0.0000,1.0000,0.0000,0.0000,0.0000,0.0000,0.0000,0.0000,0.0000,0.0000,0.0000,0.0000,0.0000,0.0000,0.0000,0.0000,0.0000,0.0000,0.0000,0.0000,-0.1000,-0.1000,-0.1000,-0.1000,4
0,-1,0,-10.5067,-0.1391,-0.0944,-0.4990,0.7310,0.1610,1.1622,23.4375,23.4375,23.4375,23.4375,12.2213,0.0000,0.0000,0.0000,0.1221,-0.1363,-0.2325,-10.6026,0.0114,-0.0021,0.0000,0.0000,0.0000,0.0000,0.0000,0.0000,0.0000,0.0000,0.0000,0.0000,0.0000,0.0000,0.0000,0.0000,0.0000,1.0000,0.0000,0.0000,0.0000,0.0000,0.0000,0.0000,0.0000,0.0000,0.0000,0.0000,0.0000,0.0000,0.0000,0.0000,0.0000,0.0000,0.0000,0.0000,-0.1000,-0.1000,-0.1000,-0.1000,4
0,-1,0,-10.5067,-0.1391,-0.0944,-0.4990,0.7310,0.1610,1.1622,23.4375,23.4375,23.4375,23.4375,12.2203,0.0000,0.0000,-0.1221,-0.0000,-0.1315,-0.2301,-10.6408,0.0114,-0.0021,0.0000,0.0000,0.0000,0.0000,0.0000,0.0000,0.0000,0.0000,0.0000,0.0000,0.0000,0.0000,0.0000,0.0000,0.0000,1.0000,0.0000,0.0000,0.0000,0.0000,0.0000,0.0000,0.0000,0.0000,0.0000,0.0000,0.0000,0.0000,0.0000,0.0000,0.0000,0.0000,0.0000,0.0000,-0.1000,-0.1000,-0.1000,-0.1000,4
0,-1,0,-10.5067,-0.1391,-0.0944,-0.4990,0.7310,0.1610,1.1622,23.4375,23.4375,23.4375,23.4375,12.2208,0.0000,-0.0610,-0.2441,0.1221,-0.1148,-0.2493,-10.5238,0.0114,-0.0021,0.0000,0.0000,0.0000,0.0000,0.0000,0.0000,0.0000,0.0000,0.0000,0.0000,0.0000,0.0000,0.0000,0.0000,0.0000,1.0000,0.0000,0.0000,0.0000,0.0000,0.0000,0.0000,0.0000,0.0000,0.0000,0.0000,0.0000,0.0000,0.0000,0.0000,0.0000,0.0000,0.0000,0.0000,-0.1000,-0.1000,-0.1000,-0.1000,4
0,-1,0,-10.5067,-0.1391,-0.0944,-0.4990,0.7310,0.1610,1.1622,23.4375,23.4375,23.4375,23.4375,12.2205,0.0000,0.1221,-0.0610,0.2441,-0.1650,-0.1678,-10.6145,0.0114,-0.0021,0.0001,0.0000,0.0000,0.0000,0.0000,0.0000,0.0000,0.0000,0.0000,0.0000,0.0000,0.0000,0.0000,0.0000,0.0000,1.0000,0.0000,0.0000,0.0000,0.0000,0.0000,0.0000,0.0000,0.0000,0.0000,0.0000,0.0000,0.0000,0.0000,0.0000,0.0000,0.0000,0.0000,0.0000,-0.1000,-0.1000,-0.1000,-0.1000,4
0,-1,0,-10.5067,-0.1391,-0.0944,-0.4990,0.7310,0.1610,1.1622,23.4375,23.4375,23.4375,23.4375,12.2200,0.0000,-0.0610,-0.1831,-0.0000,-0.1124,-0.2277,-10.6193,0.0114,-0.0021,0.0001,0.0000,0.0000,0.0000,0.0000,0.0000,0.0000,0.0000,0.0000,0.0000,0.0000,0.0000,0.0000,0.0000,0.0000,1.0000,0.0000,0.0000,0.0000,0.0000,0.0000,0.0000,0.0000,0.0000,0.0000,0.0000,0.0000,0.0000,0.0000,0.0000,0.0000,0.0000,0.0000,0.0000,-0.1000,-0.1000,-0.1000,-0.1000,4
0,-1,0,-10.5067,-0.1391,-0.0944,-0.4990,0.7310,0.1610,1.1622,23.4375,23.4375,23.4375,23.4375,12.2205,0.0000,-0.3052,-0.2441,0.1221,-0.1554,-0.2301,-10.6026,0.0114,-0.0022,0.0001,0.0000,0.0000,0.0000,0.0000,0.0000,0.0000,0.0000,0.0000,0.0000,0.0000,0.0000,0.0000,0.0000,0.0000,1.0000,0.0000,0.0000,0.0000,0.0000,0.0000,0.0000,0.0000,0.0000,0.0000,0.0000,0.0000,0.0000,0.0000,0.0000,0.0000,0.0000,0.0000,0.0000,-0.1000,-0.1000,-0.1000,-0.1000,4
0,-1,0,-10.5067,-0.1391,-0.0944,-0.4990,0.7310,0.1610,1.1622,23.4375,23.4375,23.4375,23.4375,12.2208,0.0000,0.0000,0.0000,-0.0000,-0.1219,-0.1990,-10.5715,0.0114,-0.0022,0.0001,0.0000,0.0000,0.0000,0.0000,0.0000,0.0000,0.0000,0.0000,0.0000,0.0000,0.0000,0.0000,0.0000,0.0000,1.0000,0.0000,0.0000,0.0000,0.0000,0.0000,0.0000,0.0000,0.0000,0.0000,0.0000,0.0000,0.0000,0.0000,0.0000,0.0000,0.0000,0.0000,0.0000,-0.1000,-0.1000,-0.1000,-0.1000,4
0,-1,0,-10.5067,-0.1391,-0.0944,-0.4990,0.7310,0.1610,1.1622,23.4375,23.4375,23.4375,23.4375,12.2205,0.0000,-0.1831,-0.1221,0.1221,-0.1411,-0.2038,-10.5859,0.0114,-0.0022,0.0001,0.0000,0.0000,0.0000,0.0000,0.0000,0.0000,0.0000,0.0000,0.0000,0.0000,0.0000,0.0000,0.0000,0.0000,1.0000,0.0000,0.0000,0.0000,0.0000,0.0000,0.0000,0.0000,0.0000,0.0000,0.0000,0.0000,0.0000,0.0000,0.0000,0.0000,0.0000,0.0000,0.0000,-0.1000,-0.1000,-0.1000,-0.1000,4
0,-1,0,-10.5067,-0.1391,-0.0944,-0.4990,0.7310,0.1610,1.1622,23.4375,23.4375,23.4375,23.4375,12.2213,0.0000,-0.0610,-0.1831,-0.0000,-0.1626,-0.2277,-10.6622,0.0115,-0.0022,0.0001,0.0000,0.0000,0.0000,0.0000,0.0000,0.0000,0.0000,0.0000,0.0000,0.0000,0.0000,0.0000,0.0000,0.0000,1.0000,0.0000,0.0000,0.0000,0.0000,0.0000,0.0000,0.0000,0.0000,0.0000,0.0000,0.0000,0.0000,0.0000,0.0000,0.0000,0.0000,0.0000,0.0000,-0.1000,-0.1000,-0.1000,-0.1000,4
0,-1,0,-10.5067,-0.1391,-0.0944,-0.4990,0.7310,0.1610,1.1622,23.4375,23.4375,23.4375,23.4375,12.2217,0.0000,0.0000,0.0000,-0.1221,-0.1721,-0.2373,-10.6240,0.0115,-0.0022,0.0001,0.0000,0.0000,0.0000,0.0000,0.0000,0.0000,0.0000,0.0000,0.0000,0.0000,0.0000,0.0000,0.0000,0.0000,1.0000,0.0000,0.0000,0.0000,0.0000,0.0000,0.0000,0.0000,0.0000,0.0000,0.0000,0.0000,0.0000,0.0000,0.0000,0.0000,0.0000,0.0000,0.0000,-0.1000,-0.1000,-0.1000,-0.1000,4
0,-1,0,-10.5067,-0.1391,-0.0944,-0.4990,0.7310,0.1610,1.1622,23.4375,23.4375,23.4375,23.4375,12.2217,0.0000,0.0610,0.0000,-0.0610,-0.1674,-0.1918,-10.6599,0.0115,-0.0022,0.0000,0.0000,0.0000,0.0000,0.0000,0.0000,0.0000,0.0000,0.0000,0.0000,0.0000,0.0000,0.0000,0.0000,0.0000,1.0000,0.0000,0.0000,0.0000,0.0000,0.0000,0.0000,0.0000,0.0000,0.0000,0.0000,0.0000,0.0000,0.0000,0.0000,0.0000,0.0000,0.0000,0.0000,-0.1000,-0.1000,-0.1000,-0.1000,4
0,-1,0,-10.5067,-0.1391,-0.0944,-0.0790,0.2410,0.0710,1.1622,23.4375,23.4375,23.4375,23.4375,12.2217,0.0000,0.0000,-0.2441,0.1221,-0.1674,-0.2038,-10.6002,0.0115,-0.0023,0.0000,0.0000,0.0000,0.0000,0.0000,0.0000,0.0000,0.0000,0.0000,0.0000,0.0000,0.0000,0.0000,0.0000,0.0000,1.0000,0.0000,0.0000,0.0000,0.0000,0.0000,0.0000,0.0000,0.0000,0.0000,0.0000,0.0000,0.0000,0.0000,0.0000,0.0000,0.0000,0.0000,0.0000,-0.1000,-0.1000,-0.1000,-0.1000,4
0,-1,0,-10.5067,-0.1391,-0.0944,-0.0790,0.2410,0.0710,1.1622,23.4375,23.4375,23.4375,23.4375,12.2208,0.0000,-0.0610,-0.1831,-0.0000,-0.1841,-0.2038,-10.6145,0.0115,-0.0023,0.0000,0.0000,0.0000,0.0000,0.0000,0.0000,0.0000,0.0000,0.0000,0.0000,0.0000,0.0000,0.0000,0.0000,0.0000,1.0000,0.0000,0.0000,0.0000,0.0000,0.0000,0.0000,0.0000,0.0000,0.0000,0.0000,0.0000,0.0000,0.0000,0.0000,0.0000,0.0000,0.0000,0.0000,-0.1000,-0.1000,-0.1000,-0.1000,4
0,-1,0,-10.5067,-0.1391,-0.0944,-0.0790,0.2410,0.0710,1.1622,23.4375,23.4375,23.4375,23.4375,12.2208,0.0000,-0.2441,-0.0610,0.1221,-0.1745,-0.2230,-10.6240,0.0115,-0.0023,0.0000,0.0000,0.0000,0.0000,0.0000,0.0000,0.0000,0.0000,0.0000,0.0000,0.0000,0.0000,0.0000,0.0000,0.0000,1.0000,0.0000,0.0000,0.0000,0.0000,0.0000,0.0000,0.0000,0.0000,0.0000,0.0000,0.0000,0.0000,0.0000,0.0000,0.0000,0.0000,0.0000,0.0000,-0.1000,-0.1000,-0.1000,-0.1000,4
0,-1,0,-10.4744,-0.1758,-0.0573,-0.0790,0.2410,0.0710,1.1622,23.4375,23.4375,23.4375,23.4375,12.2205,0.0000,-0.0610,-0.1831,0.1221,-0.1411,-0.2158,-10.5668,0.0115,-0.0023,0.0000,0.0000,0.0000,0.0000,0.0000,0.0000,0.0000,0.0000,0.0000,0.0000,0.0000,0.0000,0.0000,0.0000,0.0000,1.0000,0.0000,0.0000,0.0000,0.0000,0.0000,0.0000,0.0000,0.0000,0.0000,0.0000,0.0000,0.0000,0.0000,0.0000,0.0000,0.0000,0.0000,0.0000,-0.1000,-0.1000,-0.1000,-0.1000,4
0,-1,0,-10.4744,-0.1758,-0.0573,-0.0790,0.2410,0.0710,1.1622,23.4375,23.4375,23.4375,23.4375,12.2213,0.0000,0.0000,-0.0610,0.1221,-0.1172,-0.2325,-10.5859,0.0116,-0.0024,0.0000,0.0000,0.0000,0.0000,0.0000,0.0000,0.0000,0.0000,0.0000,0.0000,0.0000,0.0000,0.0000,0.0000,0.0000,1.0000,0.0000,0.0000,0.0000,0.0000,0.0000,0.0000,0.0000,0.0000,0.0000,0.0000,0.0000,0.0000,0.0000,0.0000,0.0000,0.0000,0.0000,0.0000,-0.1000,-0.1000,-0.1000,-0.1000,4
0,-1,0,-10.4744,-0.1758,-0.0573,-0.0790,0.2410,0.0710,1.1622,23.4375,23.4375,23.4375,23.4375,12.2205,0.0000,0.0000,-0.1221,0.1221,-0.1554,-0.1990,-10.6026,0.0116,-0.0024,0.0000,0.0000,0.0000,0.0000,0.0000,0.0000,0.0000,0.0000,0.0000,0.0000,0.0000,0.0000,0.0000,0.0000,0.0000,1.0000,0.0000,0.0000,0.0000,0.0000,0.0000,0.0000,0.0000,0.0000,0.0000,0.0000,0.0000,0.0000,0.0000,0.0000,0.0000,0.0000,0.0000,0.0000,-0.1000,-0.1000,-0.1000,-0.1000,4
0,-1,0,-10.4744,-0.1758,-0.0573,-0.0790,0.2410,0.0710,1.1622,23.4375,23.4375,23.4375,23.4375,12.2193,0.0000,-0.1221,-0.0610,0.1221,-0.1745,-0.1918,-10.6264,0.0116,-0.0025,0.0000,0.0000,0.0000,0.0000,0.0000,0.0000,0.0000,0.0000,0.0000,0.0000,0.0000,0.0000,0.0000,0.0000,0.0000,1.0000,0.0000,0.0000,0.0000,0.0000,0.0000,0.0000,0.0000,0.0000,0.0000,0.0000,0.0000,0.0000,0.0000,0.0000,0.0000,0.0000,0.0000,0.0000,-0.1000,-0.1000,-0.1000,-0.1000,4
0,-1,0,-10.4744,-0.1758,-0.0573,-0.0790,0.2410,0.0710,1.1622,23.4375,23.4375,23.4375,23.4375,12.2196,0.0000,0.3052,-0.1221,0.1831,-0.0956,-0.2373,-10.6240,0.0116,-0.0025,0.0001,0.0000,0.0000,0.0000,0.0000,0.0000,0.0000,0.0000,0.0000,0.0000,0.0000,0.0000,0.0000,0.0000,0.0000,1.0000,0.0000,0.0000,0.0000,0.0000,0.0000,0.0000,0.0000,0.0000,0.0000,0.0000,0.0000,0.0000,0.0000,0.0000,0.0000,0.0000,0.0000,0.0000,-0.1000,-0.1000,-0.1000,-0.1000,4
0,-1,0,-10.4744,-0.1758,-0.0573,-0.0790,0.2410,0.0710,1.1622,23.4375,23.4375,23.4375,23.4375,12.2200,0.0000,-0.2441,-0.1221,-0.0000,-0.1626,-0.2301,-10.6670,0.0116,-0.0025,0.0001,0.0000,0.0000,0.0000,0.0000,0.0000,0.0000,0.0000,0.0000,0.0000,0.0000,0.0000,0.0000,0.0000,0.0000,1.0000,0.0000,0.0000,0.0000,0.0000,0.0000,0.0000,0.0000,0.0000,0.0000,0.0000,0.0000,0.0000,0.0000,0.0000,0.0000,0.0000,0.0000,0.0000,-0.1000,-0.1000,-0.1000,-0.1000,4
0,-1,0,-10.4744,-0.1758,-0.0573,-0.0790,0.2410,0.0710,1.1622,23.4375,23.4375,23.4375,23.4375,12.2198,0.0000,-0.1221,-0.0610,0.1831,-0.1602,-0.1894,-10.5691,0.0116,-0.0025,0.0001,0.0000,0.0000,0.0000,0.0000,0.0000,0.0000,0.0000,0.0000,0.0000,0.0000,0.0000,0.0000,0.0000,0.0000,1.0000,0.0000,0.0000,0.0000,0.0000,0.0000,0.0000,0.0000,0.0000,0.0000,0.0000,0.0000,0.0000,0.0000,0.0000,0.0000,0.0000,0.0000,0.0000,-0.1000,-0.1000,-0.1000,-0.1000,4
0,-1,0,-10.4744,-0.1758,-0.0573,-0.0790,0.2410,0.0710,1.1622,23.4375,23.4375,23.4375,23.4375,12.2205,0.0000,-0.0610,-0.1831,0.1831,-0.1530,-0.1966,-10.6145,0.0117,-0.0025,0.0001,0.0000,0.0000,0.0000,0.0000,0.0000,0.0000,0.0000,0.0000,0.0000,0.0000,0.0000,0.0000,0.0000,0.0000,1.0000,0.0000,0.0000,0.0000,0.0000,0.0000,0.0000,0.0000,0.0000,0.0000,0.0000,0.0000,0.0000,0.0000,0.0000,0.0000,0.0000,0.0000,0.0000,-0.1000,-0.1000,-0.1000,-0.1000,4
0,-1,0,-10.4744,-0.1758,-0.0573,-0.0790,0.2410,0.0710,1.1622,23.4375,23.4375,23.4375,23.4375,12.2198,0.0000,-0.1831,-0.3052,-0.0000,-0.1411,-0.1798,-10.6145,0.0117,-0.0026,0.0001,0.0000,0.0000,0.0000,0.0000,0.0000,0.0000,0.0000,0.0000,0.0000,0.0000,0.0000,0.0000,0.0000,0.0000,1.0000,0.0000,0.0000,0.0000,0.0000,0.0000,0.0000,0.0000,0.0000,0.0000,0.0000,0.0000,0.0000,0.0000,0.0000,0.0000,0.0000,0.0000,0.0000,-0.1000,-0.1000,-0.1000,-0.1000,4
0,-1,0,-10.4744,-0.1758,-0.0573,-0.0790,0.2410,0.0710,1.1622,23.4375,23.4375,23.4375,23.4375,12.2210,0.0000,-0.0610,-0.1831,-0.0000,-0.1841,-0.2086,-10.6527,0.0117,-0.0026,0.0001,0.0000,0.0000,0.0000,0.0000,0.0000,0.0000,0.0000,0.0000,0.0000,0.0000,0.0000,0.0000,0.0000,0.0000,1.0000,0.0000,0.0000,0.0000,0.0000,0.0000,0.0000,0.0000,0.0000,0.0000,0.0000,0.0000,0.0000,0.0000,0.0000,0.0000,0.0000,0.0000,0.0000,-0.1000,-0.1000,-0.1000,-0.1000,4
0,-1,0,-10.4744,-0.1758,-0.0573,-0.0790,0.2410,0.0710,1.1622,23.4375,23.4375,23.4375,23.4375,12.2205,0.0000,-0.0610,-0.1221,-0.0000,-0.1578,-0.1702,-10.6193,0.0117,-0.0026,0.0001,0.0000,0.0000,0.0000,0.0000,0.0000,0.0000,0.0000,0.0000,0.0000,0.0000,0.0000,0.0000,0.0000,0.0000,1.0000,0.0000,0.0000,0.0000,0.0000,0.0000,0.0000,0.0000,0.0000,0.0000,0.0000,0.0000,0.0000,0.0000,0.0000,0.0000,0.0000,0.0000,0.0000,-0.1000,-0.1000,-0.1000,-0.1000,4
0,-1,0,-10.4744,-0.1758,-0.0573,-0.0790,0.2410,0.0710,1.1622,23.4375,23.4375,23.4375,23.4375,12.2198,0.0000,-0.1221,-0.0610,0.1831,-0.1411,-0.1822,-10.5739,0.0117,-0.0026,0.0001,0.0000,0.0000,0.0000,0.0000,0.0000,0.0000,0.0000,0.0000,0.0000,0.0000,0.0000,0.0000,0.0000,0.0000,1.0000,0.0000,0.0000,0.0000,0.0000,0.0000,0.0000,0.0000,0.0000,0.0000,0.0000,0.0000,0.0000,0.0000,0.0000,0.0000,0.0000,0.0000,0.0000,-0.1000,-0.1000,-0.1000,-0.1000,4
0,-1,0,-10.4744,-0.1758,-0.0573,-0.0790,0.2410,0.0710,1.1622,23.4375,23.4375,23.4375,23.4375,12.2191,0.0000,0.0610,-0.1831,-0.0000,-0.1578,-0.2110,-10.6121,0.0117,-0.0026,0.0001,0.0000,0.0000,0.0000,0.0000,0.0000,0.0000,0.0000,0.0000,0.0000,0.0000,0.0000,0.0000,0.0000,0.0000,1.0000,0.0000,0.0000,0.0000,0.0000,0.0000,0.0000,0.0000,0.0000,0.0000,0.0000,0.0000,0.0000,0.0000,0.0000,0.0000,0.0000,0.0000,0.0000,-0.1000,-0.1000,-0.1000,-0.1000,4
0,-1,0,-10.4744,-0.1758,-0.0573,-0.0790,0.2410,0.0710,1.1622,23.4375,23.4375,23.4375,23.4375,12.2191,0.0000,0.0000,-0.0610,-0.0000,-0.1578,-0.1846,-10.6312,0.0117,-0.0027,0.0001,0.0000,0.0000,0.0000,0.0000,0.0000,0.0000,0.0000,0.0000,0.0000,0.0000,0.0000,0.0000,0.0000,0.0000,1.0000,0.0000,0.0000,0.0000,0.0000,0.0000,0.0000,0.0000,0.0000,0.0000,0.0000,0.0000,0.0000,0.0000,0.0000,0.0000,0.0000,0.0000,0.0000,-0.1000,-0.1000,-0.1000,-0.1000,4
0,-1,0,-10.4744,-0.1758,-0.0573,-0.0790,0.2410,0.0710,1.1622,23.4375,23.4375,23.4375,23.4375,12.2198,0.0000,0.0000,0.0610,-0.0000,-0.1267,-0.2230,-10.7028,0.0117,-0.0027,0.0001,0.0000,0.0000,0.0000,0.0000,0.0000,0.0000,0.0000,0.0000,0.0000,0.0000,0.0000,0.0000,0.0000,0.0000,1.0000,0.0000,0.0000,0.0000,0.0000,0.0000,0.0000,0.0000,0.0000,0.0000,0.0000,0.0000,0.0000,0.0000,0.0000,0.0000,0.0000,0.0000,0.0000,-0.1000,-0.1000,-0.1000,-0.1000,4
0,-1,0,-10.4744,-0.1758,-0.0573,-0.0790,0.2410,0.0710,1.1622,23.4375,23.4375,23.4375,23.4375,12.2188,0.0000,-0.0610,-0.1831,0.1221,-0.1506,-0.1894,-10.5071,0.0117,-0.0027,0.0001,0.0000,0.0000,0.0000,0.0000,0.0000,0.0000,0.0000,0.0000,0.0000,0.0000,0.0000,0.0000,0.0000,0.0000,1.0000,0.0000,0.0000,0.0000,0.0000,0.0000,0.0000,0.0000,0.0000,0.0000,0.0000,0.0000,0.0000,0.0000,0.0000,0.0000,0.0000,0.0000,0.0000,-0.1000,-0.1000,-0.1000,-0.1000,4
0,-1,0,-10.4744,-0.1758,-0.0573,-0.0790,0.2410,0.0710,1.1622,23.4375,23.4375,23.4375,23.4375,12.2196,0.0000,-0.1831,-0.2441,0.1221,-0.1745,-0.2230,-10.6336,0.0117,-0.0027,0.0001,0.0000,0.0000,0.0000,0.0000,0.0000,0.0000,0.0000,0.0000,0.0000,0.0000,0.0000,0.0000,0.0000,0.0000,1.0000,0.0000,0.0000,0.0000,0.0000,0.0000,0.0000,0.0000,0.0000,0.0000,0.0000,0.0000,0.0000,0.0000,0.0000,0.0000,0.0000,0.0000,0.0000,-0.1000,-0.1000,-0.1000,-0.1000,4
0,-1,0,-10.4744,-0.1758,-0.0573,-0.0790,0.2410,0.0710,1.1622,23.4375,23.4375,23.4375,23.4375,12.2193,0.0000,-0.0610,-0.2441,-0.0000,-0.1148,-0.2062,-10.6384,0.0117,-0.0027,0.0001,0.0000,0.0000,0.0000,0.0000,0.0000,0.0000,0.0000,0.0000,0.0000,0.0000,0.0000,0.0000,0.0000,0.0000,1.0000,0.0000,0.0000,0.0000,0.0000,0.0000,0.0000,0.0000,0.0000,0.0000,0.0000,0.0000,0.0000,0.0000,0.0000,0.0000,0.0000,0.0000,0.0000,-0.1000,-0.1000,-0.1000,-0.1000,4
0,-1,0,-10.4744,-0.1758,-0.0573,-0.0790,0.2410,0.0710,1.1622,23.4375,23.4375,23.4375,23.4375,12.2205,0.0000,0.1831,-0.0610,0.1221,-0.1937,-0.2110,-10.6622,0.0118,-0.0028,0.0001,0.0000,0.0000,0.0000,0.0000,0.0000,0.0000,0.0000,0.0000,0.0000,0.0000,0.0000,0.0000,0.0000,0.0000,1.0000,0.0000,0.0000,0.0000,0.0000,0.0000,0.0000,0.0000,0.0000,0.0000,0.0000,0.0000,0.0000,0.0000,0.0000,0.0000,0.0000,0.0000,0.0000,-0.1000,-0.1000,-0.1000,-0.1000,4
0,-1,0,-10.4744,-0.1758,-0.0573,-0.0790,0.2410,0.0710,1.1622,23.4375,23.4375,23.4375,23.4375,12.2203,0.0000,-0.1831,-0.1831,0.1221,-0.1411,-0.1990,-10.5835,0.0118,-0.0028,0.0001,0.0000,0.0000,0.0000,0.0000,0.0000,0.0000,0.0000,0.0000,0.0000,0.0000,0.0000,0.0000,0.0000,0.0000,1.0000,0.0000,0.0000,0.0000,0.0000,0.0000,0.0000,0.0000,0.0000,0.0000,0.0000,0.0000,0.0000,0.0000,0.0000,0.0000,0.0000,0.0000,0.0000,-0.1000,-0.1000,-0.1000,-0.1000,4
0,-1,0,-10.4744,-0.1758,-0.0573,0.0510,0.1110,0.0210,1.1622,23.4375,23.4375,23.4375,23.4375,12.2203,0.0000,0.0000,-0.1221,0.1221,-0.1387,-0.2062,-10.5596,0.0118,-0.0028,0.0001,0.0000,0.0000,0.0000,0.0000,0.0000,0.0000,0.0000,0.0000,0.0000,0.0000,0.0000,0.0000,0.0000,0.0000,1.0000,0.0000,0.0000,0.0000,0.0000,0.0000,0.0000,0.0000,0.0000,0.0000,0.0000,0.0000,0.0000,0.0000,0.0000,0.0000,0.0000,0.0000,0.0000,-0.1000,-0.1000,-0.1000,-0.1000,4
0,-1,0,-10.5103,-0.1505,0.0688,0.0510,0.1110,0.0210,1.1622,23.4375,23.4375,23.4375,23.4375,12.2193,0.0000,-0.1831,-0.1831,0.1221,-0.1482,-0.2230,-10.5262,0.0118,-0.0028,0.0001,0.0000,0.0000,0.0000,0.0000,0.0000,0.0000,0.0000,0.0000,0.0000,0.0000,0.0000,0.0000,0.0000,0.0000,1.0000,0.0000,0.0000,0.0000,0.0000,0.0000,0.0000,0.0000,0.0000,0.0000,0.0000,0.0000,0.0000,0.0000,0.0000,0.0000,0.0000,0.0000,0.0000,-0.1000,-0.1000,-0.1000,-0.1000,4
0,-1,0,-10.5103,-0.1505,0.0688,0.0510,0.1110,0.0210,1.1622,23.4375,23.4375,23.4375,23.4375,12.2184,0.0000,0.0000,-0.1831,-0.0000,-0.1937,-0.2038,-10.5691,0.0119,-0.0030,0.0001,0.0000,0.0000,0.0000,0.0000,0.0000,0.0000,0.0000,0.0000,0.0000,0.0000,0.0000,0.0000,0.0000,0.0000,1.0000,0.0000,0.0000,0.0000,0.0000,0.0000,0.0000,0.0000,0.0000,0.0000,0.0000,0.0000,0.0000,0.0000,0.0000,0.0000,0.0000,0.0000,0.0000,-0.1000,-0.1000,-0.1000,-0.1000,4
0,-1,0,-10.5103,-0.1505,0.0688,0.0510,0.1110,0.0210,1.1622,23.4375,23.4375,23.4375,23.4375,12.2193,0.0000,-0.0610,-0.2441,0.1221,-0.1674,-0.1630,-10.5835,0.0119,-0.0031,0.0001,0.0000,0.0000,0.0000,0.0000,0.0000,0.0000,0.0000,0.0000,0.0000,0.0000,0.0000,0.0000,0.0000,0.0000,1.0000,0.0000,0.0000,0.0000,0.0000,0.0000,0.0000,0.0000,0.0000,0.0000,0.0000,0.0000,0.0000,0.0000,0.0000,0.0000,0.0000,0.0000,0.0000,-0.1000,-0.1000,-0.1000,-0.1000,4
0,-1,0,-10.5103,-0.1505,0.0688,0.0510,0.1110,0.0210,1.1622,23.4375,23.4375,23.4375,23.4375,12.2188,0.0000,-0.2441,-0.1221,-0.0000,-0.1530,-0.2541,-10.6193,0.0119,-0.0031,0.0001,0.0000,0.0000,0.0000,0.0000,0.0000,0.0000,0.0000,0.0000,0.0000,0.0000,0.0000,0.0000,0.0000,0.0000,1.0000,0.0000,0.0000,0.0000,0.0000,0.0000,0.0000,0.0000,0.0000,0.0000,0.0000,0.0000,0.0000,0.0000,0.0000,0.0000,0.0000,0.0000,0.0000,-0.1000,-0.1000,-0.1000,-0.1000,4
0,-1,0,-10.5103,-0.1505,0.0688,0.0510,0.1110,0.0210,1.1622,23.4375,23.4375,23.4375,23.4375,12.2169,0.0000,-0.1831,-0.0610,-0.0610,-0.1243,-0.2110,-10.6431,0.0119,-0.0031,0.0001,0.0000,0.0000,0.0000,0.0000,0.0000,0.0000,0.0000,0.0000,0.0000,0.0000,0.0000,0.0000,0.0000,0.0000,1.0000,0.0000,0.0000,0.0000,0.0000,0.0000,0.0000,0.0000,0.0000,0.0000,0.0000,0.0000,0.0000,0.0000,0.0000,0.0000,0.0000,0.0000,0.0000,-0.1000,-0.1000,-0.1000,-0.1000,4
0,-1,0,-10.5103,-0.1505,0.0688,0.0510,0.1110,0.0210,1.1622,23.4375,23.4375,23.4375,23.4375,12.2167,0.0000,-0.0610,-0.1221,-0.0000,-0.1267,-0.1990,-10.5524,0.0119,-0.0031,0.0001,0.0000,0.0000,0.0000,0.0000,0.0000,0.0000,0.0000,0.0000,0.0000,0.0000,0.0000,0.0000,0.0000,0.0000,1.0000,0.0000,0.0000,0.0000,0.0000,0.0000,0.0000,0.0000,0.0000,0.0000,0.0000,0.0000,0.0000,0.0000,0.0000,0.0000,0.0000,0.0000,0.0000,-0.1000,-0.1000,-0.1000,-0.1000,4
0,-1,0,-10.5103,-0.1505,0.0688,0.0510,0.1110,0.0210,1.1622,23.4375,23.4375,23.4375,23.4375,12.2155,0.0000,0.0000,-0.1831,0.1831,-0.1315,-0.1894,-10.6312,0.0119,-0.0031,0.0001,0.0000,0.0000,0.0000,0.0000,0.0000,0.0000,0.0000,0.0000,0.0000,0.0000,0.0000,0.0000,0.0000,0.0000,1.0000,0.0000,0.0000,0.0000,0.0000,0.0000,0.0000,0.0000,0.0000,0.0000,0.0000,0.0000,0.0000,0.0000,0.0000,0.0000,0.0000,0.0000,0.0000,-0.1000,-0.1000,-0.1000,-0.1000,4
0,-1,0,-10.5103,-0.1505,0.0688,0.0510,0.1110,0.0210,1.1622,23.4375,23.4375,23.4375,23.4375,12.2138,0.0000,-0.1221,-0.0610,-0.0000,-0.0454,-0.1151,-10.6646,0.0119,-0.0031,0.0001,0.0000,0.0000,0.0000,0.0000,0.0000,0.0000,0.0000,0.0000,0.0000,0.0000,0.0000,0.0000,0.0000,0.0000,1.0000,0.0000,0.0000,0.0000,0.0000,0.0000,0.0000,0.0000,0.0000,0.0000,0.0000,0.0000,0.0000,0.0000,0.0000,0.0000,0.0000,0.0000,0.0000,-0.1000,-0.1000,-0.1000,-0.1000,4
0,-1,0,-10.5103,-0.1505,0.0688,0.0510,0.1110,0.0210,1.1622,23.4375,23.4375,23.4375,23.4375,12.2104,0.0000,0.0000,-0.2441,0.1221,-0.3156,-0.3428,-10.6455,0.0120,-0.0032,0.0001,0.0000,0.0000,0.0000,0.0000,0.0000,0.0000,0.0000,0.0000,0.0000,0.0000,0.0000,0.0000,0.0000,0.0000,1.0000,0.0000,0.0000,0.0000,0.0000,0.0000,0.0000,0.0000,0.0000,0.0000,0.0000,0.0000,0.0000,0.0000,0.0000,0.0000,0.0000,0.0000,0.0000,-0.1000,-0.1000,-0.1000,-0.1000,4
0,-1,0,-10.5103,-0.1505,0.0688,0.0510,0.1110,0.0210,1.1622,23.4375,23.4375,23.4375,23.4375,12.2084,0.0000,-0.1831,-0.2441,-0.0000,0.0167,-0.0791,-10.5811,0.0120,-0.0032,0.0001,0.0000,0.0000,0.0000,0.0000,0.0000,0.0000,0.0000,0.0000,0.0000,0.0000,0.0000,0.0000,0.0000,0.0000,1.0000,0.0000,0.0000,0.0000,0.0000,0.0000,0.0000,0.0000,0.0000,0.0000,0.0000,0.0000,0.0000,0.0000,0.0000,0.0000,0.0000,0.0000,0.0000,-0.1000,-0.1000,-0.1000,-0.1000,4
0,-1,0,-10.5103,-0.1505,0.0688,0.0510,0.1110,0.0210,1.1622,23.4375,23.4375,23.4375,23.4375,12.2065,0.0000,-0.1831,-0.0610,-0.0610,-0.1865,-0.3620,-10.6479,0.0120,-0.0032,0.0001,0.0000,0.0000,0.0000,0.0000,0.0000,0.0000,0.0000,0.0000,0.0000,0.0000,0.0000,0.0000,0.0000,0.0000,1.0000,0.0000,0.0000,0.0000,0.0000,0.0000,0.0000,0.0000,0.0000,0.0000,0.0000,0.0000,0.0000,0.0000,0.0000,0.0000,0.0000,0.0000,0.0000,-0.1000,-0.1000,-0.1000,-0.1000,4
0,-1,0,-10.5103,-0.1505,0.0688,0.0510,0.1110,0.0210,1.1622,23.4375,23.4375,23.4375,23.4375,12.2043,0.0000,-0.0610,-0.3052,0.3052,-0.1650,-0.1606,-10.5572,0.0120,-0.0032,0.0001,0.0000,0.0000,0.0000,0.0000,0.0000,0.0000,0.0000,0.0000,0.0000,0.0000,0.0000,0.0000,0.0000,0.0000,1.0000,0.0000,0.0000,0.0000,0.0000,0.0000,0.0000,0.0000,0.0000,0.0000,0.0000,0.0000,0.0000,0.0000,0.0000,0.0000,0.0000,0.0000,0.0000,-0.1000,-0.1000,-0.1000,-0.1000,4
0,-1,0,-10.5103,-0.1505,0.0688,0.0510,0.1110,0.0210,1.1622,23.4375,23.4375,23.4375,23.4375,12.2026,0.0000,-0.1831,-0.0610,-0.1221,-0.0980,-0.2973,-10.6050,0.0120,-0.0032,0.0001,0.0000,0.0000,0.0000,0.0000,0.0000,0.0000,0.0000,0.0000,0.0000,0.0000,0.0000,0.0000,0.0000,0.0000,1.0000,0.0000,0.0000,0.0000,0.0000,0.0000,0.0000,0.0000,0.0000,0.0000,0.0000,0.0000,0.0000,0.0000,0.0000,0.0000,0.0000,0.0000,0.0000,-0.1000,-0.1000,-0.1000,-0.1000,4
0,-1,0,-10.5103,-0.1505,0.0688,0.0510,0.1110,0.0210,1.1622,23.4375,23.4375,23.4375,23.4375,12.2007,0.0000,0.0000,0.1221,0.3052,-0.0765,-0.0527,-10.6408,0.0120,-0.0032,0.0001,0.0000,0.0000,0.0000,0.0000,0.0000,0.0000,0.0000,0.0000,0.0000,0.0000,0.0000,0.0000,0.0000,0.0000,1.0000,0.0000,0.0000,0.0000,0.0000,0.0000,0.0000,0.0000,0.0000,0.0000,0.0000,0.0000,0.0000,0.0000,0.0000,0.0000,0.0000,0.0000,0.0000,-0.1000,-0.1000,-0.1000,-0.1000,4
0,-1,0,-10.5103,-0.1505,0.0688,0.0510,0.1110,0.0210,1.1622,23.4375,23.4375,23.4375,23.4375,12.1995,0.0000,-0.0610,-0.4272,-0.0000,-0.2463,-0.4315,-10.5596,0.0120,-0.0033,0.0001,0.0000,0.0000,0.0000,0.0000,0.0000,0.0000,0.0000,0.0000,0.0000,0.0000,0.0000,0.0000,0.0000,0.0000,1.0000,0.0000,0.0000,0.0000,0.0000,0.0000,0.0000,0.0000,0.0000,0.0000,0.0000,0.0000,0.0000,0.0000,0.0000,0.0000,0.0000,0.0000,0.0000,-0.1000,-0.1000,-0.1000,-0.1000,4
0,-1,0,-10.5103,-0.1505,0.0688,0.0510,0.1110,0.0210,1.1622,23.4375,23.4375,23.4375,23.4375,12.1973,0.0000,0.0000,-0.1831,0.2441,-0.1267,-0.0887,-10.6097,0.0120,-0.0033,0.0001,0.0000,0.0000,0.0000,0.0000,0.0000,0.0000,0.0000,0.0000,0.0000,0.0000,0.0000,0.0000,0.0000,0.0000,1.0000,0.0000,0.0000,0.0000,0.0000,0.0000,0.0000,0.0000,0.0000,0.0000,0.0000,0.0000,0.0000,0.0000,0.0000,0.0000,0.0000,0.0000,0.0000,-0.1000,-0.1000,-0.1000,-0.1000,4
0,-1,0,-10.5337,-0.1467,0.0379,0.0210,0.0810,-0.0090,1.1622,23.4375,23.4375,23.4375,23.4375,12.1956,0.0000,0.0610,-0.1831,-0.0000,-0.1076,-0.2709,-10.6288,0.0120,-0.0033,0.0001,0.0000,0.0000,0.0000,0.0000,0.0000,0.0000,0.0000,0.0000,0.0000,0.0000,0.0000,0.0000,0.0000,0.0000,1.0000,0.0000,0.0000,0.0000,0.0000,0.0000,0.0000,0.0000,0.0000,0.0000,0.0000,0.0000,0.0000,0.0000,0.0000,0.0000,0.0000,0.0000,0.0000,-0.1000,-0.1000,-0.1000,-0.1000,4
0,-1,0,-10.5337,-0.1467,0.0379,0.0210,0.0810,-0.0090,1.1622,23.4375,23.4375,23.4375,23.4375,12.1935,0.0000,0.0000,0.0000,-0.0000,-0.1554,-0.1175,-10.5763,0.0122,-0.0036,0.0001,0.0000,0.0000,0.0000,0.0000,0.0000,0.0000,0.0000,0.0000,0.0000,0.0000,0.0000,0.0000,0.0000,0.0000,1.0000,0.0000,0.0000,0.0000,0.0000,0.0000,0.0000,0.0000,0.0000,0.0000,0.0000,0.0000,0.0000,0.0000,0.0000,0.0000,0.0000,0.0000,0.0000,-0.1000,-0.1000,-0.1000,-0.1000,4
0,-1,0,-10.5337,-0.1467,0.0379,0.0210,0.0810,-0.0090,1.1622,23.4375,23.4375,23.4375,23.4375,12.1910,0.0000,-0.0610,-0.1831,-0.0000,-0.1028,-0.2589,-10.5620,0.0122,-0.0036,0.0001,0.0000,0.0000,0.0000,0.0000,0.0000,0.0000,0.0000,0.0000,0.0000,0.0000,0.0000,0.0000,0.0000,0.0000,1.0000,0.0000,0.0000,0.0000,0.0000,0.0000,0.0000,0.0000,0.0000,0.0000,0.0000,0.0000,0.0000,0.0000,0.0000,0.0000,0.0000,0.0000,0.0000,-0.1000,-0.1000,-0.1000,-0.1000,4
0,-1,0,-10.5337,-0.1467,0.0379,0.0210,0.0810,-0.0090,1.1622,23.4375,23.4375,23.4375,23.4375,12.1884,0.0000,0.0000,0.0000,-0.0000,-0.1219,-0.2014,-10.6073,0.0122,-0.0036,0.0001,0.0000,0.0000,0.0000,0.0000,0.0000,0.0000,0.0000,0.0000,0.0000,0.0000,0.0000,0.0000,0.0000,0.0000,1.0000,0.0000,0.0000,0.0000,0.0000,0.0000,0.0000,0.0000,0.0000,0.0000,0.0000,0.0000,0.0000,0.0000,0.0000,0.0000,0.0000,0.0000,0.0000,-0.1000,-0.1000,-0.1000,-0.1000,4
0,-1,0,-10.5337,-0.1467,0.0379,0.0210,0.0810,-0.0090,1.1622,23.4375,23.4375,23.4375,23.4375,12.1860,0.0000,0.0000,0.0000,0.1221,-0.1387,-0.1798,-10.5859,0.0122,-0.0036,0.0001,0.0000,0.0000,0.0000,0.0000,0.0000,0.0000,0.0000,0.0000,0.0000,0.0000,0.0000,0.0000,0.0000,0.0000,1.0000,0.0000,0.0000,0.0000,0.0000,0.0000,0.0000,0.0000,0.0000,0.0000,0.0000,0.0000,0.0000,0.0000,0.0000,0.0000,0.0000,0.0000,0.0000,-0.1000,-0.1000,-0.1000,-0.1000,4
0,-1,0,-10.5337,-0.1467,0.0379,0.0210,0.0810,-0.0090,1.1622,23.4375,23.4375,23.4375,23.4375,12.1850,0.0000,-0.0610,-0.1221,-0.0000,-0.1482,-0.1846,-10.5978,0.0122,-0.0036,0.0001,0.0000,0.0000,0.0000,0.0000,0.0000,0.0000,0.0000,0.0000,0.0000,0.0000,0.0000,0.0000,0.0000,0.0000,1.0000,0.0000,0.0000,0.0000,0.0000,0.0000,0.0000,0.0000,0.0000,0.0000,0.0000,0.0000,0.0000,0.0000,0.0000,0.0000,0.0000,0.0000,0.0000,-0.1000,-0.1000,-0.1000,-0.1000,4
0,-1,0,-10.5337,-0.1467,0.0379,0.0210,0.0810,-0.0090,1.1622,23.4375,23.4375,23.4375,23.4375,12.1833,0.0000,0.0000,-0.0610,-0.0000,-0.1578,-0.2230,-10.6002,0.0122,-0.0036,0.0001,0.0000,0.0000,0.0000,0.0000,0.0000,0.0000,0.0000,0.0000,0.0000,0.0000,0.0000,0.0000,0.0000,0.0000,1.0000,0.0000,0.0000,0.0000,0.0000,0.0000,0.0000,0.0000,0.0000,0.0000,0.0000,0.0000,0.0000,0.0000,0.0000,0.0000,0.0000,0.0000,0.0000,-0.1000,-0.1000,-0.1000,-0.1000,4
0,-1,0,-10.5337,-0.1467,0.0379,0.0210,0.0810,-0.0090,1.1622,23.4375,23.4375,23.4375,23.4375,12.1802,0.0000,-0.1831,-0.0610,-0.0000,-0.1363,-0.2397,-10.5286,0.0122,-0.0036,0.0001,0.0000,0.0000,0.0000,0.0000,0.0000,0.0000,0.0000,0.0000,0.0000,0.0000,0.0000,0.0000,0.0000,0.0000,1.0000,0.0000,0.0000,0.0000,0.0000,0.0000,0.0000,0.0000,0.0000,0.0000,0.0000,0.0000,0.0000,0.0000,0.0000,0.0000,0.0000,0.0000,0.0000,-0.1000,-0.1000,-0.1000,-0.1000,4
0,-1,0,-10.5337,-0.1467,0.0379,0.0210,0.0810,-0.0090,1.1622,23.4375,23.4375,23.4375,23.4375,12.1789,0.0000,-0.0610,-0.1221,-0.0000,-0.1004,-0.1918,-10.5310,0.0122,-0.0037,0.0001,0.0000,0.0000,0.0000,0.0000,0.0000,0.0000,0.0000,0.0000,0.0000,0.0000,0.0000,0.0000,0.0000,0.0000,1.0000,0.0000,0.0000,0.0000,0.0000,0.0000,0.0000,0.0000,0.0000,0.0000,0.0000,0.0000,0.0000,0.0000,0.0000,0.0000,0.0000,0.0000,0.0000,-0.1000,-0.1000,-0.1000,-0.1000,4
0,-1,0,-10.5337,-0.1467,0.0379,0.0210,0.0810,-0.0090,1.1622,23.4375,23.4375,23.4375,23.4375,12.1770,0.0000,0.0610,0.0000,0.1221,-0.1291,-0.2685,-10.5405,0.0123,-0.0037,0.0001,0.0000,0.0000,0.0000,0.0000,0.0000,0.0000,0.0000,0.0000,0.0000,0.0000,0.0000,0.0000,0.0000,0.0000,1.0000,0.0000,0.0000,0.0000,0.0000,0.0000,0.0000,0.0000,0.0000,0.0000,0.0000,0.0000,0.0000,0.0000,0.0000,0.0000,0.0000,0.0000,0.0000,-0.1000,-0.1000,-0.1000,-0.1000,4
0,-1,0,-10.5337,-0.1467,0.0379,0.0210,0.0810,-0.0090,1.1622,23.4375,23.4375,23.4375,23.4375,12.1763,0.0000,0.0000,0.0000,-0.0000,-0.1626,-0.2182,-10.5978,0.0123,-0.0037,0.0001,0.0000,0.0000,0.0000,0.0000,0.0000,0.0000,0.0000,0.0000,0.0000,0.0000,0.0000,0.0000,0.0000,0.0000,1.0000,0.0000,0.0000,0.0000,0.0000,0.0000,0.0000,0.0000,0.0000,0.0000,0.0000,0.0000,0.0000,0.0000,0.0000,0.0000,0.0000,0.0000,0.0000,-0.1000,-0.1000,-0.1000,-0.1000,4
0,-1,0,-10.5337,-0.1467,0.0379,0.0210,0.0810,-0.0090,1.1622,23.4375,23.4375,23.4375,23.4375,12.1760,0.0000,0.0610,0.0000,-0.0000,-0.1793,-0.2253,-10.6217,0.0123,-0.0037,0.0001,0.0000,0.0000,0.0000,0.0000,0.0000,0.0000,0.0000,0.0000,0.0000,0.0000,0.0000,0.0000,0.0000,0.0000,1.0000,0.0000,0.0000,0.0000,0.0000,0.0000,0.0000,0.0000,0.0000,0.0000,0.0000,0.0000,0.0000,0.0000,0.0000,0.0000,0.0000,0.0000,0.0000,-0.1000,-0.1000,-0.1000,-0.1000,4
0,-1,0,-10.5337,-0.1467,0.0379,0.0210,0.0810,-0.0090,1.1622,23.4375,23.4375,23.4375,23.4375,12.1773,0.0000,0.0610,-0.2441,0.1221,-0.1578,-0.2062,-10.5691,0.0123,-0.0037,0.0001,0.0000,0.0000,0.0000,0.0000,0.0000,0.0000,0.0000,0.0000,0.0000,0.0000,0.0000,0.0000,0.0000,0.0000,1.0000,0.0000,0.0000,0.0000,0.0000,0.0000,0.0000,0.0000,0.0000,0.0000,0.0000,0.0000,0.0000,0.0000,0.0000,0.0000,0.0000,0.0000,0.0000,-0.1000,-0.1000,-0.1000,-0.1000,4
0,-1,0,-10.5337,-0.1467,0.0379,0.0210,0.0810,-0.0090,1.1622,23.4375,23.4375,23.4375,23.4375,12.1782,0.0000,-0.0610,-0.3052,-0.0000,-0.1100,-0.2206,-10.6193,0.0123,-0.0037,0.0001,0.0000,0.0000,0.0000,0.0000,0.0000,0.0000,0.0000,0.0000,0.0000,0.0000,0.0000,0.0000,0.0000,0.0000,1.0000,0.0000,0.0000,0.0000,0.0000,0.0000,0.0000,0.0000,0.0000,0.0000,0.0000,0.0000,0.0000,0.0000,0.0000,0.0000,0.0000,0.0000,0.0000,-0.1000,-0.1000,-0.1000,-0.1000,4
0,-1,0,-10.5337,-0.1467,0.0379,0.0210,0.0810,-0.0090,1.1622,23.4375,23.4375,23.4375,23.4375,12.1794,0.0000,0.0000,-0.1831,0.1221,-0.1458,-0.1966,-10.5882,0.0123,-0.0038,0.0001,0.0000,0.0000,0.0000,0.0000,0.0000,0.0000,0.0000,0.0000,0.0000,0.0000,0.0000,0.0000,0.0000,0.0000,1.0000,0.0000,0.0000,0.0000,0.0000,0.0000,0.0000,0.0000,0.0000,0.0000,0.0000,0.0000,0.0000,0.0000,0.0000,0.0000,0.0000,0.0000,0.0000,-0.1000,-0.1000,-0.1000,-0.1000,4
0,-1,0,-10.5337,-0.1467,0.0379,0.0210,0.0810,-0.0090,1.1622,23.4375,23.4375,23.4375,23.4375,12.1814,0.0000,-0.1831,-0.1221,0.1221,-0.1506,-0.2086,-10.5763,0.0123,-0.0038,0.0001,0.0000,0.0000,0.0000,0.0000,0.0000,0.0000,0.0000,0.0000,0.0000,0.0000,0.0000,0.0000,0.0000,0.0000,1.0000,0.0000,0.0000,0.0000,0.0000,0.0000,0.0000,0.0000,0.0000,0.0000,0.0000,0.0000,0.0000,0.0000,0.0000,0.0000,0.0000,0.0000,0.0000,-0.1000,-0.1000,-0.1000,-0.1000,4
0,-1,0,-10.5337,-0.1467,0.0379,0.0210,0.0810,-0.0090,1.1622,23.4375,23.4375,23.4375,23.4375,12.1804,0.0000,-0.2441,-0.0610,-0.0000,-0.1769,-0.2014,-10.6169,0.0123,-0.0038,0.0001,0.0000,0.0000,0.0000,0.0000,0.0000,0.0000,0.0000,0.0000,0.0000,0.0000,0.0000,0.0000,0.0000,0.0000,1.0000,0.0000,0.0000,0.0000,0.0000,0.0000,0.0000,0.0000,0.0000,0.0000,0.0000,0.0000,0.0000,0.0000,0.0000,0.0000,0.0000,0.0000,0.0000,-0.1000,-0.1000,-0.1000,-0.1000,4
0,-1,0,-10.5337,-0.1467,0.0379,0.0210,0.0810,-0.0090,1.1622,23.4375,23.4375,23.4375,23.4375,12.1792,0.0000,-0.0610,-0.1831,-0.0000,-0.1506,-0.2637,-10.5715,0.0123,-0.0038,0.0001,0.0000,0.0000,0.0000,0.0000,0.0000,0.0000,0.0000,0.0000,0.0000,0.0000,0.0000,0.0000,0.0000,0.0000,1.0000,0.0000,0.0000,0.0000,0.0000,0.0000,0.0000,0.0000,0.0000,0.0000,0.0000,0.0000,0.0000,0.0000,0.0000,0.0000,0.0000,0.0000,0.0000,-0.1000,-0.1000,-0.1000,-0.1000,4
