loop_index, counter, last_step_ns, T_ref, theta_ref, phi_ref, uwind, vwind, wwind, rho, rpm1, rpm2, rpm3, rpm4,v_batt,alt,gyro_roll,gyro_pitch,gyro_yaw,accel_X,accel_Y,accel_Z,roll,pitch,yaw,X,Y,Z,Xdot,Ydot,Zdot,x0,y0,z0,e.xbee_time,xbee_time_received_ns,xbee_x,xbee_y,xbee_z,xbee_qw,xbee_qx,xbee_qy,xbee_qz,sp_roll,sp_pitch,sp_yaw,sp_X,sp_Y,sp_Z,sp_Xdot,sp_Ydot,sp_Zdot,u_roll,u_pitch,u_yaw,u_X,u_Y,u_Z,mot_1,mot_2,mot_3,mot_4,flight mode
1,120,324031007207,-10.5502,-0.1375,0.0301,0.0310,0.1410,-0.0090,1.1622,23.4375,23.4375,23.4375,23.4375,12.2239,0.0000,0.0000,-0.0610,-0.0000,-0.1076,-0.1942,-10.5763,0.0206,-0.0188,0.0007,0.0000,0.0000,0.0000,0.0000,0.0000,0.0000,0.0000,0.0000,0.0000,0.0000,0.0000,0.0000,0.0000,0.0000,1.0000,0.0000,0.0000,0.0000,-0.1375,0.0301,0.0000,0.0000,0.0000,0.0000,0.0000,0.0000,-0.0000,-0.0000,0.0000,-0.0000,0.0000,0.0000,-0.5725,0.0025,0.0025,0.0025,0.0025,4
2,121,324087846027,-10.5502,-0.1375,0.0301,0.0310,0.1410,-0.0090,1.1622,23.4375,23.4375,23.4375,23.4375,12.2239,0.0000,-0.1831,-0.1831,-0.0000,-0.1626,-0.2206,-10.5596,0.0206,-0.0188,0.0007,0.0000,0.0000,0.0000,0.0000,0.0000,0.0000,0.0000,0.0000,0.0000,0.0000,0.0000,0.0000,0.0000,0.0000,1.0000,0.0000,0.0000,0.0000,-0.1375,0.0301,0.0000,0.0000,0.0000,0.0000,0.0000,0.0000,-0.0000,-0.0020,0.0020,-0.0001,0.0000,0.0000,-0.5725,0.0025,0.0025,0.0025,0.0025,4
3,122,324091419716,-10.5502,-0.1375,0.0301,0.0310,0.1410,-0.0090,1.1622,23.4375,23.4375,23.4375,23.4375,12.2239,0.0000,-0.1831,-0.1831,-0.0000,-0.1291,-0.2110,-10.6121,0.0206,-0.0188,0.0007,0.0000,0.0000,0.0000,0.0000,0.0000,0.0000,0.0000,0.0000,0.0000,0.0000,0.0000,0.0000,0.0000,0.0000,1.0000,0.0000,0.0000,0.0000,-0.1375,0.0301,0.0000,0.0000,0.0000,0.0000,0.0000,0.0000,-0.0000,-0.0040,0.0040,-0.0004,0.0000,0.0000,-0.5725,0.0025,0.0025,0.0025,0.0025,4
4,123,324096461492,-10.5502,-0.1375,0.0301,0.0310,0.1410,-0.0090,1.1622,23.4375,23.4375,23.4375,23.4375,12.2244,0.0000,-0.1221,-0.0610,0.1221,-0.1363,-0.2565,-10.6408,0.0206,-0.0188,0.0007,0.0000,0.0000,0.0000,0.0000,0.0000,0.0000,0.0000,0.0000,0.0000,0.0000,0.0000,0.0000,0.0000,0.0000,1.0000,0.0000,0.0000,0.0000,-0.1375,0.0301,0.0000,0.0000,0.0000,0.0000,0.0000,0.0000,-0.0000,-0.0060,0.0060,-0.0007,0.0000,0.0000,-0.5725,0.0025,0.0025,0.0025,0.0025,4
5,124,324101973281,-10.5502,-0.1375,0.0301,0.0310,0.1410,-0.0090,1.1622,23.4375,23.4375,23.4375,23.4375,12.2249,0.0000,-0.2441,-0.2441,0.1831,-0.1411,-0.2014,-10.6217,0.0206,-0.0188,0.0007,0.0000,0.0000,0.0000,0.0000,0.0000,0.0000,0.0000,0.0000,0.0000,0.0000,0.0000,0.0000,0.0000,0.0000,1.0000,0.0000,0.0000,0.0000,-0.1375,0.0301,0.0000,0.0000,0.0000,0.0000,0.0000,0.0000,-0.0000,-0.0080,0.0080,-0.0010,0.0000,0.0000,-0.5725,0.0025,0.0025,0.0025,0.0025,4
6,125,324106462915,-10.5502,-0.1375,0.0301,0.0310,0.1410,-0.0090,1.1622,23.4375,23.4375,23.4375,23.4375,12.2251,0.0000,-0.1831,-0.0610,0.2441,-0.1458,-0.2134,-10.5978,0.0205,-0.0188,0.0007,0.0000,0.0000,0.0000,0.0000,0.0000,0.0000,0.0000,0.0000,0.0000,0.0000,0.0000,0.0000,0.0000,0.0000,1.0000,0.0000,0.0000,0.0000,-0.1375,0.0301,0.0000,0.0000,0.0000,0.0000,0.0000,0.0000,-0.0000,-0.0100,0.0096,-0.0013,0.0000,0.0000,-0.5725,0.0025,0.0025,0.0025,0.0025,4
7,126,324111456605,-10.5502,-0.1375,0.0301,0.0310,0.1410,-0.0090,1.1622,23.4375,23.4375,23.4375,23.4375,12.2251,0.0000,-0.0610,-0.1221,0.1221,-0.1148,-0.2014,-10.5930,0.0205,-0.0188,0.0007,0.0000,0.0000,0.0000,0.0000,0.0000,0.0000,0.0000,0.0000,0.0000,0.0000,0.0000,0.0000,0.0000,0.0000,1.0000,0.0000,0.0000,0.0000,-0.1375,0.0301,0.0000,0.0000,0.0000,0.0000,0.0000,0.0000,-0.0000,-0.0120,0.0108,-0.0014,0.0000,0.0000,-0.5725,0.0025,0.0025,0.0025,0.0025,4
8,127,324116390378,-10.5502,-0.1375,0.0301,0.0310,0.1410,-0.0090,1.1622,23.4375,23.4375,23.4375,23.4375,12.2251,0.0000,-0.1831,-0.1221,0.1221,-0.1650,-0.2277,-10.6193,0.0205,-0.0188,0.0007,0.0000,0.0000,0.0000,0.0000,0.0000,0.0000,0.0000,0.0000,0.0000,0.0000,0.0000,0.0000,0.0000,0.0000,1.0000,0.0000,0.0000,0.0000,-0.1375,0.0301,0.0000,0.0000,0.0000,0.0000,0.0000,0.0000,-0.0000,-0.0140,0.0116,-0.0016,0.0000,0.0000,-0.5725,0.0025,0.0025,0.0025,0.0025,4
9,128,324121868458,-10.5502,-0.1375,0.0301,0.0310,0.1410,-0.0090,1.1622,23.4375,23.4375,23.4375,23.4375,12.2254,0.0000,-0.2441,-0.1831,-0.0610,-0.1530,-0.1894,-10.6145,0.0205,-0.0188,0.0007,0.0000,0.0000,0.0000,0.0000,0.0000,0.0000,0.0000,0.0000,0.0000,0.0000,0.0000,0.0000,0.0000,0.0000,1.0000,0.0000,0.0000,0.0000,-0.1375,0.0301,0.0000,0.0000,0.0000,0.0000,0.0000,0.0000,-0.0000,-0.0160,0.0122,-0.0015,0.0000,0.0000,-0.5725,0.0025,0.0025,0.0025,0.0025,4
10,129,324126434552,-10.5502,-0.1375,0.0301,0.0310,0.1410,-0.0090,1.1622,23.4375,23.4375,23.4375,23.4375,12.2256,0.0000,-0.1831,-0.1831,-0.0000,-0.1578,-0.1870,-10.6240,0.0205,-0.0188,0.0007,0.0000,0.0000,0.0000,0.0000,0.0000,0.0000,0.0000,0.0000,0.0000,0.0000,0.0000,0.0000,0.0000,0.0000,1.0000,0.0000,0.0000,0.0000,-0.1375,0.0301,0.0000,0.0000,0.0000,0.0000,0.0000,0.0000,-0.0000,-0.0180,0.0126,-0.0016,0.0000,0.0000,-0.5725,0.0025,0.0025,0.0025,0.0025,4
11,130,324131387783,-10.5502,-0.1375,0.0301,0.0310,0.1410,-0.0090,1.1622,23.4375,23.4375,23.4375,23.4375,12.2256,0.0000,-0.1221,-0.0610,-0.0610,-0.1052,-0.2110,-10.6360,0.0205,-0.0188,0.0007,0.0000,0.0000,0.0000,0.0000,0.0000,0.0000,0.0000,0.0000,0.0000,0.0000,0.0000,0.0000,0.0000,0.0000,1.0000,0.0000,0.0000,0.0000,-0.1375,0.0301,0.0000,0.0000,0.0000,0.0000,0.0000,0.0000,-0.0000,-0.0200,0.0127,-0.0015,0.0000,0.0000,-0.5725,0.0025,0.0025,0.0025,0.0025,4
12,131,324136783527,-10.5502,-0.1375,0.0301,0.0310,0.1410,-0.0090,1.1622,23.4375,23.4375,23.4375,23.4375,12.2258,0.0000,-0.0610,-0.1831,0.1831,-0.1315,-0.2110,-10.6479,0.0205,-0.0188,0.0007,0.0000,0.0000,0.0000,0.0000,0.0000,0.0000,0.0000,0.0000,0.0000,0.0000,0.0000,0.0000,0.0000,0.0000,1.0000,0.0000,0.0000,0.0000,-0.1375,0.0301,0.0000,0.0000,0.0000,0.0000,0.0000,0.0000,-0.0000,-0.0220,0.0129,-0.0017,0.0000,0.0000,-0.5725,0.0025,0.0025,0.0025,0.0025,4
13,132,324141483167,-10.5502,-0.1375,0.0301,0.0310,0.1410,-0.0090,1.1622,23.4375,23.4375,23.4375,23.4375,12.2263,0.0000,-0.0610,-0.1831,0.1831,-0.1769,-0.2397,-10.5978,0.0205,-0.0188,0.0007,0.0000,0.0000,0.0000,0.0000,0.0000,0.0000,0.0000,0.0000,0.0000,0.0000,0.0000,0.0000,0.0000,0.0000,1.0000,0.0000,0.0000,0.0000,-0.1375,0.0301,0.0000,0.0000,0.0000,0.0000,0.0000,0.0000,-0.0000,-0.0240,0.0131,-0.0018,0.0000,0.0000,-0.5725,0.0025,0.0025,0.0025,0.0025,4
14,133,324146440648,-10.5502,-0.1375,0.0301,0.0310,0.1410,-0.0090,1.1622,23.4375,23.4375,23.4375,23.4375,12.2263,0.0000,-0.2441,-0.1831,-0.0610,-0.1291,-0.2469,-10.5691,0.0205,-0.0188,0.0007,0.0000,0.0000,0.0000,0.0000,0.0000,0.0000,0.0000,0.0000,0.0000,0.0000,0.0000,0.0000,0.0000,0.0000,1.0000,0.0000,0.0000,0.0000,-0.1375,0.0301,0.0000,0.0000,0.0000,0.0000,0.0000,0.0000,-0.0000,-0.0260,0.0132,-0.0018,0.0000,0.0000,-0.5725,0.0025,0.0025,0.0025,0.0025,4
15,134,324151571260,-10.5502,-0.1375,0.0301,0.0310,0.1410,-0.0090,1.1622,23.4375,23.4375,23.4375,23.4375,12.2258,0.0000,-0.0610,-0.1831,-0.0000,-0.1817,-0.2469,-10.6599,0.0205,-0.0188,0.0007,0.0000,0.0000,0.0000,0.0000,0.0000,0.0000,0.0000,0.0000,0.0000,0.0000,0.0000,0.0000,0.0000,0.0000,1.0000,0.0000,0.0000,0.0000,-0.1375,0.0301,0.0000,0.0000,0.0000,0.0000,0.0000,0.0000,-0.0000,-0.0280,0.0133,-0.0018,0.0000,0.0000,-0.5725,0.0025,0.0025,0.0025,0.0025,4
16,135,324156758748,-10.5502,-0.1375,0.0301,0.0310,0.1410,-0.0090,1.1622,23.4375,23.4375,23.4375,23.4375,12.2254,0.0000,0.0000,0.0000,0.2441,-0.1698,-0.2277,-10.5978,0.0205,-0.0188,0.0007,0.0000,0.0000,0.0000,0.0000,0.0000,0.0000,0.0000,0.0000,0.0000,0.0000,0.0000,0.0000,0.0000,0.0000,1.0000,0.0000,0.0000,0.0000,-0.1375,0.0301,0.0000,0.0000,0.0000,0.0000,0.0000,0.0000,-0.0000,-0.0300,0.0133,-0.0020,0.0000,0.0000,-0.5725,0.0025,0.0025,0.0025,0.0025,4
17,136,324161522515,-10.5502,-0.1375,0.0301,0.0310,0.1410,-0.0090,1.1622,23.4375,23.4375,23.4375,23.4375,12.2251,0.0000,-0.1831,-0.2441,-0.0000,-0.1817,-0.2062,-10.5501,0.0205,-0.0188,0.0007,0.0000,0.0000,0.0000,0.0000,0.0000,0.0000,0.0000,0.0000,0.0000,0.0000,0.0000,0.0000,0.0000,0.0000,1.0000,0.0000,0.0000,0.0000,-0.1375,0.0301,0.0000,0.0000,0.0000,0.0000,0.0000,0.0000,-0.0000,-0.0320,0.0134,-0.0020,0.0000,0.0000,-0.5725,0.0025,0.0025,0.0025,0.0025,4
18,137,324166439620,-10.5502,-0.1375,0.0301,0.0310,0.1410,-0.0090,1.1622,23.4375,23.4375,23.4375,23.4375,12.2256,0.0000,-0.0610,-0.1221,0.1221,-0.1626,-0.2062,-10.5524,0.0205,-0.0188,0.0007,0.0000,0.0000,0.0000,0.0000,0.0000,0.0000,0.0000,0.0000,0.0000,0.0000,0.0000,0.0000,0.0000,0.0000,1.0000,0.0000,0.0000,0.0000,-0.1375,0.0301,0.0000,0.0000,0.0000,0.0000,0.0000,0.0000,-0.0000,-0.0340,0.0134,-0.0020,0.0000,0.0000,-0.5725,0.0025,0.0025,0.0025,0.0025,4
19,138,324171712485,-10.5502,-0.1375,0.0301,0.0310,0.1410,-0.0090,1.1622,23.4375,23.4375,23.4375,23.4375,12.2256,0.0000,0.0000,0.0000,0.1831,-0.1195,-0.1846,-10.6002,0.0205,-0.0188,0.0008,0.0000,0.0000,0.0000,0.0000,0.0000,0.0000,0.0000,0.0000,0.0000,0.0000,0.0000,0.0000,0.0000,0.0000,1.0000,0.0000,0.0000,0.0000,-0.1375,0.0301,0.0000,0.0000,0.0000,0.0000,0.0000,0.0000,-0.0000,-0.0360,0.0133,-0.0021,0.0000,0.0000,-0.5725,0.0025,0.0025,0.0025,0.0025,4
20,139,324176371958,-10.5502,-0.1375,0.0301,0.0310,0.1410,-0.0090,1.1622,23.4375,23.4375,23.4375,23.4375,12.2256,0.0000,-0.0610,-0.1831,0.1221,-0.1315,-0.2014,-10.5954,0.0205,-0.0188,0.0008,0.0000,0.0000,0.0000,0.0000,0.0000,0.0000,0.0000,0.0000,0.0000,0.0000,0.0000,0.0000,0.0000,0.0000,1.0000,0.0000,0.0000,0.0000,-0.1375,0.0301,0.0000,0.0000,0.0000,0.0000,0.0000,0.0000,-0.0000,-0.0380,0.0134,-0.0022,0.0000,0.0000,-0.5725,0.0025,0.0025,0.0025,0.0025,4
21,140,324181493944,-10.5502,-0.1375,0.0301,0.0310,0.1410,-0.0090,1.1622,23.4375,23.4375,23.4375,23.4375,12.2263,0.0000,-0.0610,-0.1831,-0.0610,-0.1745,-0.2277,-10.5906,0.0205,-0.0188,0.0008,0.0000,0.0000,0.0000,0.0000,0.0000,0.0000,0.0000,0.0000,0.0000,0.0000,0.0000,0.0000,0.0000,0.0000,1.0000,0.0000,0.0000,0.0000,-0.1375,0.0301,0.0000,0.0000,0.0000,0.0000,0.0000,0.0000,-0.0000,-0.0396,0.0134,-0.0021,0.0000,0.0000,-0.5725,0.0025,0.0025,0.0025,0.0025,4
22,141,324186590387,-10.5502,-0.1375,0.0301,0.0310,0.1410,-0.0090,1.1622,23.4375,23.4375,23.4375,23.4375,12.2263,0.0000,0.0000,0.0000,0.1221,-0.1698,-0.1942,-10.5930,0.0205,-0.0188,0.0008,0.0000,0.0000,0.0000,0.0000,0.0000,0.0000,0.0000,0.0000,0.0000,0.0000,0.0000,0.0000,0.0000,0.0000,1.0000,0.0000,0.0000,0.0000,-0.1375,0.0301,0.0000,0.0000,0.0000,0.0000,0.0000,0.0000,-0.0000,-0.0407,0.0133,-0.0021,0.0000,0.0000,-0.5725,0.0025,0.0025,0.0025,0.0025,4
23,142,324191774000,-10.5502,-0.1375,0.0301,0.0210,0.1610,-0.0090,1.1622,23.4375,23.4375,23.4375,23.4375,12.2261,0.0000,-0.1831,-0.0610,-0.0000,-0.1100,-0.2134,-10.5644,0.0205,-0.0188,0.0008,0.0000,0.0000,0.0000,0.0000,0.0000,0.0000,0.0000,0.0000,0.0000,0.0000,0.0000,0.0000,0.0000,0.0000,1.0000,0.0000,0.0000,0.0000,-0.1375,0.0301,0.0000,0.0000,0.0000,0.0000,0.0000,0.0000,-0.0000,-0.0413,0.0133,-0.0020,0.0000,0.0000,-0.5725,0.0025,0.0025,0.0025,0.0025,4
24,143,324196486682,-10.5502,-0.1375,0.0301,0.0210,0.1610,-0.0090,1.1622,23.4375,23.4375,23.4375,23.4375,12.2256,0.0000,-0.0610,-0.1221,-0.1831,-0.1482,-0.2206,-10.5930,0.0205,-0.0188,0.0007,0.0000,0.0000,0.0000,0.0000,0.0000,0.0000,0.0000,0.0000,0.0000,0.0000,0.0000,0.0000,0.0000,0.0000,1.0000,0.0000,0.0000,0.0000,-0.1375,0.0301,0.0000,0.0000,0.0000,0.0000,0.0000,0.0000,-0.0000,-0.0419,0.0133,-0.0019,0.0000,0.0000,-0.5725,0.0025,0.0025,0.0025,0.0025,4
25,144,324201414787,-10.5502,-0.1375,0.0301,0.0210,0.1610,-0.0090,1.1622,23.4375,23.4375,23.4375,23.4375,12.2251,0.0000,0.0000,-0.2441,-0.0610,-0.1554,-0.2206,-10.6026,0.0205,-0.0188,0.0007,0.0000,0.0000,0.0000,0.0000,0.0000,0.0000,0.0000,0.0000,0.0000,0.0000,0.0000,0.0000,0.0000,0.0000,1.0000,0.0000,0.0000,0.0000,-0.1375,0.0301,0.0000,0.0000,0.0000,0.0000,0.0000,0.0000,-0.0000,-0.0423,0.0134,-0.0018,0.0000,0.0000,-0.5725,0.0025,0.0025,0.0025,0.0025,4
26,145,324227725489,-10.5527,-0.1379,0.0179,0.0210,0.1610,-0.0090,1.1622,23.4375,23.4375,23.4375,23.4375,12.2249,0.0000,-0.0610,-0.2441,-0.0000,-0.1721,-0.2086,-10.5477,0.0205,-0.0188,0.0007,0.0000,0.0000,0.0000,0.0000,0.0000,0.0000,0.0000,0.0000,0.0000,0.0000,0.0000,0.0000,0.0000,0.0000,1.0000,0.0000,0.0000,0.0000,-0.1379,0.0179,0.0000,0.0000,0.0000,0.0000,0.0000,0.0000,-0.0000,-0.0450,-0.0500,-0.0018,0.0000,0.0000,-0.5722,0.0025,0.0025,0.0025,0.0025,4
27,146,324231523393,-10.5527,-0.1379,0.0179,0.0210,0.1610,-0.0090,1.1622,23.4375,23.4375,23.4375,23.4375,12.2256,0.0000,-0.0610,-0.1831,-0.0000,-0.1506,-0.2182,-10.5978,0.0205,-0.0188,0.0007,0.0000,0.0000,0.0000,0.0000,0.0000,0.0000,0.0000,0.0000,0.0000,0.0000,0.0000,0.0000,0.0000,0.0000,1.0000,0.0000,0.0000,0.0000,-0.1379,0.0179,0.0000,0.0000,0.0000,0.0000,0.0000,0.0000,-0.0000,-0.0444,-0.0311,-0.0019,0.0000,0.0000,-0.5722,0.0025,0.0025,0.0025,0.0025,4
28,147,324237248189,-10.5527,-0.1379,0.0179,0.0210,0.1610,-0.0090,1.1622,23.4375,23.4375,23.4375,23.4375,12.2278,0.0000,-0.0610,-0.2441,0.1221,-0.1148,-0.2230,-10.6431,0.0205,-0.0189,0.0008,0.0000,0.0000,0.0000,0.0000,0.0000,0.0000,0.0000,0.0000,0.0000,0.0000,0.0000,0.0000,0.0000,0.0000,1.0000,0.0000,0.0000,0.0000,-0.1379,0.0179,0.0000,0.0000,0.0000,0.0000,0.0000,0.0000,-0.0000,-0.0441,-0.0181,-0.0021,0.0000,0.0000,-0.5722,0.0025,0.0025,0.0025,0.0025,4
29,148,324267878019,-10.5527,-0.1379,0.0179,0.0210,0.1610,-0.0090,1.1622,23.4375,23.4375,23.4375,23.4375,12.2287,0.0000,-0.0610,-0.2441,-0.0000,-0.1482,-0.2110,-10.5859,0.0205,-0.0189,0.0008,0.0000,0.0000,0.0000,0.0000,0.0000,0.0000,0.0000,0.0000,0.0000,0.0000,0.0000,0.0000,0.0000,0.0000,1.0000,0.0000,0.0000,0.0000,-0.1379,0.0179,0.0000,0.0000,0.0000,0.0000,0.0000,0.0000,-0.0000,-0.0438,-0.0092,-0.0021,0.0000,0.0000,-0.5722,0.0025,0.0025,0.0025,0.0025,4
30,149,324272760123,-10.5527,-0.1379,0.0179,0.0210,0.1610,-0.0090,1.1622,23.4375,23.4375,23.4375,23.4375,12.2295,0.0000,-0.0610,-0.1831,-0.0000,-0.1148,-0.2445,-10.6050,0.0205,-0.0189,0.0007,0.0000,0.0000,0.0000,0.0000,0.0000,0.0000,0.0000,0.0000,0.0000,0.0000,0.0000,0.0000,0.0000,0.0000,1.0000,0.0000,0.0000,0.0000,-0.1379,0.0179,0.0000,0.0000,0.0000,0.0000,0.0000,0.0000,-0.0000,-0.0436,-0.0032,-0.0020,0.0000,0.0000,-0.5722,0.0025,0.0025,0.0025,0.0025,4
31,150,324277252173,-10.5527,-0.1379,0.0179,0.0210,0.1610,-0.0090,1.1622,23.4375,23.4375,23.4375,23.4375,12.2304,0.0000,-0.0610,-0.1831,0.1831,-0.1387,-0.2062,-10.6336,0.0205,-0.0189,0.0007,0.0000,0.0000,0.0000,0.0000,0.0000,0.0000,0.0000,0.0000,0.0000,0.0000,0.0000,0.0000,0.0000,0.0000,1.0000,0.0000,0.0000,0.0000,-0.1379,0.0179,0.0000,0.0000,0.0000,0.0000,0.0000,0.0000,-0.0000,-0.0434,0.0010,-0.0020,0.0000,0.0000,-0.5722,0.0025,0.0025,0.0025,0.0025,4
32,151,324281451715,-10.5527,-0.1379,0.0179,0.0210,0.1610,-0.0090,1.1622,23.4375,23.4375,23.4375,23.4375,12.2316,0.0000,-0.2441,-0.1831,-0.0000,-0.1435,-0.2182,-10.6073,0.0205,-0.0189,0.0007,0.0000,0.0000,0.0000,0.0000,0.0000,0.0000,0.0000,0.0000,0.0000,0.0000,0.0000,0.0000,0.0000,0.0000,1.0000,0.0000,0.0000,0.0000,-0.1379,0.0179,0.0000,0.0000,0.0000,0.0000,0.0000,0.0000,-0.0000,-0.0432,0.0039,-0.0020,0.0000,0.0000,-0.5722,0.0025,0.0025,0.0025,0.0025,4
33,152,324286444448,-10.5527,-0.1379,0.0179,0.0210,0.1610,-0.0090,1.1622,23.4375,23.4375,23.4375,23.4375,12.2329,0.0000,0.0610,-0.0610,0.1221,-0.1506,-0.1966,-10.6073,0.0205,-0.0189,0.0007,0.0000,0.0000,0.0000,0.0000,0.0000,0.0000,0.0000,0.0000,0.0000,0.0000,0.0000,0.0000,0.0000,0.0000,1.0000,0.0000,0.0000,0.0000,-0.1379,0.0179,0.0000,0.0000,0.0000,0.0000,0.0000,0.0000,-0.0000,-0.0433,0.0058,-0.0020,0.0000,0.0000,-0.5722,0.0025,0.0025,0.0025,0.0025,4
34,153,324291679437,-10.5527,-0.1379,0.0179,0.0210,0.1610,-0.0090,1.1622,23.4375,23.4375,23.4375,23.4375,12.2343,0.0000,-0.1831,-0.1221,0.1831,-0.1674,-0.1894,-10.6312,0.0205,-0.0189,0.0008,0.0000,0.0000,0.0000,0.0000,0.0000,0.0000,0.0000,0.0000,0.0000,0.0000,0.0000,0.0000,0.0000,0.0000,1.0000,0.0000,0.0000,0.0000,-0.1379,0.0179,0.0000,0.0000,0.0000,0.0000,0.0000,0.0000,-0.0000,-0.0432,0.0071,-0.0021,0.0000,0.0000,-0.5722,0.0025,0.0025,0.0025,0.0025,4
35,154,324296649293,-10.5527,-0.1379,0.0179,0.0210,0.1610,-0.0090,1.1622,23.4375,23.4375,23.4375,23.4375,12.2353,0.0000,0.0000,0.0000,-0.0610,-0.0909,-0.2301,-10.5763,0.0205,-0.0189,0.0007,0.0000,0.0000,0.0000,0.0000,0.0000,0.0000,0.0000,0.0000,0.0000,0.0000,0.0000,0.0000,0.0000,0.0000,1.0000,0.0000,0.0000,0.0000,-0.1379,0.0179,0.0000,0.0000,0.0000,0.0000,0.0000,0.0000,-0.0000,-0.0432,0.0080,-0.0020,0.0000,0.0000,-0.5722,0.0025,0.0025,0.0025,0.0025,4
36,155,324301648192,-10.5527,-0.1379,0.0179,0.0210,0.1610,-0.0090,1.1622,23.4375,23.4375,23.4375,23.4375,12.2365,0.0000,-0.1221,-0.0610,-0.0000,-0.0980,-0.2134,-10.5859,0.0205,-0.0189,0.0007,0.0000,0.0000,0.0000,0.0000,0.0000,0.0000,0.0000,0.0000,0.0000,0.0000,0.0000,0.0000,0.0000,0.0000,1.0000,0.0000,0.0000,0.0000,-0.1379,0.0179,0.0000,0.0000,0.0000,0.0000,0.0000,0.0000,-0.0000,-0.0431,0.0086,-0.0020,0.0000,0.0000,-0.5722,0.0025,0.0025,0.0025,0.0025,4
37,156,324306379375,-10.5527,-0.1379,0.0179,0.0210,0.1610,-0.0090,1.1622,23.4375,23.4375,23.4375,23.4375,12.2377,0.0000,0.0000,0.0000,-0.0000,-0.1889,-0.2301,-10.5811,0.0205,-0.0189,0.0007,0.0000,0.0000,0.0000,0.0000,0.0000,0.0000,0.0000,0.0000,0.0000,0.0000,0.0000,0.0000,0.0000,0.0000,1.0000,0.0000,0.0000,0.0000,-0.1379,0.0179,0.0000,0.0000,0.0000,0.0000,0.0000,0.0000,-0.0000,-0.0432,0.0090,-0.0019,0.0000,0.0000,-0.5722,0.0025,0.0025,0.0025,0.0025,4
38,157,324311707742,-10.5527,-0.1379,0.0179,0.0210,0.1610,-0.0090,1.1622,23.4375,23.4375,23.4375,23.4375,12.2384,0.0000,-0.0610,-0.1831,-0.0000,-0.1889,-0.2206,-10.5548,0.0205,-0.0189,0.0007,0.0000,0.0000,0.0000,0.0000,0.0000,0.0000,0.0000,0.0000,0.0000,0.0000,0.0000,0.0000,0.0000,0.0000,1.0000,0.0000,0.0000,0.0000,-0.1379,0.0179,0.0000,0.0000,0.0000,0.0000,0.0000,0.0000,-0.0000,-0.0431,0.0094,-0.0019,0.0000,0.0000,-0.5722,0.0025,0.0025,0.0025,0.0025,4
39,158,324316420550,-10.5527,-0.1379,0.0179,0.0210,0.1610,-0.0090,1.1622,23.4375,23.4375,23.4375,23.4375,12.2391,0.0000,0.0000,0.0000,-0.0000,-0.1435,-0.2110,-10.6384,0.0205,-0.0189,0.0007,0.0000,0.0000,0.0000,0.0000,0.0000,0.0000,0.0000,0.0000,0.0000,0.0000,0.0000,0.0000,0.0000,0.0000,1.0000,0.0000,0.0000,0.0000,-0.1379,0.0179,0.0000,0.0000,0.0000,0.0000,0.0000,0.0000,-0.0000,-0.0431,0.0095,-0.0019,0.0000,0.0000,-0.5722,0.0025,0.0025,0.0025,0.0025,4
40,159,324321576328,-10.5527,-0.1379,0.0179,0.0210,0.1610,-0.0090,1.1622,23.4375,23.4375,23.4375,23.4375,12.2401,0.0000,-0.0610,-0.2441,-0.0000,-0.1339,-0.2182,-10.6264,0.0205,-0.0189,0.0007,0.0000,0.0000,0.0000,0.0000,0.0000,0.0000,0.0000,0.0000,0.0000,0.0000,0.0000,0.0000,0.0000,0.0000,1.0000,0.0000,0.0000,0.0000,-0.1379,0.0179,0.0000,0.0000,0.0000,0.0000,0.0000,0.0000,-0.0000,-0.0431,0.0097,-0.0019,0.0000,0.0000,-0.5722,0.0025,0.0025,0.0025,0.0025,4
41,160,324326679397,-10.5527,-0.1379,0.0179,0.0210,0.1610,-0.0090,1.1622,23.4375,23.4375,23.4375,23.4375,12.2406,0.0000,-0.1221,-0.0610,0.1221,-0.1984,-0.1990,-10.5620,0.0205,-0.0189,0.0007,0.0000,0.0000,0.0000,0.0000,0.0000,0.0000,0.0000,0.0000,0.0000,0.0000,0.0000,0.0000,0.0000,0.0000,1.0000,0.0000,0.0000,0.0000,-0.1379,0.0179,0.0000,0.0000,0.0000,0.0000,0.0000,0.0000,-0.0000,-0.0431,0.0098,-0.0019,0.0000,0.0000,-0.5722,0.0025,0.0025,0.0025,0.0025,4
42,161,324331411955,-10.5527,-0.1379,0.0179,0.0210,0.1610,-0.0090,1.1622,23.4375,23.4375,23.4375,23.4375,12.2416,0.0000,-0.1831,-0.1831,0.1221,-0.1435,-0.2349,-10.5787,0.0205,-0.0189,0.0007,0.0000,0.0000,0.0000,0.0000,0.0000,0.0000,0.0000,0.0000,0.0000,0.0000,0.0000,0.0000,0.0000,0.0000,1.0000,0.0000,0.0000,0.0000,-0.1379,0.0179,0.0000,0.0000,0.0000,0.0000,0.0000,0.0000,-0.0000,-0.0430,0.0099,-0.0020,0.0000,0.0000,-0.5722,0.0025,0.0025,0.0025,0.0025,4
43,162,324336391437,-10.5527,-0.1379,0.0179,0.0210,0.1610,-0.0090,1.1622,23.4375,23.4375,23.4375,23.4375,12.2430,0.0000,-0.0610,-0.1221,-0.0000,-0.1626,-0.2158,-10.6169,0.0205,-0.0189,0.0007,0.0000,0.0000,0.0000,0.0000,0.0000,0.0000,0.0000,0.0000,0.0000,0.0000,0.0000,0.0000,0.0000,0.0000,1.0000,0.0000,0.0000,0.0000,-0.1379,0.0179,0.0000,0.0000,0.0000,0.0000,0.0000,0.0000,-0.0000,-0.0431,0.0099,-0.0019,0.0000,0.0000,-0.5722,0.0025,0.0025,0.0025,0.0025,4
44,163,324341866267,-10.5527,-0.1379,0.0179,0.0210,0.1610,-0.0090,1.1622,23.4375,23.4375,23.4375,23.4375,12.2442,0.0000,-0.0610,-0.1831,-0.0000,-0.1243,-0.2206,-10.5882,0.0205,-0.0189,0.0007,0.0000,0.0000,0.0000,0.0000,0.0000,0.0000,0.0000,0.0000,0.0000,0.0000,0.0000,0.0000,0.0000,0.0000,1.0000,0.0000,0.0000,0.0000,-0.1379,0.0179,0.0000,0.0000,0.0000,0.0000,0.0000,0.0000,-0.0000,-0.0431,0.0100,-0.0019,0.0000,0.0000,-0.5722,0.0025,0.0025,0.0025,0.0025,4
45,164,324346358317,-10.5527,-0.1379,0.0179,0.0210,0.1610,-0.0090,1.1622,23.4375,23.4375,23.4375,23.4375,12.2454,0.0000,-0.0610,-0.1831,0.1831,-0.1435,-0.1990,-10.6145,0.0205,-0.0189,0.0007,0.0000,0.0000,0.0000,0.0000,0.0000,0.0000,0.0000,0.0000,0.0000,0.0000,0.0000,0.0000,0.0000,0.0000,1.0000,0.0000,0.0000,0.0000,-0.1379,0.0179,0.0000,0.0000,0.0000,0.0000,0.0000,0.0000,-0.0000,-0.0431,0.0100,-0.0020,0.0000,0.0000,-0.5722,0.0025,0.0025,0.0025,0.0025,4
46,165,324351620724,-10.5527,-0.1379,0.0179,0.0210,0.1610,-0.0090,1.1622,23.4375,23.4375,23.4375,23.4375,12.2474,0.0000,0.0000,-0.1221,0.2441,-0.1698,-0.2158,-10.5906,0.0205,-0.0189,0.0007,0.0000,0.0000,0.0000,0.0000,0.0000,0.0000,0.0000,0.0000,0.0000,0.0000,0.0000,0.0000,0.0000,0.0000,1.0000,0.0000,0.0000,0.0000,-0.1379,0.0179,0.0000,0.0000,0.0000,0.0000,0.0000,0.0000,-0.0000,-0.0431,0.0101,-0.0021,0.0000,0.0000,-0.5722,0.0025,0.0025,0.0025,0.0025,4
47,166,324356467119,-10.5527,-0.1379,0.0179,0.0210,0.1610,-0.0090,1.1622,23.4375,23.4375,23.4375,23.4375,12.2483,0.0000,0.0000,0.0000,0.1831,-0.1411,-0.2014,-10.6408,0.0205,-0.0189,0.0008,0.0000,0.0000,0.0000,0.0000,0.0000,0.0000,0.0000,0.0000,0.0000,0.0000,0.0000,0.0000,0.0000,0.0000,1.0000,0.0000,0.0000,0.0000,-0.1379,0.0179,0.0000,0.0000,0.0000,0.0000,0.0000,0.0000,-0.0000,-0.0431,0.0100,-0.0022,0.0000,0.0000,-0.5722,0.0025,0.0025,0.0025,0.0025,4
48,167,324361809028,-10.5527,-0.1379,0.0179,0.0210,0.1610,-0.0090,1.1622,23.4375,23.4375,23.4375,23.4375,12.2478,0.0000,-0.1831,-0.1221,-0.0000,-0.1076,-0.2182,-10.6551,0.0205,-0.0189,0.0007,0.0000,0.0000,0.0000,0.0000,0.0000,0.0000,0.0000,0.0000,0.0000,0.0000,0.0000,0.0000,0.0000,0.0000,1.0000,0.0000,0.0000,0.0000,-0.1379,0.0179,0.0000,0.0000,0.0000,0.0000,0.0000,0.0000,-0.0000,-0.0431,0.0100,-0.0021,0.0000,0.0000,-0.5722,0.0025,0.0025,0.0025,0.0025,4
49,168,324366347913,-10.5527,-0.1379,0.0179,0.0210,0.1610,-0.0090,1.1622,23.4375,23.4375,23.4375,23.4375,12.2478,0.0000,-0.0610,-0.1831,0.1221,-0.1674,-0.2086,-10.5691,0.0205,-0.0189,0.0008,0.0000,0.0000,0.0000,0.0000,0.0000,0.0000,0.0000,0.0000,0.0000,0.0000,0.0000,0.0000,0.0000,0.0000,1.0000,0.0000,0.0000,0.0000,-0.1379,0.0179,0.0000,0.0000,0.0000,0.0000,0.0000,0.0000,-0.0000,-0.0431,0.0100,-0.0022,0.0000,0.0000,-0.5722,0.0025,0.0025,0.0025,0.0025,4
50,169,324371356062,-10.5527,-0.1379,0.0179,0.0210,0.1610,-0.0090,1.1622,23.4375,23.4375,23.4375,23.4375,12.2478,0.0000,-0.2441,-0.1221,-0.0000,-0.1506,-0.1918,-10.6384,0.0205,-0.0189,0.0007,0.0000,0.0000,0.0000,0.0000,0.0000,0.0000,0.0000,0.0000,0.0000,0.0000,0.0000,0.0000,0.0000,0.0000,1.0000,0.0000,0.0000,0.0000,-0.1379,0.0179,0.0000,0.0000,0.0000,0.0000,0.0000,0.0000,-0.0000,-0.0430,0.0100,-0.0021,0.0000,0.0000,-0.5722,0.0025,0.0025,0.0025,0.0025,4
51,170,324376679221,-10.5527,-0.1379,0.0179,0.0210,0.1610,-0.0090,1.1622,23.4375,23.4375,23.4375,23.4375,12.2476,0.0000,0.0000,0.0000,-0.0610,-0.1052,-0.2110,-10.5644,0.0205,-0.0189,0.0007,0.0000,0.0000,0.0000,0.0000,0.0000,0.0000,0.0000,0.0000,0.0000,0.0000,0.0000,0.0000,0.0000,0.0000,1.0000,0.0000,0.0000,0.0000,-0.1379,0.0179,0.0000,0.0000,0.0000,0.0000,0.0000,0.0000,-0.0000,-0.0430,0.0100,-0.0020,0.0000,0.0000,-0.5722,0.0025,0.0025,0.0025,0.0025,4
52,171,324381483323,-10.5527,-0.1379,0.0179,0.0210,0.1610,-0.0090,1.1622,23.4375,23.4375,23.4375,23.4375,12.2466,0.0000,-0.1831,-0.1221,-0.0000,-0.1650,-0.2349,-10.6121,0.0205,-0.0189,0.0007,0.0000,0.0000,0.0000,0.0000,0.0000,0.0000,0.0000,0.0000,0.0000,0.0000,0.0000,0.0000,0.0000,0.0000,1.0000,0.0000,0.0000,0.0000,-0.1379,0.0179,0.0000,0.0000,0.0000,0.0000,0.0000,0.0000,-0.0000,-0.0430,0.0100,-0.0020,0.0000,0.0000,-0.5722,0.0025,0.0025,0.0025,0.0025,4
53,172,324386504472,-10.5527,-0.1379,0.0179,0.0210,0.1610,-0.0090,1.1622,23.4375,23.4375,23.4375,23.4375,12.2469,0.0000,-0.0610,-0.1221,0.1221,-0.1602,-0.2158,-10.5429,0.0205,-0.0189,0.0007,0.0000,0.0000,0.0000,0.0000,0.0000,0.0000,0.0000,0.0000,0.0000,0.0000,0.0000,0.0000,0.0000,0.0000,1.0000,0.0000,0.0000,0.0000,-0.1379,0.0179,0.0000,0.0000,0.0000,0.0000,0.0000,0.0000,-0.0000,-0.0431,0.0100,-0.0020,0.0000,0.0000,-0.5722,0.0025,0.0025,0.0025,0.0025,4
54,173,324391393701,-10.5527,-0.1379,0.0179,0.0310,0.1410,-0.0090,1.1622,23.4375,23.4375,23.4375,23.4375,12.2464,0.0000,-0.1221,-0.0610,-0.0000,-0.1698,-0.2158,-10.6073,0.0205,-0.0189,0.0007,0.0000,0.0000,0.0000,0.0000,0.0000,0.0000,0.0000,0.0000,0.0000,0.0000,0.0000,0.0000,0.0000,0.0000,1.0000,0.0000,0.0000,0.0000,-0.1379,0.0179,0.0000,0.0000,0.0000,0.0000,0.0000,0.0000,-0.0000,-0.0430,0.0100,-0.0020,0.0000,0.0000,-0.5722,0.0025,0.0025,0.0025,0.0025,4
55,174,324433366286,-10.5502,-0.1375,0.0301,0.0310,0.1410,-0.0090,1.1622,23.4375,23.4375,23.4375,23.4375,12.2466,0.0000,-0.1221,-0.0610,-0.0000,-0.1124,-0.2206,-10.6288,0.0205,-0.0189,0.0007,0.0000,0.0000,0.0000,0.0000,0.0000,0.0000,0.0000,0.0000,0.0000,0.0000,0.0000,0.0000,0.0000,0.0000,1.0000,0.0000,0.0000,0.0000,-0.1375,0.0301,0.0000,0.0000,0.0000,0.0000,0.0000,0.0000,-0.0000,-0.0406,0.0827,-0.0020,0.0000,0.0000,-0.5725,0.0025,0.0025,0.0025,0.0025,4
56,175,324492648095,-10.5502,-0.1375,0.0301,0.0310,0.1410,-0.0090,1.1622,23.4375,23.4375,23.4375,23.4375,12.2474,0.0000,-0.0610,-0.1831,-0.0000,-0.1626,-0.1774,-10.6384,0.0205,-0.0189,0.0008,0.0000,0.0000,0.0000,0.0000,0.0000,0.0000,0.0000,0.0000,0.0000,0.0000,0.0000,0.0000,0.0000,0.0000,1.0000,0.0000,0.0000,0.0000,-0.1375,0.0301,0.0000,0.0000,0.0000,0.0000,0.0000,0.0000,-0.0000,-0.0413,0.0612,-0.0022,0.0000,0.0000,-0.5725,0.0025,0.0025,0.0025,0.0025,4
57,176,324496769260,-10.5502,-0.1375,0.0301,0.0310,0.1410,-0.0090,1.1622,23.4375,23.4375,23.4375,23.4375,12.2481,0.0000,-0.1831,-0.1831,-0.0000,-0.1554,-0.2253,-10.5930,0.0205,-0.0189,0.0008,0.0000,0.0000,0.0000,0.0000,0.0000,0.0000,0.0000,0.0000,0.0000,0.0000,0.0000,0.0000,0.0000,0.0000,1.0000,0.0000,0.0000,0.0000,-0.1375,0.0301,0.0000,0.0000,0.0000,0.0000,0.0000,0.0000,-0.0000,-0.0418,0.0462,-0.0022,0.0000,0.0000,-0.5725,0.0025,0.0025,0.0025,0.0025,4
58,177,324501631405,-10.5502,-0.1375,0.0301,0.0310,0.1410,-0.0090,1.1622,23.4375,23.4375,23.4375,23.4375,12.2481,0.0000,-0.1831,-0.1221,-0.0000,-0.1745,-0.2110,-10.6264,0.0205,-0.0189,0.0008,0.0000,0.0000,0.0000,0.0000,0.0000,0.0000,0.0000,0.0000,0.0000,0.0000,0.0000,0.0000,0.0000,0.0000,1.0000,0.0000,0.0000,0.0000,-0.1375,0.0301,0.0000,0.0000,0.0000,0.0000,0.0000,0.0000,-0.0000,-0.0421,0.0359,-0.0021,0.0000,0.0000,-0.5725,0.0025,0.0025,0.0025,0.0025,4
59,178,324506421756,-10.5502,-0.1375,0.0301,0.0310,0.1410,-0.0090,1.1622,23.4375,23.4375,23.4375,23.4375,12.2481,0.0000,-0.2441,-0.0610,-0.0000,-0.1745,-0.2230,-10.6431,0.0204,-0.0189,0.0008,0.0000,0.0000,0.0000,0.0000,0.0000,0.0000,0.0000,0.0000,0.0000,0.0000,0.0000,0.0000,0.0000,0.0000,1.0000,0.0000,0.0000,0.0000,-0.1375,0.0301,0.0000,0.0000,0.0000,0.0000,0.0000,0.0000,-0.0000,-0.0423,0.0287,-0.0021,0.0000,0.0000,-0.5725,0.0025,0.0025,0.0025,0.0025,4
60,179,324511298985,-10.5502,-0.1375,0.0301,0.0310,0.1410,-0.0090,1.1622,23.4375,23.4375,23.4375,23.4375,12.2486,0.0000,-0.0610,-0.1221,-0.0000,-0.1411,-0.2158,-10.5954,0.0205,-0.0189,0.0008,0.0000,0.0000,0.0000,0.0000,0.0000,0.0000,0.0000,0.0000,0.0000,0.0000,0.0000,0.0000,0.0000,0.0000,1.0000,0.0000,0.0000,0.0000,-0.1375,0.0301,0.0000,0.0000,0.0000,0.0000,0.0000,0.0000,-0.0000,-0.0425,0.0239,-0.0021,0.0000,0.0000,-0.5725,0.0025,0.0025,0.0025,0.0025,4
61,180,324516761773,-10.5502,-0.1375,0.0301,0.0310,0.1410,-0.0090,1.1622,23.4375,23.4375,23.4375,23.4375,12.2483,0.0000,-0.0610,-0.1221,0.1831,-0.1650,-0.2373,-10.6455,0.0205,-0.0189,0.0008,0.0000,0.0000,0.0000,0.0000,0.0000,0.0000,0.0000,0.0000,0.0000,0.0000,0.0000,0.0000,0.0000,0.0000,1.0000,0.0000,0.0000,0.0000,-0.1375,0.0301,0.0000,0.0000,0.0000,0.0000,0.0000,0.0000,-0.0000,-0.0427,0.0206,-0.0022,0.0000,0.0000,-0.5725,0.0025,0.0025,0.0025,0.0025,4
62,181,324521410244,-10.5502,-0.1375,0.0301,0.0310,0.1410,-0.0090,1.1622,23.4375,23.4375,23.4375,23.4375,12.2481,0.0000,-0.0610,-0.1221,-0.0000,-0.1195,-0.2517,-10.6121,0.0205,-0.0189,0.0008,0.0000,0.0000,0.0000,0.0000,0.0000,0.0000,0.0000,0.0000,0.0000,0.0000,0.0000,0.0000,0.0000,0.0000,1.0000,0.0000,0.0000,0.0000,-0.1375,0.0301,0.0000,0.0000,0.0000,0.0000,0.0000,0.0000,-0.0000,-0.0428,0.0183,-0.0021,0.0000,0.0000,-0.5725,0.0025,0.0025,0.0025,0.0025,4
63,182,324526368226,-10.5502,-0.1375,0.0301,0.0310,0.1410,-0.0090,1.1622,23.4375,23.4375,23.4375,23.4375,12.2481,0.0000,-0.1221,-0.0610,0.1221,-0.0956,-0.1918,-10.6026,0.0205,-0.0189,0.0008,0.0000,0.0000,0.0000,0.0000,0.0000,0.0000,0.0000,0.0000,0.0000,0.0000,0.0000,0.0000,0.0000,0.0000,1.0000,0.0000,0.0000,0.0000,-0.1375,0.0301,0.0000,0.0000,0.0000,0.0000,0.0000,0.0000,-0.0000,-0.0428,0.0167,-0.0022,0.0000,0.0000,-0.5725,0.0025,0.0025,0.0025,0.0025,4
64,183,324531710385,-10.5502,-0.1375,0.0301,0.0310,0.1410,-0.0090,1.1622,23.4375,23.4375,23.4375,23.4375,12.2486,0.0000,-0.0610,-0.1221,-0.0000,-0.1506,-0.2685,-10.6288,0.0205,-0.0189,0.0008,0.0000,0.0000,0.0000,0.0000,0.0000,0.0000,0.0000,0.0000,0.0000,0.0000,0.0000,0.0000,0.0000,0.0000,1.0000,0.0000,0.0000,0.0000,-0.1375,0.0301,0.0000,0.0000,0.0000,0.0000,0.0000,0.0000,-0.0000,-0.0429,0.0156,-0.0022,0.0000,0.0000,-0.5725,0.0025,0.0025,0.0025,0.0025,4
65,184,324536444568,-10.5502,-0.1375,0.0301,0.0310,0.1410,-0.0090,1.1622,23.4375,23.4375,23.4375,23.4375,12.2486,0.0000,-0.0610,-0.1831,0.1831,-0.1506,-0.2493,-10.6050,0.0205,-0.0189,0.0008,0.0000,0.0000,0.0000,0.0000,0.0000,0.0000,0.0000,0.0000,0.0000,0.0000,0.0000,0.0000,0.0000,0.0000,1.0000,0.0000,0.0000,0.0000,-0.1375,0.0301,0.0000,0.0000,0.0000,0.0000,0.0000,0.0000,-0.0000,-0.0429,0.0149,-0.0022,0.0000,0.0000,-0.5725,0.0025,0.0025,0.0025,0.0025,4
66,185,324541337339,-10.5502,-0.1375,0.0301,0.0310,0.1410,-0.0090,1.1622,23.4375,23.4375,23.4375,23.4375,12.2476,0.0000,0.0610,0.0000,0.1221,-0.1961,-0.2182,-10.5286,0.0205,-0.0189,0.0008,0.0000,0.0000,0.0000,0.0000,0.0000,0.0000,0.0000,0.0000,0.0000,0.0000,0.0000,0.0000,0.0000,0.0000,1.0000,0.0000,0.0000,0.0000,-0.1375,0.0301,0.0000,0.0000,0.0000,0.0000,0.0000,0.0000,-0.0000,-0.0430,0.0144,-0.0023,0.0000,0.0000,-0.5725,0.0025,0.0025,0.0025,0.0025,4
67,186,324546289778,-10.5502,-0.1375,0.0301,0.0310,0.1410,-0.0090,1.1622,23.4375,23.4375,23.4375,23.4375,12.2471,0.0000,-0.0610,-0.1831,-0.0000,-0.0980,-0.2565,-10.5859,0.0205,-0.0189,0.0008,0.0000,0.0000,0.0000,0.0000,0.0000,0.0000,0.0000,0.0000,0.0000,0.0000,0.0000,0.0000,0.0000,0.0000,1.0000,0.0000,0.0000,0.0000,-0.1375,0.0301,0.0000,0.0000,0.0000,0.0000,0.0000,0.0000,-0.0000,-0.0430,0.0141,-0.0022,0.0000,0.0000,-0.5725,0.0025,0.0025,0.0025,0.0025,4
68,187,324551828610,-10.5502,-0.1375,0.0301,0.0310,0.1410,-0.0090,1.1622,23.4375,23.4375,23.4375,23.4375,12.2474,0.0000,-0.0610,-0.1831,-0.0000,-0.1506,-0.1966,-10.5930,0.0205,-0.0189,0.0008,0.0000,0.0000,0.0000,0.0000,0.0000,0.0000,0.0000,0.0000,0.0000,0.0000,0.0000,0.0000,0.0000,0.0000,1.0000,0.0000,0.0000,0.0000,-0.1375,0.0301,0.0000,0.0000,0.0000,0.0000,0.0000,0.0000,-0.0000,-0.0430,0.0139,-0.0021,0.0000,0.0000,-0.5725,0.0025,0.0025,0.0025,0.0025,4
69,188,324556464331,-10.5502,-0.1375,0.0301,0.0310,0.1410,-0.0090,1.1622,23.4375,23.4375,23.4375,23.4375,12.2469,0.0000,-0.3052,-0.1221,0.1831,-0.1411,-0.1894,-10.6145,0.0205,-0.0189,0.0008,0.0000,0.0000,0.0000,0.0000,0.0000,0.0000,0.0000,0.0000,0.0000,0.0000,0.0000,0.0000,0.0000,0.0000,1.0000,0.0000,0.0000,0.0000,-0.1375,0.0301,0.0000,0.0000,0.0000,0.0000,0.0000,0.0000,-0.0000,-0.0429,0.0137,-0.0022,0.0000,0.0000,-0.5725,0.0025,0.0025,0.0025,0.0025,4
70,189,324561449730,-10.5502,-0.1375,0.0301,0.0310,0.1410,-0.0090,1.1622,23.4375,23.4375,23.4375,23.4375,12.2471,0.0000,0.0000,0.0000,0.1831,-0.1554,-0.2373,-10.6193,0.0205,-0.0189,0.0008,0.0000,0.0000,0.0000,0.0000,0.0000,0.0000,0.0000,0.0000,0.0000,0.0000,0.0000,0.0000,0.0000,0.0000,1.0000,0.0000,0.0000,0.0000,-0.1375,0.0301,0.0000,0.0000,0.0000,0.0000,0.0000,0.0000,-0.0000,-0.0429,0.0136,-0.0023,0.0000,0.0000,-0.5725,0.0025,0.0025,0.0025,0.0025,4
71,190,324566718679,-10.5502,-0.1375,0.0301,0.0310,0.1410,-0.0090,1.1622,23.4375,23.4375,23.4375,23.4375,12.2476,0.0000,-0.1221,-0.0610,-0.0000,-0.1411,-0.2373,-10.6026,0.0205,-0.0189,0.0008,0.0000,0.0000,0.0000,0.0000,0.0000,0.0000,0.0000,0.0000,0.0000,0.0000,0.0000,0.0000,0.0000,0.0000,1.0000,0.0000,0.0000,0.0000,-0.1375,0.0301,0.0000,0.0000,0.0000,0.0000,0.0000,0.0000,-0.0000,-0.0429,0.0135,-0.0022,0.0000,0.0000,-0.5725,0.0025,0.0025,0.0025,0.0025,4
72,191,324571358109,-10.5502,-0.1375,0.0301,0.0310,0.1410,-0.0090,1.1622,23.4375,23.4375,23.4375,23.4375,12.2481,0.0000,-0.3052,-0.1831,-0.0000,-0.1435,-0.2230,-10.6551,0.0204,-0.0189,0.0008,0.0000,0.0000,0.0000,0.0000,0.0000,0.0000,0.0000,0.0000,0.0000,0.0000,0.0000,0.0000,0.0000,0.0000,1.0000,0.0000,0.0000,0.0000,-0.1375,0.0301,0.0000,0.0000,0.0000,0.0000,0.0000,0.0000,-0.0000,-0.0428,0.0134,-0.0022,0.0000,0.0000,-0.5725,0.0025,0.0025,0.0025,0.0025,4
73,192,324576333174,-10.5502,-0.1375,0.0301,0.0310,0.1410,-0.0090,1.1622,23.4375,23.4375,23.4375,23.4375,12.2476,0.0000,0.0000,0.0000,-0.0000,-0.1243,-0.2206,-10.6002,0.0204,-0.0189,0.0008,0.0000,0.0000,0.0000,0.0000,0.0000,0.0000,0.0000,0.0000,0.0000,0.0000,0.0000,0.0000,0.0000,0.0000,1.0000,0.0000,0.0000,0.0000,-0.1375,0.0301,0.0000,0.0000,0.0000,0.0000,0.0000,0.0000,-0.0000,-0.0429,0.0134,-0.0022,0.0000,0.0000,-0.5725,0.0025,0.0025,0.0025,0.0025,4
74,193,324581518328,-10.5502,-0.1375,0.0301,0.0310,0.1410,-0.0090,1.1622,23.4375,23.4375,23.4375,23.4375,12.2478,0.0000,-0.1831,-0.1221,0.2441,-0.1339,-0.2206,-10.6121,0.0204,-0.0189,0.0008,0.0000,0.0000,0.0000,0.0000,0.0000,0.0000,0.0000,0.0000,0.0000,0.0000,0.0000,0.0000,0.0000,0.0000,1.0000,0.0000,0.0000,0.0000,-0.1375,0.0301,0.0000,0.0000,0.0000,0.0000,0.0000,0.0000,-0.0000,-0.0429,0.0134,-0.0023,0.0000,0.0000,-0.5725,0.0025,0.0025,0.0025,0.0025,4
75,194,324586799277,-10.5502,-0.1375,0.0301,0.0310,0.1410,-0.0090,1.1622,23.4375,23.4375,23.4375,23.4375,12.2481,0.0000,-0.0610,-0.1221,-0.0000,-0.1698,-0.2086,-10.5620,0.0204,-0.0189,0.0008,0.0000,0.0000,0.0000,0.0000,0.0000,0.0000,0.0000,0.0000,0.0000,0.0000,0.0000,0.0000,0.0000,0.0000,1.0000,0.0000,0.0000,0.0000,-0.1375,0.0301,0.0000,0.0000,0.0000,0.0000,0.0000,0.0000,-0.0000,-0.0429,0.0133,-0.0023,0.0000,0.0000,-0.5725,0.0025,0.0025,0.0025,0.0025,4
76,195,324591358455,-10.5502,-0.1375,0.0301,0.0410,0.1110,0.0010,1.1622,23.4375,23.4375,23.4375,23.4375,12.2471,0.0000,-0.0610,-0.2441,0.1221,-0.1435,-0.2158,-10.5405,0.0204,-0.0189,0.0008,0.0000,0.0000,0.0000,0.0000,0.0000,0.0000,0.0000,0.0000,0.0000,0.0000,0.0000,0.0000,0.0000,0.0000,1.0000,0.0000,0.0000,0.0000,-0.1375,0.0301,0.0000,0.0000,0.0000,0.0000,0.0000,0.0000,-0.0000,-0.0429,0.0134,-0.0023,0.0000,0.0000,-0.5725,0.0025,0.0025,0.0025,0.0025,4
77,196,324596317769,-10.5502,-0.1375,0.0301,0.0410,0.1110,0.0010,1.1622,23.4375,23.4375,23.4375,23.4375,12.2466,0.0000,-0.0610,-0.1221,-0.0000,-0.1411,-0.2158,-10.6599,0.0204,-0.0189,0.0008,0.0000,0.0000,0.0000,0.0000,0.0000,0.0000,0.0000,0.0000,0.0000,0.0000,0.0000,0.0000,0.0000,0.0000,1.0000,0.0000,0.0000,0.0000,-0.1375,0.0301,0.0000,0.0000,0.0000,0.0000,0.0000,0.0000,-0.0000,-0.0430,0.0134,-0.0023,0.0000,0.0000,-0.5725,0.0025,0.0025,0.0025,0.0025,4
78,197,324625627143,-10.5694,-0.1195,0.0440,0.0410,0.1110,0.0010,1.1622,23.4375,23.4375,23.4375,23.4375,12.2469,0.0000,-0.0610,-0.1831,-0.0000,-0.1363,-0.2421,-10.5930,0.0204,-0.0189,0.0008,0.0000,0.0000,0.0000,0.0000,0.0000,0.0000,0.0000,0.0000,0.0000,0.0000,0.0000,0.0000,0.0000,0.0000,1.0000,0.0000,0.0000,0.0000,-0.1195,0.0440,0.0000,0.0000,0.0000,0.0000,0.0000,0.0000,-0.0000,0.0645,0.0962,-0.0023,0.0000,0.0000,-0.5742,0.0025,0.0025,0.0025,0.0025,4
79,198,324630058400,-10.5694,-0.1195,0.0440,0.0410,0.1110,0.0010,1.1622,23.4375,23.4375,23.4375,23.4375,12.2471,0.0000,0.0610,-0.1221,-0.0000,-0.1387,-0.2014,-10.6026,0.0205,-0.0189,0.0008,0.0000,0.0000,0.0000,0.0000,0.0000,0.0000,0.0000,0.0000,0.0000,0.0000,0.0000,0.0000,0.0000,0.0000,1.0000,0.0000,0.0000,0.0000,-0.1195,0.0440,0.0000,0.0000,0.0000,0.0000,0.0000,0.0000,-0.0000,0.0322,0.0713,-0.0020,0.0000,0.0000,-0.5742,0.0025,0.0025,0.0025,0.0025,4
80,199,324631669323,-10.5694,-0.1195,0.0440,0.0410,0.1110,0.0010,1.1622,23.4375,23.4375,23.4375,23.4375,12.2466,0.0000,-0.0610,-0.2441,-0.0000,-0.1267,-0.2469,-10.6599,0.0205,-0.0189,0.0008,0.0000,0.0000,0.0000,0.0000,0.0000,0.0000,0.0000,0.0000,0.0000,0.0000,0.0000,0.0000,0.0000,0.0000,1.0000,0.0000,0.0000,0.0000,-0.1195,0.0440,0.0000,0.0000,0.0000,0.0000,0.0000,0.0000,-0.0000,0.0101,0.0543,-0.0020,0.0000,0.0000,-0.5742,0.0025,0.0025,0.0025,0.0025,4
81,200,324666099183,-10.5694,-0.1195,0.0440,0.0410,0.1110,0.0010,1.1622,23.4375,23.4375,23.4375,23.4375,12.2469,0.0000,-0.0610,-0.1221,0.1221,-0.1530,-0.1870,-10.5787,0.0205,-0.0189,0.0008,0.0000,0.0000,0.0000,0.0000,0.0000,0.0000,0.0000,0.0000,0.0000,0.0000,0.0000,0.0000,0.0000,0.0000,1.0000,0.0000,0.0000,0.0000,-0.1195,0.0440,0.0000,0.0000,0.0000,0.0000,0.0000,0.0000,-0.0000,-0.0051,0.0426,-0.0021,0.0000,0.0000,-0.5742,0.0025,0.0025,0.0025,0.0025,4
82,201,324722856792,-10.5694,-0.1195,0.0440,0.0410,0.1110,0.0010,1.1622,23.4375,23.4375,23.4375,23.4375,12.2471,0.0000,-0.0610,-0.2441,-0.0000,-0.1769,-0.2493,-10.6503,0.0205,-0.0189,0.0008,0.0000,0.0000,0.0000,0.0000,0.0000,0.0000,0.0000,0.0000,0.0000,0.0000,0.0000,0.0000,0.0000,0.0000,1.0000,0.0000,0.0000,0.0000,-0.1195,0.0440,0.0000,0.0000,0.0000,0.0000,0.0000,0.0000,-0.0000,-0.0155,0.0346,-0.0023,0.0000,0.0000,-0.5742,0.0025,0.0025,0.0025,0.0025,4
83,202,324726363272,-10.5694,-0.1195,0.0440,0.0410,0.1110,0.0010,1.1622,23.4375,23.4375,23.4375,23.4375,12.2474,0.0000,-0.0610,-0.1221,-0.0000,-0.1745,-0.1870,-10.5691,0.0205,-0.0189,0.0008,0.0000,0.0000,0.0000,0.0000,0.0000,0.0000,0.0000,0.0000,0.0000,0.0000,0.0000,0.0000,0.0000,0.0000,1.0000,0.0000,0.0000,0.0000,-0.1195,0.0440,0.0000,0.0000,0.0000,0.0000,0.0000,0.0000,-0.0000,-0.0226,0.0291,-0.0023,0.0000,0.0000,-0.5742,0.0025,0.0025,0.0025,0.0025,4
84,203,324731373796,-10.5694,-0.1195,0.0440,0.0410,0.1110,0.0010,1.1622,23.4375,23.4375,23.4375,23.4375,12.2469,0.0000,-0.0610,-0.2441,-0.0000,-0.1793,-0.2421,-10.6193,0.0205,-0.0189,0.0008,0.0000,0.0000,0.0000,0.0000,0.0000,0.0000,0.0000,0.0000,0.0000,0.0000,0.0000,0.0000,0.0000,0.0000,1.0000,0.0000,0.0000,0.0000,-0.1195,0.0440,0.0000,0.0000,0.0000,0.0000,0.0000,0.0000,-0.0000,-0.0274,0.0254,-0.0023,0.0000,0.0000,-0.5742,0.0025,0.0025,0.0025,0.0025,4
85,204,324736349736,-10.5694,-0.1195,0.0440,0.0410,0.1110,0.0010,1.1622,23.4375,23.4375,23.4375,23.4375,12.2469,0.0000,-0.1831,-0.1221,-0.0000,-0.1028,-0.1990,-10.5477,0.0205,-0.0189,0.0008,0.0000,0.0000,0.0000,0.0000,0.0000,0.0000,0.0000,0.0000,0.0000,0.0000,0.0000,0.0000,0.0000,0.0000,1.0000,0.0000,0.0000,0.0000,-0.1195,0.0440,0.0000,0.0000,0.0000,0.0000,0.0000,0.0000,-0.0000,-0.0308,0.0228,-0.0022,0.0000,0.0000,-0.5742,0.0025,0.0025,0.0025,0.0025,4
86,205,324741804024,-10.5694,-0.1195,0.0440,0.0410,0.1110,0.0010,1.1622,23.4375,23.4375,23.4375,23.4375,12.2462,0.0000,-0.0610,-0.1221,-0.1221,-0.1841,-0.2182,-10.5811,0.0205,-0.0189,0.0008,0.0000,0.0000,0.0000,0.0000,0.0000,0.0000,0.0000,0.0000,0.0000,0.0000,0.0000,0.0000,0.0000,0.0000,1.0000,0.0000,0.0000,0.0000,-0.1195,0.0440,0.0000,0.0000,0.0000,0.0000,0.0000,0.0000,-0.0000,-0.0330,0.0210,-0.0021,0.0000,0.0000,-0.5742,0.0025,0.0025,0.0025,0.0025,4
87,206,324746287907,-10.5694,-0.1195,0.0440,0.0410,0.1110,0.0010,1.1622,23.4375,23.4375,23.4375,23.4375,12.2449,0.0000,-0.1831,-0.1221,-0.1221,-0.1435,-0.2086,-10.5930,0.0205,-0.0189,0.0008,0.0000,0.0000,0.0000,0.0000,0.0000,0.0000,0.0000,0.0000,0.0000,0.0000,0.0000,0.0000,0.0000,0.0000,1.0000,0.0000,0.0000,0.0000,-0.1195,0.0440,0.0000,0.0000,0.0000,0.0000,0.0000,0.0000,-0.0000,-0.0346,0.0198,-0.0020,0.0000,0.0000,-0.5742,0.0025,0.0025,0.0025,0.0025,4
88,207,324751436977,-10.5694,-0.1195,0.0440,0.0410,0.1110,0.0010,1.1622,23.4375,23.4375,23.4375,23.4375,12.2430,0.0000,-0.0610,-0.1221,-0.0000,-0.1435,-0.2062,-10.6097,0.0205,-0.0189,0.0008,0.0000,0.0000,0.0000,0.0000,0.0000,0.0000,0.0000,0.0000,0.0000,0.0000,0.0000,0.0000,0.0000,0.0000,1.0000,0.0000,0.0000,0.0000,-0.1195,0.0440,0.0000,0.0000,0.0000,0.0000,0.0000,0.0000,-0.0000,-0.0357,0.0190,-0.0019,0.0000,0.0000,-0.5742,0.0025,0.0025,0.0025,0.0025,4
89,208,324756909141,-10.5694,-0.1195,0.0440,0.0410,0.1110,0.0010,1.1622,23.4375,23.4375,23.4375,23.4375,12.2428,0.0000,-0.1831,-0.1221,-0.0000,-0.1363,-0.1942,-10.6026,0.0205,-0.0189,0.0008,0.0000,0.0000,0.0000,0.0000,0.0000,0.0000,0.0000,0.0000,0.0000,0.0000,0.0000,0.0000,0.0000,0.0000,1.0000,0.0000,0.0000,0.0000,-0.1195,0.0440,0.0000,0.0000,0.0000,0.0000,0.0000,0.0000,-0.0000,-0.0364,0.0184,-0.0019,0.0000,0.0000,-0.5742,0.0025,0.0025,0.0025,0.0025,4
90,209,324761435859,-10.5694,-0.1195,0.0440,0.0410,0.1110,0.0010,1.1622,23.4375,23.4375,23.4375,23.4375,12.2416,0.0000,0.0000,0.0000,-0.0000,-0.1674,-0.2541,-10.6240,0.0205,-0.0189,0.0008,0.0000,0.0000,0.0000,0.0000,0.0000,0.0000,0.0000,0.0000,0.0000,0.0000,0.0000,0.0000,0.0000,0.0000,1.0000,0.0000,0.0000,0.0000,-0.1195,0.0440,0.0000,0.0000,0.0000,0.0000,0.0000,0.0000,-0.0000,-0.0369,0.0179,-0.0019,0.0000,0.0000,-0.5742,0.0025,0.0025,0.0025,0.0025,4
91,210,324766301171,-10.5694,-0.1195,0.0440,0.0410,0.1110,0.0010,1.1622,23.4375,23.4375,23.4375,23.4375,12.2401,0.0000,-0.0610,-0.1831,-0.0610,-0.1530,-0.1990,-10.6360,0.0205,-0.0189,0.0007,0.0000,0.0000,0.0000,0.0000,0.0000,0.0000,0.0000,0.0000,0.0000,0.0000,0.0000,0.0000,0.0000,0.0000,1.0000,0.0000,0.0000,0.0000,-0.1195,0.0440,0.0000,0.0000,0.0000,0.0000,0.0000,0.0000,-0.0000,-0.0373,0.0177,-0.0019,0.0000,0.0000,-0.5742,0.0025,0.0025,0.0025,0.0025,4
92,211,324771264319,-10.5694,-0.1195,0.0440,0.0410,0.1110,0.0010,1.1622,23.4375,23.4375,23.4375,23.4375,12.2389,0.0000,0.0000,0.0000,-0.0000,-0.1339,-0.2373,-10.5596,0.0205,-0.0189,0.0007,0.0000,0.0000,0.0000,0.0000,0.0000,0.0000,0.0000,0.0000,0.0000,0.0000,0.0000,0.0000,0.0000,0.0000,1.0000,0.0000,0.0000,0.0000,-0.1195,0.0440,0.0000,0.0000,0.0000,0.0000,0.0000,0.0000,-0.0000,-0.0376,0.0175,-0.0019,0.0000,0.0000,-0.5742,0.0025,0.0025,0.0025,0.0025,4
93,212,324776628353,-10.5694,-0.1195,0.0440,0.0410,0.1110,0.0010,1.1622,23.4375,23.4375,23.4375,23.4375,12.2379,0.0000,0.0000,-0.1221,0.1221,-0.1721,-0.1774,-10.6145,0.0205,-0.0189,0.0008,0.0000,0.0000,0.0000,0.0000,0.0000,0.0000,0.0000,0.0000,0.0000,0.0000,0.0000,0.0000,0.0000,0.0000,1.0000,0.0000,0.0000,0.0000,-0.1195,0.0440,0.0000,0.0000,0.0000,0.0000,0.0000,0.0000,-0.0000,-0.0378,0.0174,-0.0020,0.0000,0.0000,-0.5742,0.0025,0.0025,0.0025,0.0025,4
94,213,324781392787,-10.5694,-0.1195,0.0440,0.0410,0.1110,0.0010,1.1622,23.4375,23.4375,23.4375,23.4375,12.2372,0.0000,-0.0610,-0.2441,-0.0000,-0.1865,-0.2325,-10.6288,0.0205,-0.0189,0.0007,0.0000,0.0000,0.0000,0.0000,0.0000,0.0000,0.0000,0.0000,0.0000,0.0000,0.0000,0.0000,0.0000,0.0000,1.0000,0.0000,0.0000,0.0000,-0.1195,0.0440,0.0000,0.0000,0.0000,0.0000,0.0000,0.0000,-0.0000,-0.0379,0.0174,-0.0019,0.0000,0.0000,-0.5742,0.0025,0.0025,0.0025,0.0025,4
95,214,324786244264,-10.5694,-0.1195,0.0440,0.0410,0.1110,0.0010,1.1622,23.4375,23.4375,23.4375,23.4375,12.2358,0.0000,-0.2441,-0.1831,0.1221,-0.1076,-0.2349,-10.6026,0.0205,-0.0189,0.0008,0.0000,0.0000,0.0000,0.0000,0.0000,0.0000,0.0000,0.0000,0.0000,0.0000,0.0000,0.0000,0.0000,0.0000,1.0000,0.0000,0.0000,0.0000,-0.1195,0.0440,0.0000,0.0000,0.0000,0.0000,0.0000,0.0000,-0.0000,-0.0379,0.0174,-0.0020,0.0000,0.0000,-0.5742,0.0025,0.0025,0.0025,0.0025,4
96,215,324822578179,-10.5692,-0.1139,0.0573,0.0510,0.1010,0.0010,1.1622,23.4375,23.4375,23.4375,23.4375,12.2353,0.0000,-0.0610,-0.1221,-0.1221,-0.1172,-0.1942,-10.6694,0.0205,-0.0189,0.0007,0.0000,0.0000,0.0000,0.0000,0.0000,0.0000,0.0000,0.0000,0.0000,0.0000,0.0000,0.0000,0.0000,0.0000,1.0000,0.0000,0.0000,0.0000,-0.1139,0.0573,0.0000,0.0000,0.0000,0.0000,0.0000,0.0000,-0.0000,-0.0043,0.0967,-0.0019,0.0000,0.0000,-0.5743,0.0025,0.0025,0.0025,0.0025,4
97,216,324877887366,-10.5692,-0.1139,0.0573,0.0510,0.1010,0.0010,1.1622,23.4375,23.4375,23.4375,23.4375,12.2333,0.0000,-0.3052,-0.1831,-0.0000,-0.1458,-0.1918,-10.6312,0.0205,-0.0190,0.0007,0.0000,0.0000,0.0000,0.0000,0.0000,0.0000,0.0000,0.0000,0.0000,0.0000,0.0000,0.0000,0.0000,0.0000,1.0000,0.0000,0.0000,0.0000,-0.1139,0.0573,0.0000,0.0000,0.0000,0.0000,0.0000,0.0000,-0.0000,-0.0143,0.0730,-0.0018,0.0000,0.0000,-0.5743,0.0025,0.0025,0.0025,0.0025,4
98,217,324881328719,-10.5692,-0.1139,0.0573,0.0510,0.1010,0.0010,1.1622,23.4375,23.4375,23.4375,23.4375,12.2319,0.0000,0.0610,0.0000,-0.0610,-0.1530,-0.2062,-10.5954,0.0205,-0.0190,0.0007,0.0000,0.0000,0.0000,0.0000,0.0000,0.0000,0.0000,0.0000,0.0000,0.0000,0.0000,0.0000,0.0000,0.0000,1.0000,0.0000,0.0000,0.0000,-0.1139,0.0573,0.0000,0.0000,0.0000,0.0000,0.0000,0.0000,-0.0000,-0.0214,0.0565,-0.0017,0.0000,0.0000,-0.5743,0.0025,0.0025,0.0025,0.0025,4
99,218,324886250782,-10.5692,-0.1139,0.0573,0.0510,0.1010,0.0010,1.1622,23.4375,23.4375,23.4375,23.4375,12.2307,0.0000,0.0000,-0.1831,-0.0000,-0.1530,-0.2110,-10.5429,0.0205,-0.0190,0.0007,0.0000,0.0000,0.0000,0.0000,0.0000,0.0000,0.0000,0.0000,0.0000,0.0000,0.0000,0.0000,0.0000,0.0000,1.0000,0.0000,0.0000,0.0000,-0.1139,0.0573,0.0000,0.0000,0.0000,0.0000,0.0000,0.0000,-0.0000,-0.0262,0.0454,-0.0018,0.0000,0.0000,-0.5743,0.0025,0.0025,0.0025,0.0025,4
100,219,324891291682,-10.5692,-0.1139,0.0573,0.0510,0.1010,0.0010,1.1622,23.4375,23.4375,23.4375,23.4375,12.2302,0.0000,0.0000,0.0000,0.2441,-0.1650,-0.1822,-10.5620,0.0205,-0.0190,0.0007,0.0000,0.0000,0.0000,0.0000,0.0000,0.0000,0.0000,0.0000,0.0000,0.0000,0.0000,0.0000,0.0000,0.0000,1.0000,0.0000,0.0000,0.0000,-0.1139,0.0573,0.0000,0.0000,0.0000,0.0000,0.0000,0.0000,-0.0000,-0.0295,0.0376,-0.0019,0.0000,0.0000,-0.5743,0.0025,0.0025,0.0025,0.0025,4
101,220,324896655425,-10.5692,-0.1139,0.0573,0.0510,0.1010,0.0010,1.1622,23.4375,23.4375,23.4375,23.4375,12.2287,0.0000,-0.0610,-0.1831,0.1831,-0.1435,-0.2949,-10.6050,0.0205,-0.0190,0.0007,0.0000,0.0000,0.0000,0.0000,0.0000,0.0000,0.0000,0.0000,0.0000,0.0000,0.0000,0.0000,0.0000,0.0000,1.0000,0.0000,0.0000,0.0000,-0.1139,0.0573,0.0000,0.0000,0.0000,0.0000,0.0000,0.0000,-0.0000,-0.0317,0.0324,-0.0020,0.0000,0.0000,-0.5743,0.0025,0.0025,0.0025,0.0025,4
102,221,324901525736,-10.5692,-0.1139,0.0573,0.0510,0.1010,0.0010,1.1622,23.4375,23.4375,23.4375,23.4375,12.2271,0.0000,-0.0610,-0.1221,0.1221,-0.1315,-0.2565,-10.5644,0.0205,-0.0190,0.0007,0.0000,0.0000,0.0000,0.0000,0.0000,0.0000,0.0000,0.0000,0.0000,0.0000,0.0000,0.0000,0.0000,0.0000,1.0000,0.0000,0.0000,0.0000,-0.1139,0.0573,0.0000,0.0000,0.0000,0.0000,0.0000,0.0000,-0.0000,-0.0333,0.0287,-0.0021,0.0000,0.0000,-0.5743,0.0025,0.0025,0.0025,0.0025,4
103,222,324906306170,-10.5692,-0.1139,0.0573,0.0510,0.1010,0.0010,1.1622,23.4375,23.4375,23.4375,23.4375,12.2256,0.0000,-0.0610,-0.1221,0.1831,-0.1913,-0.2253,-10.5954,0.0205,-0.0190,0.0008,0.0000,0.0000,0.0000,0.0000,0.0000,0.0000,0.0000,0.0000,0.0000,0.0000,0.0000,0.0000,0.0000,0.0000,1.0000,0.0000,0.0000,0.0000,-0.1139,0.0573,0.0000,0.0000,0.0000,0.0000,0.0000,0.0000,-0.0000,-0.0343,0.0262,-0.0021,0.0000,0.0000,-0.5743,0.0025,0.0025,0.0025,0.0025,4
104,223,324919364725,-10.5692,-0.1139,0.0573,0.0510,0.1010,0.0010,1.1622,23.4375,23.4375,23.4375,23.4375,12.2244,0.0000,-0.0610,-0.1831,0.2441,-0.1148,-0.2014,-10.6169,0.0205,-0.0190,0.0008,0.0000,0.0000,0.0000,0.0000,0.0000,0.0000,0.0000,0.0000,0.0000,0.0000,0.0000,0.0000,0.0000,0.0000,1.0000,0.0000,0.0000,0.0000,-0.1139,0.0573,0.0000,0.0000,0.0000,0.0000,0.0000,0.0000,-0.0000,-0.0351,0.0246,-0.0024,0.0000,0.0000,-0.5743,0.0025,0.0025,0.0025,0.0025,4
105,224,324921315908,-10.5692,-0.1139,0.0573,0.0510,0.1010,0.0010,1.1622,23.4375,23.4375,23.4375,23.4375,12.2229,0.0000,-0.0610,-0.1831,-0.0000,-0.1458,-0.1726,-10.6527,0.0205,-0.0190,0.0008,0.0000,0.0000,0.0000,0.0000,0.0000,0.0000,0.0000,0.0000,0.0000,0.0000,0.0000,0.0000,0.0000,0.0000,1.0000,0.0000,0.0000,0.0000,-0.1139,0.0573,0.0000,0.0000,0.0000,0.0000,0.0000,0.0000,-0.0000,-0.0356,0.0234,-0.0024,0.0000,0.0000,-0.5743,0.0025,0.0025,0.0025,0.0025,4
106,225,324926749987,-10.5692,-0.1139,0.0573,0.0510,0.1010,0.0010,1.1622,23.4375,23.4375,23.4375,23.4375,12.2229,0.0000,0.0000,0.0000,-0.0000,-0.1578,-0.1582,-10.5954,0.0205,-0.0190,0.0008,0.0000,0.0000,0.0000,0.0000,0.0000,0.0000,0.0000,0.0000,0.0000,0.0000,0.0000,0.0000,0.0000,0.0000,1.0000,0.0000,0.0000,0.0000,-0.1139,0.0573,0.0000,0.0000,0.0000,0.0000,0.0000,0.0000,-0.0000,-0.0359,0.0226,-0.0023,0.0000,0.0000,-0.5743,0.0025,0.0025,0.0025,0.0025,4
107,226,324931302039,-10.5692,-0.1139,0.0573,0.0510,0.1010,0.0010,1.1622,23.4375,23.4375,23.4375,23.4375,12.2229,0.0000,0.0000,0.0000,-0.0000,-0.1124,-0.2373,-10.5954,0.0205,-0.0190,0.0008,0.0000,0.0000,0.0000,0.0000,0.0000,0.0000,0.0000,0.0000,0.0000,0.0000,0.0000,0.0000,0.0000,0.0000,1.0000,0.0000,0.0000,0.0000,-0.1139,0.0573,0.0000,0.0000,0.0000,0.0000,0.0000,0.0000,-0.0000,-0.0361,0.0220,-0.0022,0.0000,0.0000,-0.5743,0.0025,0.0025,0.0025,0.0025,4
108,227,324936364690,-10.5692,-0.1139,0.0573,0.0510,0.1010,0.0010,1.1622,23.4375,23.4375,23.4375,23.4375,12.2234,0.0000,-0.0610,-0.1221,-0.0000,-0.1506,-0.2134,-10.6264,0.0205,-0.0190,0.0008,0.0000,0.0000,0.0000,0.0000,0.0000,0.0000,0.0000,0.0000,0.0000,0.0000,0.0000,0.0000,0.0000,0.0000,1.0000,0.0000,0.0000,0.0000,-0.1139,0.0573,0.0000,0.0000,0.0000,0.0000,0.0000,0.0000,-0.0000,-0.0363,0.0216,-0.0022,0.0000,0.0000,-0.5743,0.0025,0.0025,0.0025,0.0025,4
109,228,324941318920,-10.5692,-0.1139,0.0573,0.0510,0.1010,0.0010,1.1622,23.4375,23.4375,23.4375,23.4375,12.2229,0.0000,-0.0610,-0.1831,-0.1221,-0.1363,-0.2206,-10.6002,0.0205,-0.0190,0.0008,0.0000,0.0000,0.0000,0.0000,0.0000,0.0000,0.0000,0.0000,0.0000,0.0000,0.0000,0.0000,0.0000,0.0000,1.0000,0.0000,0.0000,0.0000,-0.1139,0.0573,0.0000,0.0000,0.0000,0.0000,0.0000,0.0000,-0.0000,-0.0364,0.0214,-0.0020,0.0000,0.0000,-0.5743,0.0025,0.0025,0.0025,0.0025,4
110,229,324946247775,-10.5692,-0.1139,0.0573,0.0510,0.1010,0.0010,1.1622,23.4375,23.4375,23.4375,23.4375,12.2227,0.0000,-0.0610,-0.1221,0.1221,-0.1482,-0.2182,-10.6193,0.0205,-0.0190,0.0008,0.0000,0.0000,0.0000,0.0000,0.0000,0.0000,0.0000,0.0000,0.0000,0.0000,0.0000,0.0000,0.0000,0.0000,1.0000,0.0000,0.0000,0.0000,-0.1139,0.0573,0.0000,0.0000,0.0000,0.0000,0.0000,0.0000,-0.0000,-0.0365,0.0212,-0.0021,0.0000,0.0000,-0.5743,0.0025,0.0025,0.0025,0.0025,4
111,230,324951773356,-10.5692,-0.1139,0.0573,0.0510,0.1010,0.0010,1.1622,23.4375,23.4375,23.4375,23.4375,12.2229,0.0000,-0.0610,-0.1831,0.1221,-0.1578,-0.2230,-10.5524,0.0205,-0.0190,0.0008,0.0000,0.0000,0.0000,0.0000,0.0000,0.0000,0.0000,0.0000,0.0000,0.0000,0.0000,0.0000,0.0000,0.0000,1.0000,0.0000,0.0000,0.0000,-0.1139,0.0573,0.0000,0.0000,0.0000,0.0000,0.0000,0.0000,-0.0000,-0.0365,0.0211,-0.0021,0.0000,0.0000,-0.5743,0.0025,0.0025,0.0025,0.0025,4
112,231,324956445162,-10.5692,-0.1139,0.0573,0.0510,0.1010,0.0010,1.1622,23.4375,23.4375,23.4375,23.4375,12.2229,0.0000,0.0000,0.0000,-0.0000,-0.1913,-0.2086,-10.6479,0.0205,-0.0190,0.0008,0.0000,0.0000,0.0000,0.0000,0.0000,0.0000,0.0000,0.0000,0.0000,0.0000,0.0000,0.0000,0.0000,0.0000,1.0000,0.0000,0.0000,0.0000,-0.1139,0.0573,0.0000,0.0000,0.0000,0.0000,0.0000,0.0000,-0.0000,-0.0366,0.0210,-0.0021,0.0000,0.0000,-0.5743,0.0025,0.0025,0.0025,0.0025,4
113,232,324961518730,-10.5692,-0.1139,0.0573,0.0510,0.1010,0.0010,1.1622,23.4375,23.4375,23.4375,23.4375,12.2229,0.0000,-0.0610,-0.1221,0.1831,-0.1626,-0.2134,-10.5047,0.0205,-0.0190,0.0008,0.0000,0.0000,0.0000,0.0000,0.0000,0.0000,0.0000,0.0000,0.0000,0.0000,0.0000,0.0000,0.0000,0.0000,1.0000,0.0000,0.0000,0.0000,-0.1139,0.0573,0.0000,0.0000,0.0000,0.0000,0.0000,0.0000,-0.0000,-0.0366,0.0209,-0.0022,0.0000,0.0000,-0.5743,0.0025,0.0025,0.0025,0.0025,4
114,233,324966635549,-10.5692,-0.1139,0.0573,0.0510,0.1010,0.0010,1.1622,23.4375,23.4375,23.4375,23.4375,12.2225,0.0000,-0.0610,-0.2441,0.2441,-0.1435,-0.2349,-10.6288,0.0205,-0.0190,0.0008,0.0000,0.0000,0.0000,0.0000,0.0000,0.0000,0.0000,0.0000,0.0000,0.0000,0.0000,0.0000,0.0000,0.0000,1.0000,0.0000,0.0000,0.0000,-0.1139,0.0573,0.0000,0.0000,0.0000,0.0000,0.0000,0.0000,-0.0000,-0.0366,0.0210,-0.0023,0.0000,0.0000,-0.5743,0.0025,0.0025,0.0025,0.0025,4
115,234,324971242519,-10.5692,-0.1139,0.0573,0.0510,0.1010,0.0010,1.1622,23.4375,23.4375,23.4375,23.4375,12.2222,0.0000,-0.1831,-0.2441,0.1221,-0.1124,-0.1942,-10.6264,0.0205,-0.0190,0.0008,0.0000,0.0000,0.0000,0.0000,0.0000,0.0000,0.0000,0.0000,0.0000,0.0000,0.0000,0.0000,0.0000,0.0000,1.0000,0.0000,0.0000,0.0000,-0.1139,0.0573,0.0000,0.0000,0.0000,0.0000,0.0000,0.0000,-0.0000,-0.0366,0.0210,-0.0023,0.0000,0.0000,-0.5743,0.0025,0.0025,0.0025,0.0025,4
116,235,324976308170,-10.5692,-0.1139,0.0573,0.0510,0.1010,0.0010,1.1622,23.4375,23.4375,23.4375,23.4375,12.2215,0.0000,-0.0610,-0.2441,-0.0000,-0.1004,-0.2110,-10.5930,0.0205,-0.0190,0.0008,0.0000,0.0000,0.0000,0.0000,0.0000,0.0000,0.0000,0.0000,0.0000,0.0000,0.0000,0.0000,0.0000,0.0000,1.0000,0.0000,0.0000,0.0000,-0.1139,0.0573,0.0000,0.0000,0.0000,0.0000,0.0000,0.0000,-0.0000,-0.0366,0.0210,-0.0022,0.0000,0.0000,-0.5743,0.0025,0.0025,0.0025,0.0025,4
117,236,324981721414,-10.5692,-0.1139,0.0573,0.0510,0.1010,0.0010,1.1622,23.4375,23.4375,23.4375,23.4375,12.2222,0.0000,0.0610,-0.1221,0.1221,-0.1435,-0.2301,-10.6193,0.0205,-0.0190,0.0008,0.0000,0.0000,0.0000,0.0000,0.0000,0.0000,0.0000,0.0000,0.0000,0.0000,0.0000,0.0000,0.0000,0.0000,1.0000,0.0000,0.0000,0.0000,-0.1139,0.0573,0.0000,0.0000,0.0000,0.0000,0.0000,0.0000,-0.0000,-0.0367,0.0209,-0.0023,0.0000,0.0000,-0.5743,0.0025,0.0025,0.0025,0.0025,4
118,237,324986265674,-10.5692,-0.1139,0.0573,0.0510,0.1010,0.0010,1.1622,23.4375,23.4375,23.4375,23.4375,12.2225,0.0000,-0.0610,-0.3052,0.1831,-0.1626,-0.1966,-10.5477,0.0205,-0.0190,0.0008,0.0000,0.0000,0.0000,0.0000,0.0000,0.0000,0.0000,0.0000,0.0000,0.0000,0.0000,0.0000,0.0000,0.0000,1.0000,0.0000,0.0000,0.0000,-0.1139,0.0573,0.0000,0.0000,0.0000,0.0000,0.0000,0.0000,-0.0000,-0.0367,0.0210,-0.0023,0.0000,0.0000,-0.5743,0.0025,0.0025,0.0025,0.0025,4
119,238,324991279865,-10.5692,-0.1139,0.0573,0.0510,0.0910,0.0010,1.1622,23.4375,23.4375,23.4375,23.4375,12.2229,0.0000,-0.0610,-0.1221,-0.0610,-0.1530,-0.1918,-10.6336,0.0205,-0.0190,0.0008,0.0000,0.0000,0.0000,0.0000,0.0000,0.0000,0.0000,0.0000,0.0000,0.0000,0.0000,0.0000,0.0000,0.0000,1.0000,0.0000,0.0000,0.0000,-0.1139,0.0573,0.0000,0.0000,0.0000,0.0000,0.0000,0.0000,-0.0000,-0.0367,0.0209,-0.0022,0.0000,0.0000,-0.5743,0.0025,0.0025,0.0025,0.0025,4
120,239,325023588743,-10.5690,-0.1115,0.0623,0.0510,0.0910,0.0010,1.1622,23.4375,23.4375,23.4375,23.4375,12.2222,0.0000,-0.1221,-0.0610,-0.0000,-0.0837,-0.2038,-10.5835,0.0205,-0.0190,0.0008,0.0000,0.0000,0.0000,0.0000,0.0000,0.0000,0.0000,0.0000,0.0000,0.0000,0.0000,0.0000,0.0000,0.0000,1.0000,0.0000,0.0000,0.0000,-0.1115,0.0623,0.0000,0.0000,0.0000,0.0000,0.0000,0.0000,-0.0000,-0.0223,0.0504,-0.0022,0.0000,0.0000,-0.5745,0.0025,0.0025,0.0025,0.0025,4
121,240,325028206214,-10.5690,-0.1115,0.0623,0.0510,0.0910,0.0010,1.1622,23.4375,23.4375,23.4375,23.4375,12.2229,0.0000,0.0000,0.0000,-0.0000,-0.1339,-0.2301,-10.5501,0.0205,-0.0190,0.0008,0.0000,0.0000,0.0000,0.0000,0.0000,0.0000,0.0000,0.0000,0.0000,0.0000,0.0000,0.0000,0.0000,0.0000,1.0000,0.0000,0.0000,0.0000,-0.1115,0.0623,0.0000,0.0000,0.0000,0.0000,0.0000,0.0000,-0.0000,-0.0265,0.0416,-0.0021,0.0000,0.0000,-0.5745,0.0025,0.0025,0.0025,0.0025,4
122,241,325065719705,-10.5690,-0.1115,0.0623,0.0510,0.0910,0.0010,1.1622,23.4375,23.4375,23.4375,23.4375,12.2237,0.0000,0.0610,0.0000,0.1221,-0.1602,-0.2685,-10.5954,0.0205,-0.0190,0.0008,0.0000,0.0000,0.0000,0.0000,0.0000,0.0000,0.0000,0.0000,0.0000,0.0000,0.0000,0.0000,0.0000,0.0000,1.0000,0.0000,0.0000,0.0000,-0.1115,0.0623,0.0000,0.0000,0.0000,0.0000,0.0000,0.0000,-0.0000,-0.0295,0.0355,-0.0023,0.0000,0.0000,-0.5745,0.0025,0.0025,0.0025,0.0025,4
123,242,325122408809,-10.5690,-0.1115,0.0623,0.0510,0.0910,0.0010,1.1622,23.4375,23.4375,23.4375,23.4375,12.2237,0.0000,-0.1221,-0.0610,-0.0000,-0.1100,-0.2110,-10.6002,0.0205,-0.0191,0.0008,0.0000,0.0000,0.0000,0.0000,0.0000,0.0000,0.0000,0.0000,0.0000,0.0000,0.0000,0.0000,0.0000,0.0000,1.0000,0.0000,0.0000,0.0000,-0.1115,0.0623,0.0000,0.0000,0.0000,0.0000,0.0000,0.0000,-0.0000,-0.0314,0.0314,-0.0024,0.0000,0.0000,-0.5745,0.0025,0.0025,0.0025,0.0025,4
124,243,325126256881,-10.5690,-0.1115,0.0623,0.0510,0.0910,0.0010,1.1622,23.4375,23.4375,23.4375,23.4375,12.2234,0.0000,-0.1831,-0.1221,-0.0000,-0.1889,-0.1990,-10.5620,0.0205,-0.0191,0.0008,0.0000,0.0000,0.0000,0.0000,0.0000,0.0000,0.0000,0.0000,0.0000,0.0000,0.0000,0.0000,0.0000,0.0000,1.0000,0.0000,0.0000,0.0000,-0.1115,0.0623,0.0000,0.0000,0.0000,0.0000,0.0000,0.0000,-0.0000,-0.0328,0.0285,-0.0024,0.0000,0.0000,-0.5745,0.0025,0.0025,0.0025,0.0025,4
125,244,325131250655,-10.5690,-0.1115,0.0623,0.0510,0.0910,0.0010,1.1622,23.4375,23.4375,23.4375,23.4375,12.2239,0.0000,-0.1221,-0.0610,-0.0000,-0.1889,-0.2158,-10.5763,0.0205,-0.0191,0.0008,0.0000,0.0000,0.0000,0.0000,0.0000,0.0000,0.0000,0.0000,0.0000,0.0000,0.0000,0.0000,0.0000,0.0000,1.0000,0.0000,0.0000,0.0000,-0.1115,0.0623,0.0000,0.0000,0.0000,0.0000,0.0000,0.0000,-0.0000,-0.0338,0.0265,-0.0023,0.0000,0.0000,-0.5745,0.0025,0.0025,0.0025,0.0025,4
126,245,325136652816,-10.5690,-0.1115,0.0623,0.0510,0.0910,0.0010,1.1622,23.4375,23.4375,23.4375,23.4375,12.2234,0.0000,-0.0610,-0.1221,0.1831,-0.1315,-0.2613,-10.5978,0.0205,-0.0191,0.0008,0.0000,0.0000,0.0000,0.0000,0.0000,0.0000,0.0000,0.0000,0.0000,0.0000,0.0000,0.0000,0.0000,0.0000,1.0000,0.0000,0.0000,0.0000,-0.1115,0.0623,0.0000,0.0000,0.0000,0.0000,0.0000,0.0000,-0.0000,-0.0345,0.0252,-0.0024,0.0000,0.0000,-0.5745,0.0025,0.0025,0.0025,0.0025,4
127,246,325141242577,-10.5690,-0.1115,0.0623,0.0510,0.0910,0.0010,1.1622,23.4375,23.4375,23.4375,23.4375,12.2229,0.0000,0.0610,-0.1221,0.2441,-0.1435,-0.2493,-10.6264,0.0205,-0.0191,0.0008,0.0000,0.0000,0.0000,0.0000,0.0000,0.0000,0.0000,0.0000,0.0000,0.0000,0.0000,0.0000,0.0000,0.0000,1.0000,0.0000,0.0000,0.0000,-0.1115,0.0623,0.0000,0.0000,0.0000,0.0000,0.0000,0.0000,-0.0000,-0.0351,0.0242,-0.0025,0.0000,0.0000,-0.5745,0.0025,0.0025,0.0025,0.0025,4
128,247,325146311395,-10.5690,-0.1115,0.0623,0.0510,0.0910,0.0010,1.1622,23.4375,23.4375,23.4375,23.4375,12.2225,0.0000,-0.0610,-0.1221,0.1221,-0.1578,-0.2038,-10.6360,0.0205,-0.0191,0.0008,0.0000,0.0000,0.0000,0.0000,0.0000,0.0000,0.0000,0.0000,0.0000,0.0000,0.0000,0.0000,0.0000,0.0000,1.0000,0.0000,0.0000,0.0000,-0.1115,0.0623,0.0000,0.0000,0.0000,0.0000,0.0000,0.0000,-0.0000,-0.0354,0.0236,-0.0025,0.0000,0.0000,-0.5745,0.0025,0.0025,0.0025,0.0025,4
129,248,325152777795,-10.5690,-0.1115,0.0623,0.0510,0.0910,0.0010,1.1622,23.4375,23.4375,23.4375,23.4375,12.2225,0.0000,0.0000,0.0000,0.1831,-0.1745,-0.2541,-10.5978,0.0205,-0.0191,0.0009,0.0000,0.0000,0.0000,0.0000,0.0000,0.0000,0.0000,0.0000,0.0000,0.0000,0.0000,0.0000,0.0000,0.0000,1.0000,0.0000,0.0000,0.0000,-0.1115,0.0623,0.0000,0.0000,0.0000,0.0000,0.0000,0.0000,-0.0000,-0.0356,0.0231,-0.0026,0.0000,0.0000,-0.5745,0.0025,0.0025,0.0025,0.0025,4
130,249,325156414779,-10.5690,-0.1115,0.0623,0.0510,0.0910,0.0010,1.1622,23.4375,23.4375,23.4375,23.4375,12.2222,0.0000,0.0000,-0.0610,0.1221,-0.1267,-0.1990,-10.6336,0.0205,-0.0191,0.0009,0.0000,0.0000,0.0000,0.0000,0.0000,0.0000,0.0000,0.0000,0.0000,0.0000,0.0000,0.0000,0.0000,0.0000,1.0000,0.0000,0.0000,0.0000,-0.1115,0.0623,0.0000,0.0000,0.0000,0.0000,0.0000,0.0000,-0.0000,-0.0358,0.0228,-0.0026,0.0000,0.0000,-0.5745,0.0025,0.0025,0.0025,0.0025,4
