loop_index, counter, last_step_ns, T_ref, theta_ref, phi_ref, uwind, vwind, wwind, rho, rpm1, rpm2, rpm3, rpm4,v_batt,alt,gyro_roll,gyro_pitch,gyro_yaw,accel_X,accel_Y,accel_Z,roll,pitch,yaw,X,Y,Z,Xdot,Ydot,Zdot,x0,y0,z0,e.xbee_time,xbee_time_received_ns,xbee_x,xbee_y,xbee_z,xbee_qw,xbee_qx,xbee_qy,xbee_qz,sp_roll,sp_pitch,sp_yaw,sp_X,sp_Y,sp_Z,sp_Xdot,sp_Ydot,sp_Zdot,u_roll,u_pitch,u_yaw,u_X,u_Y,u_Z,mot_1,mot_2,mot_3,mot_4,flight mode
0,-1,0,-10.4862,-0.1670,0.0635,0.0310,0.0810,0.0210,1.1644,23.4375,23.4375,23.4375,23.4375,12.2191,0.0000,-0.3662,-0.0610,0.1221,-0.1387,-0.1295,-10.6455,0.0078,-0.0001,-0.0003,0.0000,0.0000,0.0000,0.0000,0.0000,0.0000,0.0000,0.0000,0.0000,0.0000,0.0000,0.0000,0.0000,0.0000,1.0000,0.0000,0.0000,0.0000,0.0000,0.0000,0.0000,0.0000,0.0000,0.0000,0.0000,0.0000,0.0000,0.0000,0.0000,0.0000,0.0000,0.0000,0.0000,-0.1000,-0.1000,-0.1000,-0.1000,4
0,-1,0,-10.4862,-0.1670,0.0635,0.0310,0.0810,0.0210,1.1644,23.4375,23.4375,23.4375,23.4375,12.2191,0.0000,0.0000,0.0000,-0.0000,-0.1745,-0.2038,-10.6169,0.0078,-0.0001,-0.0003,0.0000,0.0000,0.0000,0.0000,0.0000,0.0000,0.0000,0.0000,0.0000,0.0000,0.0000,0.0000,0.0000,0.0000,1.0000,0.0000,0.0000,0.0000,0.0000,0.0000,0.0000,0.0000,0.0000,0.0000,0.0000,0.0000,0.0000,0.0000,0.0000,0.0000,0.0000,0.0000,0.0000,-0.1000,-0.1000,-0.1000,-0.1000,4
0,-1,0,-10.4862,-0.1670,0.0635,0.0310,0.0810,0.0210,1.1644,23.4375,23.4375,23.4375,23.4375,12.2198,0.0000,-0.0610,-0.1831,-0.0000,-0.1769,-0.1822,-10.6909,0.0078,-0.0001,-0.0003,0.0000,0.0000,0.0000,0.0000,0.0000,0.0000,0.0000,0.0000,0.0000,0.0000,0.0000,0.0000,0.0000,0.0000,1.0000,0.0000,0.0000,0.0000,0.0000,0.0000,0.0000,0.0000,0.0000,0.0000,0.0000,0.0000,0.0000,0.0000,0.0000,0.0000,0.0000,0.0000,0.0000,-0.1000,-0.1000,-0.1000,-0.1000,4
0,-1,0,-10.4862,-0.1670,0.0635,0.0310,0.0810,0.0210,1.1644,23.4375,23.4375,23.4375,23.4375,12.2200,0.0000,-0.1831,-0.1221,0.1221,-0.1626,-0.1966,-10.6240,0.0078,-0.0002,-0.0003,0.0000,0.0000,0.0000,0.0000,0.0000,0.0000,0.0000,0.0000,0.0000,0.0000,0.0000,0.0000,0.0000,0.0000,1.0000,0.0000,0.0000,0.0000,0.0000,0.0000,0.0000,0.0000,0.0000,0.0000,0.0000,0.0000,0.0000,0.0000,0.0000,0.0000,0.0000,0.0000,0.0000,-0.1000,-0.1000,-0.1000,-0.1000,4
0,-1,0,-10.4862,-0.1670,0.0635,0.0310,0.0810,0.0210,1.1644,23.4375,23.4375,23.4375,23.4375,12.2210,0.0000,-0.0610,-0.2441,-0.0610,-0.1267,-0.1726,-10.6431,0.0078,-0.0002,-0.0003,0.0000,0.0000,0.0000,0.0000,0.0000,0.0000,0.0000,0.0000,0.0000,0.0000,0.0000,0.0000,0.0000,0.0000,1.0000,0.0000,0.0000,0.0000,0.0000,0.0000,0.0000,0.0000,0.0000,0.0000,0.0000,0.0000,0.0000,0.0000,0.0000,0.0000,0.0000,0.0000,0.0000,-0.1000,-0.1000,-0.1000,-0.1000,4
0,-1,0,-10.4862,-0.1670,0.0635,0.0310,0.0810,0.0210,1.1644,23.4375,23.4375,23.4375,23.4375,12.2215,0.0000,-0.3052,-0.1221,-0.0610,-0.1482,-0.2182,-10.5835,0.0078,-0.0002,-0.0004,0.0000,0.0000,0.0000,0.0000,0.0000,0.0000,0.0000,0.0000,0.0000,0.0000,0.0000,0.0000,0.0000,0.0000,1.0000,0.0000,0.0000,0.0000,0.0000,0.0000,0.0000,0.0000,0.0000,0.0000,0.0000,0.0000,0.0000,0.0000,0.0000,0.0000,0.0000,0.0000,0.0000,-0.1000,-0.1000,-0.1000,-0.1000,4
0,-1,0,-10.4862,-0.1670,0.0635,0.0310,0.0810,0.0210,1.1644,23.4375,23.4375,23.4375,23.4375,12.2222,0.0000,-0.2441,-0.0610,-0.0000,-0.1578,-0.0839,-10.5620,0.0078,-0.0002,-0.0004,0.0000,0.0000,0.0000,0.0000,0.0000,0.0000,0.0000,0.0000,0.0000,0.0000,0.0000,0.0000,0.0000,0.0000,1.0000,0.0000,0.0000,0.0000,0.0000,0.0000,0.0000,0.0000,0.0000,0.0000,0.0000,0.0000,0.0000,0.0000,0.0000,0.0000,0.0000,0.0000,0.0000,-0.1000,-0.1000,-0.1000,-0.1000,4
0,-1,0,-10.4862,-0.1670,0.0635,0.0310,0.0810,0.0210,1.1644,23.4375,23.4375,23.4375,23.4375,12.2222,0.0000,-0.0610,-0.1221,0.1221,-0.1721,-0.2637,-10.6861,0.0078,-0.0002,-0.0004,0.0000,0.0000,0.0000,0.0000,0.0000,0.0000,0.0000,0.0000,0.0000,0.0000,0.0000,0.0000,0.0000,0.0000,1.0000,0.0000,0.0000,0.0000,0.0000,0.0000,0.0000,0.0000,0.0000,0.0000,0.0000,0.0000,0.0000,0.0000,0.0000,0.0000,0.0000,0.0000,0.0000,-0.1000,-0.1000,-0.1000,-0.1000,4
0,-1,0,-10.4862,-0.1670,0.0635,0.0310,0.0810,0.0210,1.1644,23.4375,23.4375,23.4375,23.4375,12.2239,0.0000,-0.1221,0.0000,-0.0000,-0.1195,-0.1079,-10.5906,0.0078,-0.0002,-0.0004,0.0000,0.0000,0.0000,0.0000,0.0000,0.0000,0.0000,0.0000,0.0000,0.0000,0.0000,0.0000,0.0000,0.0000,1.0000,0.0000,0.0000,0.0000,0.0000,0.0000,0.0000,0.0000,0.0000,0.0000,0.0000,0.0000,0.0000,0.0000,0.0000,0.0000,0.0000,0.0000,0.0000,-0.1000,-0.1000,-0.1000,-0.1000,4
0,-1,0,-10.4862,-0.1670,0.0635,0.0310,0.0810,0.0210,1.1644,23.4375,23.4375,23.4375,23.4375,12.2251,0.0000,0.0000,0.0000,0.1221,-0.1984,-0.2373,-10.6193,0.0078,-0.0003,-0.0004,0.0000,0.0000,0.0000,0.0000,0.0000,0.0000,0.0000,0.0000,0.0000,0.0000,0.0000,0.0000,0.0000,0.0000,1.0000,0.0000,0.0000,0.0000,0.0000,0.0000,0.0000,0.0000,0.0000,0.0000,0.0000,0.0000,0.0000,0.0000,0.0000,0.0000,0.0000,0.0000,0.0000,-0.1000,-0.1000,-0.1000,-0.1000,4
0,-1,0,-10.4862,-0.1670,0.0635,0.0310,0.0810,0.0210,1.1644,23.4375,23.4375,23.4375,23.4375,12.2263,0.0000,-0.3052,-0.1831,-0.0610,-0.1028,-0.2014,-10.6217,0.0078,-0.0003,-0.0004,0.0000,0.0000,0.0000,0.0000,0.0000,0.0000,0.0000,0.0000,0.0000,0.0000,0.0000,0.0000,0.0000,0.0000,1.0000,0.0000,0.0000,0.0000,0.0000,0.0000,0.0000,0.0000,0.0000,0.0000,0.0000,0.0000,0.0000,0.0000,0.0000,0.0000,0.0000,0.0000,0.0000,-0.1000,-0.1000,-0.1000,-0.1000,4
0,-1,0,-10.4862,-0.1670,0.0635,0.0310,0.0810,0.0210,1.1644,23.4375,23.4375,23.4375,23.4375,12.2278,0.0000,0.0000,0.0610,0.2441,-0.2439,-0.2110,-10.6050,0.0078,-0.0003,-0.0003,0.0000,0.0000,0.0000,0.0000,0.0000,0.0000,0.0000,0.0000,0.0000,0.0000,0.0000,0.0000,0.0000,0.0000,1.0000,0.0000,0.0000,0.0000,0.0000,0.0000,0.0000,0.0000,0.0000,0.0000,0.0000,0.0000,0.0000,0.0000,0.0000,0.0000,0.0000,0.0000,0.0000,-0.1000,-0.1000,-0.1000,-0.1000,4
0,-1,0,-10.4862,-0.1670,0.0635,0.0310,0.0810,0.0210,1.1644,23.4375,23.4375,23.4375,23.4375,12.2295,0.0000,-0.1831,-0.2441,-0.1221,-0.1028,-0.1510,-10.6360,0.0078,-0.0003,-0.0004,0.0000,0.0000,0.0000,0.0000,0.0000,0.0000,0.0000,0.0000,0.0000,0.0000,0.0000,0.0000,0.0000,0.0000,1.0000,0.0000,0.0000,0.0000,0.0000,0.0000,0.0000,0.0000,0.0000,0.0000,0.0000,0.0000,0.0000,0.0000,0.0000,0.0000,0.0000,0.0000,0.0000,-0.1000,-0.1000,-0.1000,-0.1000,4
0,-1,0,-10.4862,-0.1670,0.0635,0.0310,0.0810,0.0210,1.1644,23.4375,23.4375,23.4375,23.4375,12.2307,0.0000,0.0000,0.0000,0.1221,-0.1578,-0.2997,-10.6336,0.0079,-0.0003,-0.0004,0.0000,0.0000,0.0000,0.0000,0.0000,0.0000,0.0000,0.0000,0.0000,0.0000,0.0000,0.0000,0.0000,0.0000,1.0000,0.0000,0.0000,0.0000,0.0000,0.0000,0.0000,0.0000,0.0000,0.0000,0.0000,0.0000,0.0000,0.0000,0.0000,0.0000,0.0000,0.0000,0.0000,-0.1000,-0.1000,-0.1000,-0.1000,4
0,-1,0,-10.4862,-0.1670,0.0635,0.0310,0.0810,0.0210,1.1644,23.4375,23.4375,23.4375,23.4375,12.2319,0.0000,-0.1831,-0.0610,-0.0610,-0.1578,-0.0384,-10.6408,0.0079,-0.0003,-0.0004,0.0000,0.0000,0.0000,0.0000,0.0000,0.0000,0.0000,0.0000,0.0000,0.0000,0.0000,0.0000,0.0000,0.0000,1.0000,0.0000,0.0000,0.0000,0.0000,0.0000,0.0000,0.0000,0.0000,0.0000,0.0000,0.0000,0.0000,0.0000,0.0000,0.0000,0.0000,0.0000,0.0000,-0.1000,-0.1000,-0.1000,-0.1000,4
0,-1,0,-10.4862,-0.1670,0.0635,0.0310,0.0810,0.0210,1.1644,23.4375,23.4375,23.4375,23.4375,12.2329,0.0000,-0.0610,-0.1831,0.2441,-0.1435,-0.3476,-10.5978,0.0079,-0.0004,-0.0004,0.0000,0.0000,0.0000,0.0000,0.0000,0.0000,0.0000,0.0000,0.0000,0.0000,0.0000,0.0000,0.0000,0.0000,1.0000,0.0000,0.0000,0.0000,0.0000,0.0000,0.0000,0.0000,0.0000,0.0000,0.0000,0.0000,0.0000,0.0000,0.0000,0.0000,0.0000,0.0000,0.0000,-0.1000,-0.1000,-0.1000,-0.1000,4
0,-1,0,-10.4862,-0.1670,0.0635,0.0310,0.0810,0.0210,1.1644,23.4375,23.4375,23.4375,23.4375,12.2324,0.0000,-0.1831,-0.0610,0.1831,-0.1626,-0.1175,-10.6288,0.0079,-0.0004,-0.0003,0.0000,0.0000,0.0000,0.0000,0.0000,0.0000,0.0000,0.0000,0.0000,0.0000,0.0000,0.0000,0.0000,0.0000,1.0000,0.0000,0.0000,0.0000,0.0000,0.0000,0.0000,0.0000,0.0000,0.0000,0.0000,0.0000,0.0000,0.0000,0.0000,0.0000,0.0000,0.0000,0.0000,-0.1000,-0.1000,-0.1000,-0.1000,4
0,-1,0,-10.4862,-0.1670,0.0635,0.0110,0.0610,0.0110,1.1644,23.4375,23.4375,23.4375,23.4375,12.2333,0.0000,-0.1831,-0.1221,0.2441,-0.1817,-0.2062,-10.6145,0.0079,-0.0004,-0.0003,0.0000,0.0000,0.0000,0.0000,0.0000,0.0000,0.0000,0.0000,0.0000,0.0000,0.0000,0.0000,0.0000,0.0000,1.0000,0.0000,0.0000,0.0000,0.0000,0.0000,0.0000,0.0000,0.0000,0.0000,0.0000,0.0000,0.0000,0.0000,0.0000,0.0000,0.0000,0.0000,0.0000,-0.1000,-0.1000,-0.1000,-0.1000,4
0,-1,0,-10.4862,-0.1670,0.0635,0.0110,0.0610,0.0110,1.1644,23.4375,23.4375,23.4375,23.4375,12.2345,0.0000,-0.0610,-0.1831,-0.1221,-0.1602,-0.1438,-10.6073,0.0079,-0.0004,-0.0003,0.0000,0.0000,0.0000,0.0000,0.0000,0.0000,0.0000,0.0000,0.0000,0.0000,0.0000,0.0000,0.0000,0.0000,1.0000,0.0000,0.0000,0.0000,0.0000,0.0000,0.0000,0.0000,0.0000,0.0000,0.0000,0.0000,0.0000,0.0000,0.0000,0.0000,0.0000,0.0000,0.0000,-0.1000,-0.1000,-0.1000,-0.1000,4
0,-1,0,-10.4862,-0.1670,0.0635,0.0110,0.0610,0.0110,1.1644,23.4375,23.4375,23.4375,23.4375,12.2360,0.0000,-0.2441,-0.0610,0.3052,-0.1602,-0.2877,-10.6622,0.0079,-0.0004,-0.0003,0.0000,0.0000,0.0000,0.0000,0.0000,0.0000,0.0000,0.0000,0.0000,0.0000,0.0000,0.0000,0.0000,0.0000,1.0000,0.0000,0.0000,0.0000,0.0000,0.0000,0.0000,0.0000,0.0000,0.0000,0.0000,0.0000,0.0000,0.0000,0.0000,0.0000,0.0000,0.0000,0.0000,-0.1000,-0.1000,-0.1000,-0.1000,4
0,-1,0,-10.4862,-0.1670,0.0635,0.0110,0.0610,0.0110,1.1644,23.4375,23.4375,23.4375,23.4375,12.2367,0.0000,-0.1831,-0.3052,-0.1831,-0.1865,-0.0815,-10.5787,0.0079,-0.0005,-0.0003,0.0000,0.0000,0.0000,0.0000,0.0000,0.0000,0.0000,0.0000,0.0000,0.0000,0.0000,0.0000,0.0000,0.0000,1.0000,0.0000,0.0000,0.0000,0.0000,0.0000,0.0000,0.0000,0.0000,0.0000,0.0000,0.0000,0.0000,0.0000,0.0000,0.0000,0.0000,0.0000,0.0000,-0.1000,-0.1000,-0.1000,-0.1000,4
0,-1,0,-10.4862,-0.1670,0.0635,0.0110,0.0610,0.0110,1.1644,23.4375,23.4375,23.4375,23.4375,12.2379,0.0000,-0.0610,-0.1831,0.2441,-0.1219,-0.3356,-10.6336,0.0079,-0.0005,-0.0003,0.0000,0.0000,0.0000,0.0000,0.0000,0.0000,0.0000,0.0000,0.0000,0.0000,0.0000,0.0000,0.0000,0.0000,1.0000,0.0000,0.0000,0.0000,0.0000,0.0000,0.0000,0.0000,0.0000,0.0000,0.0000,0.0000,0.0000,0.0000,0.0000,0.0000,0.0000,0.0000,0.0000,-0.1000,-0.1000,-0.1000,-0.1000,4
0,-1,0,-10.4862,-0.1670,0.0635,0.0110,0.0610,0.0110,1.1644,23.4375,23.4375,23.4375,23.4375,12.2382,0.0000,-0.0610,-0.2441,-0.2441,-0.1841,-0.0264,-10.6575,0.0079,-0.0005,-0.0004,0.0000,0.0000,0.0000,0.0000,0.0000,0.0000,0.0000,0.0000,0.0000,0.0000,0.0000,0.0000,0.0000,0.0000,1.0000,0.0000,0.0000,0.0000,0.0000,0.0000,0.0000,0.0000,0.0000,0.0000,0.0000,0.0000,0.0000,0.0000,0.0000,0.0000,0.0000,0.0000,0.0000,-0.1000,-0.1000,-0.1000,-0.1000,4
0,-1,0,-10.4862,-0.1670,0.0635,0.0110,0.0610,0.0110,1.1644,23.4375,23.4375,23.4375,23.4375,12.2394,0.0000,-0.0610,-0.2441,0.2441,-0.1889,-0.3428,-10.6336,0.0079,-0.0006,-0.0003,0.0000,0.0000,0.0000,0.0000,0.0000,0.0000,0.0000,0.0000,0.0000,0.0000,0.0000,0.0000,0.0000,0.0000,1.0000,0.0000,0.0000,0.0000,0.0000,0.0000,0.0000,0.0000,0.0000,0.0000,0.0000,0.0000,0.0000,0.0000,0.0000,0.0000,0.0000,0.0000,0.0000,-0.1000,-0.1000,-0.1000,-0.1000,4
0,-1,0,-10.4862,-0.1670,0.0635,0.0110,0.0610,0.0110,1.1644,23.4375,23.4375,23.4375,23.4375,12.2396,0.0000,-0.1831,-0.1221,-0.0610,-0.1339,-0.1390,-10.5715,0.0079,-0.0006,-0.0003,0.0000,0.0000,0.0000,0.0000,0.0000,0.0000,0.0000,0.0000,0.0000,0.0000,0.0000,0.0000,0.0000,0.0000,1.0000,0.0000,0.0000,0.0000,0.0000,0.0000,0.0000,0.0000,0.0000,0.0000,0.0000,0.0000,0.0000,0.0000,0.0000,0.0000,0.0000,0.0000,0.0000,-0.1000,-0.1000,-0.1000,-0.1000,4
0,-1,0,-10.4862,-0.1670,0.0635,0.0110,0.0610,0.0110,1.1644,23.4375,23.4375,23.4375,23.4375,12.2404,0.0000,-0.0610,-0.1221,-0.0000,-0.1626,-0.1846,-10.6431,0.0080,-0.0006,-0.0003,0.0000,0.0000,0.0000,0.0000,0.0000,0.0000,0.0000,0.0000,0.0000,0.0000,0.0000,0.0000,0.0000,0.0000,1.0000,0.0000,0.0000,0.0000,0.0000,0.0000,0.0000,0.0000,0.0000,0.0000,0.0000,0.0000,0.0000,0.0000,0.0000,0.0000,0.0000,0.0000,0.0000,-0.1000,-0.1000,-0.1000,-0.1000,4
0,-1,0,-10.4862,-0.1670,0.0635,0.0110,0.0610,0.0110,1.1644,23.4375,23.4375,23.4375,23.4375,12.2411,0.0000,-0.3052,-0.2441,0.1221,-0.1889,-0.1990,-10.5811,0.0079,-0.0006,-0.0003,0.0000,0.0000,0.0000,0.0000,0.0000,0.0000,0.0000,0.0000,0.0000,0.0000,0.0000,0.0000,0.0000,0.0000,1.0000,0.0000,0.0000,0.0000,0.0000,0.0000,0.0000,0.0000,0.0000,0.0000,0.0000,0.0000,0.0000,0.0000,0.0000,0.0000,0.0000,0.0000,0.0000,-0.1000,-0.1000,-0.1000,-0.1000,4
0,-1,0,-10.4862,-0.1670,0.0635,0.0110,0.0610,0.0110,1.1644,23.4375,23.4375,23.4375,23.4375,12.2423,0.0000,-0.1221,0.0000,-0.0000,-0.1195,-0.1486,-10.6288,0.0079,-0.0006,-0.0003,0.0000,0.0000,0.0000,0.0000,0.0000,0.0000,0.0000,0.0000,0.0000,0.0000,0.0000,0.0000,0.0000,0.0000,1.0000,0.0000,0.0000,0.0000,0.0000,0.0000,0.0000,0.0000,0.0000,0.0000,0.0000,0.0000,0.0000,0.0000,0.0000,0.0000,0.0000,0.0000,0.0000,-0.1000,-0.1000,-0.1000,-0.1000,4
0,-1,0,-10.4862,-0.1670,0.0635,0.0110,0.0610,0.0110,1.1644,23.4375,23.4375,23.4375,23.4375,12.2416,0.0000,-0.0610,-0.1221,-0.0000,-0.1698,-0.2277,-10.5859,0.0080,-0.0007,-0.0003,0.0000,0.0000,0.0000,0.0000,0.0000,0.0000,0.0000,0.0000,0.0000,0.0000,0.0000,0.0000,0.0000,0.0000,1.0000,0.0000,0.0000,0.0000,0.0000,0.0000,0.0000,0.0000,0.0000,0.0000,0.0000,0.0000,0.0000,0.0000,0.0000,0.0000,0.0000,0.0000,0.0000,-0.1000,-0.1000,-0.1000,-0.1000,4
0,-1,0,-10.4862,-0.1670,0.0635,0.0110,0.0610,0.0110,1.1644,23.4375,23.4375,23.4375,23.4375,12.2416,0.0000,0.0000,0.0000,-0.1831,-0.1458,-0.1582,-10.6742,0.0080,-0.0007,-0.0004,0.0000,0.0000,0.0000,0.0000,0.0000,0.0000,0.0000,0.0000,0.0000,0.0000,0.0000,0.0000,0.0000,0.0000,1.0000,0.0000,0.0000,0.0000,0.0000,0.0000,0.0000,0.0000,0.0000,0.0000,0.0000,0.0000,0.0000,0.0000,0.0000,0.0000,0.0000,0.0000,0.0000,-0.1000,-0.1000,-0.1000,-0.1000,4
0,-1,0,-10.5083,-0.1639,0.0294,0.0110,0.0610,0.0110,1.1644,23.4375,23.4375,23.4375,23.4375,12.2411,0.0000,0.0000,0.0000,-0.0000,-0.1937,-0.1870,-10.6240,0.0080,-0.0007,-0.0004,0.0000,0.0000,0.0000,0.0000,0.0000,0.0000,0.0000,0.0000,0.0000,0.0000,0.0000,0.0000,0.0000,0.0000,1.0000,0.0000,0.0000,0.0000,0.0000,0.0000,0.0000,0.0000,0.0000,0.0000,0.0000,0.0000,0.0000,0.0000,0.0000,0.0000,0.0000,0.0000,0.0000,-0.1000,-0.1000,-0.1000,-0.1000,4
0,-1,0,-10.5083,-0.1639,0.0294,0.0110,0.0610,0.0110,1.1644,23.4375,23.4375,23.4375,23.4375,12.2406,0.0000,0.0000,0.0000,-0.1221,-0.1961,-0.1414,-10.6121,0.0081,-0.0008,-0.0004,0.0000,0.0000,0.0000,0.0000,0.0000,0.0000,0.0000,0.0000,0.0000,0.0000,0.0000,0.0000,0.0000,0.0000,1.0000,0.0000,0.0000,0.0000,0.0000,0.0000,0.0000,0.0000,0.0000,0.0000,0.0000,0.0000,0.0000,0.0000,0.0000,0.0000,0.0000,0.0000,0.0000,-0.1000,-0.1000,-0.1000,-0.1000,4
0,-1,0,-10.5083,-0.1639,0.0294,0.0110,0.0610,0.0110,1.1644,23.4375,23.4375,23.4375,23.4375,12.2406,0.0000,-0.1221,-0.0610,-0.0000,-0.1578,-0.1918,-10.5906,0.0081,-0.0009,-0.0004,0.0000,0.0000,0.0000,0.0000,0.0000,0.0000,0.0000,0.0000,0.0000,0.0000,0.0000,0.0000,0.0000,0.0000,1.0000,0.0000,0.0000,0.0000,0.0000,0.0000,0.0000,0.0000,0.0000,0.0000,0.0000,0.0000,0.0000,0.0000,0.0000,0.0000,0.0000,0.0000,0.0000,-0.1000,-0.1000,-0.1000,-0.1000,4
0,-1,0,-10.5083,-0.1639,0.0294,0.0110,0.0610,0.0110,1.1644,23.4375,23.4375,23.4375,23.4375,12.2406,0.0000,0.0000,0.0000,-0.0000,-0.1626,-0.1798,-10.6121,0.0081,-0.0009,-0.0004,0.0000,0.0000,0.0000,0.0000,0.0000,0.0000,0.0000,0.0000,0.0000,0.0000,0.0000,0.0000,0.0000,0.0000,1.0000,0.0000,0.0000,0.0000,0.0000,0.0000,0.0000,0.0000,0.0000,0.0000,0.0000,0.0000,0.0000,0.0000,0.0000,0.0000,0.0000,0.0000,0.0000,-0.1000,-0.1000,-0.1000,-0.1000,4
0,-1,0,-10.5083,-0.1639,0.0294,0.0110,0.0610,0.0110,1.1644,23.4375,23.4375,23.4375,23.4375,12.2404,0.0000,-0.1831,-0.2441,-0.0000,-0.1435,-0.2253,-10.6073,0.0081,-0.0009,-0.0004,0.0000,0.0000,0.0000,0.0000,0.0000,0.0000,0.0000,0.0000,0.0000,0.0000,0.0000,0.0000,0.0000,0.0000,1.0000,0.0000,0.0000,0.0000,0.0000,0.0000,0.0000,0.0000,0.0000,0.0000,0.0000,0.0000,0.0000,0.0000,0.0000,0.0000,0.0000,0.0000,0.0000,-0.1000,-0.1000,-0.1000,-0.1000,4
0,-1,0,-10.5083,-0.1639,0.0294,0.0110,0.0610,0.0110,1.1644,23.4375,23.4375,23.4375,23.4375,12.2406,0.0000,0.0000,-0.2441,0.1831,-0.2056,-0.2038,-10.6336,0.0082,-0.0009,-0.0004,0.0000,0.0000,0.0000,0.0000,0.0000,0.0000,0.0000,0.0000,0.0000,0.0000,0.0000,0.0000,0.0000,0.0000,1.0000,0.0000,0.0000,0.0000,0.0000,0.0000,0.0000,0.0000,0.0000,0.0000,0.0000,0.0000,0.0000,0.0000,0.0000,0.0000,0.0000,0.0000,0.0000,-0.1000,-0.1000,-0.1000,-0.1000,4
0,-1,0,-10.5083,-0.1639,0.0294,0.0110,0.0610,0.0110,1.1644,23.4375,23.4375,23.4375,23.4375,12.2423,0.0000,0.0000,0.0000,-0.0000,-0.1458,-0.1990,-10.6169,0.0082,-0.0010,-0.0004,0.0000,0.0000,0.0000,0.0000,0.0000,0.0000,0.0000,0.0000,0.0000,0.0000,0.0000,0.0000,0.0000,0.0000,1.0000,0.0000,0.0000,0.0000,0.0000,0.0000,0.0000,0.0000,0.0000,0.0000,0.0000,0.0000,0.0000,0.0000,0.0000,0.0000,0.0000,0.0000,0.0000,-0.1000,-0.1000,-0.1000,-0.1000,4
0,-1,0,-10.5083,-0.1639,0.0294,0.0110,0.0610,0.0110,1.1644,23.4375,23.4375,23.4375,23.4375,12.2423,0.0000,0.0000,0.0000,-0.0000,-0.1769,-0.1726,-10.6646,0.0082,-0.0010,-0.0004,0.0000,0.0000,0.0000,0.0000,0.0000,0.0000,0.0000,0.0000,0.0000,0.0000,0.0000,0.0000,0.0000,0.0000,1.0000,0.0000,0.0000,0.0000,0.0000,0.0000,0.0000,0.0000,0.0000,0.0000,0.0000,0.0000,0.0000,0.0000,0.0000,0.0000,0.0000,0.0000,0.0000,-0.1000,-0.1000,-0.1000,-0.1000,4
0,-1,0,-10.5083,-0.1639,0.0294,0.0210,0.0610,0.0110,1.1644,23.4375,23.4375,23.4375,23.4375,12.2428,0.0000,-0.0610,-0.3662,-0.0000,-0.1650,-0.2277,-10.6073,0.0082,-0.0010,-0.0004,0.0000,0.0000,0.0000,0.0000,0.0000,0.0000,0.0000,0.0000,0.0000,0.0000,0.0000,0.0000,0.0000,0.0000,1.0000,0.0000,0.0000,0.0000,0.0000,0.0000,0.0000,0.0000,0.0000,0.0000,0.0000,0.0000,0.0000,0.0000,0.0000,0.0000,0.0000,0.0000,0.0000,-0.1000,-0.1000,-0.1000,-0.1000,4
0,-1,0,-10.5108,-0.1562,0.0535,0.0210,0.0610,0.0110,1.1644,23.4375,23.4375,23.4375,23.4375,12.2425,0.0000,0.0000,0.0000,-0.0000,-0.1937,-0.1918,-10.6789,0.0082,-0.0010,-0.0004,0.0000,0.0000,0.0000,0.0000,0.0000,0.0000,0.0000,0.0000,0.0000,0.0000,0.0000,0.0000,0.0000,0.0000,1.0000,0.0000,0.0000,0.0000,0.0000,0.0000,0.0000,0.0000,0.0000,0.0000,0.0000,0.0000,0.0000,0.0000,0.0000,0.0000,0.0000,0.0000,0.0000,-0.1000,-0.1000,-0.1000,-0.1000,4
0,-1,0,-10.5108,-0.1562,0.0535,0.0210,0.0610,0.0110,1.1644,23.4375,23.4375,23.4375,23.4375,12.2425,0.0000,-0.2441,-0.1831,-0.0000,-0.1411,-0.1774,-10.6431,0.0082,-0.0011,-0.0004,0.0000,0.0000,0.0000,0.0000,0.0000,0.0000,0.0000,0.0000,0.0000,0.0000,0.0000,0.0000,0.0000,0.0000,1.0000,0.0000,0.0000,0.0000,0.0000,0.0000,0.0000,0.0000,0.0000,0.0000,0.0000,0.0000,0.0000,0.0000,0.0000,0.0000,0.0000,0.0000,0.0000,-0.1000,-0.1000,-0.1000,-0.1000,4
0,-1,0,-10.5108,-0.1562,0.0535,0.0210,0.0610,0.0110,1.1644,23.4375,23.4375,23.4375,23.4375,12.2423,0.0000,-0.0610,-0.1831,-0.0000,-0.1482,-0.1702,-10.6455,0.0083,-0.0013,-0.0004,0.0000,0.0000,0.0000,0.0000,0.0000,0.0000,0.0000,0.0000,0.0000,0.0000,0.0000,0.0000,0.0000,0.0000,1.0000,0.0000,0.0000,0.0000,0.0000,0.0000,0.0000,0.0000,0.0000,0.0000,0.0000,0.0000,0.0000,0.0000,0.0000,0.0000,0.0000,0.0000,0.0000,-0.1000,-0.1000,-0.1000,-0.1000,4
0,-1,0,-10.5108,-0.1562,0.0535,0.0210,0.0610,0.0110,1.1644,23.4375,23.4375,23.4375,23.4375,12.2430,0.0000,0.0000,0.0610,-0.0610,-0.1363,-0.1870,-10.6503,0.0083,-0.0013,-0.0004,0.0000,0.0000,0.0000,0.0000,0.0000,0.0000,0.0000,0.0000,0.0000,0.0000,0.0000,0.0000,0.0000,0.0000,1.0000,0.0000,0.0000,0.0000,0.0000,0.0000,0.0000,0.0000,0.0000,0.0000,0.0000,0.0000,0.0000,0.0000,0.0000,0.0000,0.0000,0.0000,0.0000,-0.1000,-0.1000,-0.1000,-0.1000,4
0,-1,0,-10.5108,-0.1562,0.0535,0.0210,0.0610,0.0110,1.1644,23.4375,23.4375,23.4375,23.4375,12.2428,0.0000,-0.2441,-0.1831,-0.0000,-0.1817,-0.1726,-10.5954,0.0083,-0.0013,-0.0004,0.0000,0.0000,0.0000,0.0000,0.0000,0.0000,0.0000,0.0000,0.0000,0.0000,0.0000,0.0000,0.0000,0.0000,1.0000,0.0000,0.0000,0.0000,0.0000,0.0000,0.0000,0.0000,0.0000,0.0000,0.0000,0.0000,0.0000,0.0000,0.0000,0.0000,0.0000,0.0000,0.0000,-0.1000,-0.1000,-0.1000,-0.1000,4
0,-1,0,-10.5108,-0.1562,0.0535,0.0210,0.0610,0.0110,1.1644,23.4375,23.4375,23.4375,23.4375,12.2425,0.0000,-0.1221,-0.0610,-0.0610,-0.1721,-0.1774,-10.5954,0.0083,-0.0013,-0.0004,0.0000,0.0000,0.0000,0.0000,0.0000,0.0000,0.0000,0.0000,0.0000,0.0000,0.0000,0.0000,0.0000,0.0000,1.0000,0.0000,0.0000,0.0000,0.0000,0.0000,0.0000,0.0000,0.0000,0.0000,0.0000,0.0000,0.0000,0.0000,0.0000,0.0000,0.0000,0.0000,0.0000,-0.1000,-0.1000,-0.1000,-0.1000,4
0,-1,0,-10.5108,-0.1562,0.0535,0.0210,0.0610,0.0110,1.1644,23.4375,23.4375,23.4375,23.4375,12.2430,0.0000,-0.1221,-0.0610,-0.0000,-0.1650,-0.1798,-10.5501,0.0083,-0.0013,-0.0004,0.0000,0.0000,0.0000,0.0000,0.0000,0.0000,0.0000,0.0000,0.0000,0.0000,0.0000,0.0000,0.0000,0.0000,1.0000,0.0000,0.0000,0.0000,0.0000,0.0000,0.0000,0.0000,0.0000,0.0000,0.0000,0.0000,0.0000,0.0000,0.0000,0.0000,0.0000,0.0000,0.0000,-0.1000,-0.1000,-0.1000,-0.1000,4
0,-1,0,-10.5108,-0.1562,0.0535,0.0210,0.0610,0.0110,1.1644,23.4375,23.4375,23.4375,23.4375,12.2425,0.0000,-0.0610,-0.1831,0.1831,-0.1458,-0.1726,-10.6431,0.0083,-0.0013,-0.0004,0.0000,0.0000,0.0000,0.0000,0.0000,0.0000,0.0000,0.0000,0.0000,0.0000,0.0000,0.0000,0.0000,0.0000,1.0000,0.0000,0.0000,0.0000,0.0000,0.0000,0.0000,0.0000,0.0000,0.0000,0.0000,0.0000,0.0000,0.0000,0.0000,0.0000,0.0000,0.0000,0.0000,-0.1000,-0.1000,-0.1000,-0.1000,4
0,-1,0,-10.5108,-0.1562,0.0535,0.0210,0.0610,0.0110,1.1644,23.4375,23.4375,23.4375,23.4375,12.2428,0.0000,-0.1831,-0.1831,-0.0000,-0.1626,-0.1966,-10.6479,0.0083,-0.0014,-0.0004,0.0000,0.0000,0.0000,0.0000,0.0000,0.0000,0.0000,0.0000,0.0000,0.0000,0.0000,0.0000,0.0000,0.0000,1.0000,0.0000,0.0000,0.0000,0.0000,0.0000,0.0000,0.0000,0.0000,0.0000,0.0000,0.0000,0.0000,0.0000,0.0000,0.0000,0.0000,0.0000,0.0000,-0.1000,-0.1000,-0.1000,-0.1000,4
0,-1,0,-10.5108,-0.1562,0.0535,0.0210,0.0610,0.0110,1.1644,23.4375,23.4375,23.4375,23.4375,12.2433,0.0000,-0.2441,-0.0610,0.1221,-0.1937,-0.1798,-10.6789,0.0083,-0.0014,-0.0004,0.0000,0.0000,0.0000,0.0000,0.0000,0.0000,0.0000,0.0000,0.0000,0.0000,0.0000,0.0000,0.0000,0.0000,1.0000,0.0000,0.0000,0.0000,0.0000,0.0000,0.0000,0.0000,0.0000,0.0000,0.0000,0.0000,0.0000,0.0000,0.0000,0.0000,0.0000,0.0000,0.0000,-0.1000,-0.1000,-0.1000,-0.1000,4
0,-1,0,-10.5108,-0.1562,0.0535,0.0210,0.0610,0.0110,1.1644,23.4375,23.4375,23.4375,23.4375,12.2437,0.0000,-0.2441,-0.0610,-0.0000,-0.1698,-0.1846,-10.5882,0.0083,-0.0014,-0.0004,0.0000,0.0000,0.0000,0.0000,0.0000,0.0000,0.0000,0.0000,0.0000,0.0000,0.0000,0.0000,0.0000,0.0000,1.0000,0.0000,0.0000,0.0000,0.0000,0.0000,0.0000,0.0000,0.0000,0.0000,0.0000,0.0000,0.0000,0.0000,0.0000,0.0000,0.0000,0.0000,0.0000,-0.1000,-0.1000,-0.1000,-0.1000,4
0,-1,0,-10.5108,-0.1562,0.0535,0.0210,0.0610,0.0110,1.1644,23.4375,23.4375,23.4375,23.4375,12.2430,0.0000,-0.1221,-0.0610,-0.0610,-0.1482,-0.1894,-10.6121,0.0083,-0.0014,-0.0004,0.0000,0.0000,0.0000,0.0000,0.0000,0.0000,0.0000,0.0000,0.0000,0.0000,0.0000,0.0000,0.0000,0.0000,1.0000,0.0000,0.0000,0.0000,0.0000,0.0000,0.0000,0.0000,0.0000,0.0000,0.0000,0.0000,0.0000,0.0000,0.0000,0.0000,0.0000,0.0000,0.0000,-0.1000,-0.1000,-0.1000,-0.1000,4
0,-1,0,-10.5108,-0.1562,0.0535,0.0210,0.0610,0.0110,1.1644,23.4375,23.4375,23.4375,23.4375,12.2428,0.0000,0.0000,0.0000,-0.0000,-0.1506,-0.1942,-10.6026,0.0083,-0.0014,-0.0004,0.0000,0.0000,0.0000,0.0000,0.0000,0.0000,0.0000,0.0000,0.0000,0.0000,0.0000,0.0000,0.0000,0.0000,1.0000,0.0000,0.0000,0.0000,0.0000,0.0000,0.0000,0.0000,0.0000,0.0000,0.0000,0.0000,0.0000,0.0000,0.0000,0.0000,0.0000,0.0000,0.0000,-0.1000,-0.1000,-0.1000,-0.1000,4
0,-1,0,-10.5108,-0.1562,0.0535,0.0210,0.0610,0.0110,1.1644,23.4375,23.4375,23.4375,23.4375,12.2411,0.0000,-0.1831,-0.1831,-0.0000,-0.1769,-0.1990,-10.5787,0.0083,-0.0014,-0.0004,0.0000,0.0000,0.0000,0.0000,0.0000,0.0000,0.0000,0.0000,0.0000,0.0000,0.0000,0.0000,0.0000,0.0000,1.0000,0.0000,0.0000,0.0000,0.0000,0.0000,0.0000,0.0000,0.0000,0.0000,0.0000,0.0000,0.0000,0.0000,0.0000,0.0000,0.0000,0.0000,0.0000,-0.1000,-0.1000,-0.1000,-0.1000,4
0,-1,0,-10.5108,-0.1562,0.0535,0.0210,0.0610,0.0110,1.1644,23.4375,23.4375,23.4375,23.4375,12.2401,0.0000,-0.2441,-0.1221,-0.0000,-0.1411,-0.1942,-10.6384,0.0083,-0.0015,-0.0004,0.0000,0.0000,0.0000,0.0000,0.0000,0.0000,0.0000,0.0000,0.0000,0.0000,0.0000,0.0000,0.0000,0.0000,1.0000,0.0000,0.0000,0.0000,0.0000,0.0000,0.0000,0.0000,0.0000,0.0000,0.0000,0.0000,0.0000,0.0000,0.0000,0.0000,0.0000,0.0000,0.0000,-0.1000,-0.1000,-0.1000,-0.1000,4
0,-1,0,-10.5108,-0.1562,0.0535,0.0210,0.0610,0.0110,1.1644,23.4375,23.4375,23.4375,23.4375,12.2391,0.0000,0.0000,-0.1221,-0.0000,-0.1745,-0.1894,-10.6169,0.0084,-0.0015,-0.0004,0.0000,0.0000,0.0000,0.0000,0.0000,0.0000,0.0000,0.0000,0.0000,0.0000,0.0000,0.0000,0.0000,0.0000,1.0000,0.0000,0.0000,0.0000,0.0000,0.0000,0.0000,0.0000,0.0000,0.0000,0.0000,0.0000,0.0000,0.0000,0.0000,0.0000,0.0000,0.0000,0.0000,-0.1000,-0.1000,-0.1000,-0.1000,4
0,-1,0,-10.5108,-0.1562,0.0535,-0.0090,0.0410,0.0010,1.1644,23.4375,23.4375,23.4375,23.4375,12.2379,0.0000,0.0000,0.0000,0.1221,-0.1698,-0.1942,-10.6384,0.0084,-0.0015,-0.0004,0.0000,0.0000,0.0000,0.0000,0.0000,0.0000,0.0000,0.0000,0.0000,0.0000,0.0000,0.0000,0.0000,0.0000,1.0000,0.0000,0.0000,0.0000,0.0000,0.0000,0.0000,0.0000,0.0000,0.0000,0.0000,0.0000,0.0000,0.0000,0.0000,0.0000,0.0000,0.0000,0.0000,-0.1000,-0.1000,-0.1000,-0.1000,4
0,-1,0,-10.5108,-0.1562,0.0535,-0.0090,0.0410,0.0010,1.1644,23.4375,23.4375,23.4375,23.4375,12.2365,0.0000,-0.0610,-0.1831,-0.0000,-0.1650,-0.1990,-10.6408,0.0084,-0.0015,-0.0004,0.0000,0.0000,0.0000,0.0000,0.0000,0.0000,0.0000,0.0000,0.0000,0.0000,0.0000,0.0000,0.0000,0.0000,1.0000,0.0000,0.0000,0.0000,0.0000,0.0000,0.0000,0.0000,0.0000,0.0000,0.0000,0.0000,0.0000,0.0000,0.0000,0.0000,0.0000,0.0000,0.0000,-0.1000,-0.1000,-0.1000,-0.1000,4
0,-1,0,-10.5640,-0.1282,-0.0281,-0.0090,0.0410,0.0010,1.1644,23.4375,23.4375,23.4375,23.4375,12.2355,0.0000,-0.1831,-0.1221,-0.0000,-0.1793,-0.1630,-10.5954,0.0084,-0.0015,-0.0004,0.0000,0.0000,0.0000,0.0000,0.0000,0.0000,0.0000,0.0000,0.0000,0.0000,0.0000,0.0000,0.0000,0.0000,1.0000,0.0000,0.0000,0.0000,0.0000,0.0000,0.0000,0.0000,0.0000,0.0000,0.0000,0.0000,0.0000,0.0000,0.0000,0.0000,0.0000,0.0000,0.0000,-0.1000,-0.1000,-0.1000,-0.1000,4
0,-1,0,-10.5640,-0.1282,-0.0281,-0.0090,0.0410,0.0010,1.1644,23.4375,23.4375,23.4375,23.4375,12.2341,0.0000,-0.1221,-0.0610,-0.0610,-0.1554,-0.1918,-10.6431,0.0084,-0.0016,-0.0004,0.0000,0.0000,0.0000,0.0000,0.0000,0.0000,0.0000,0.0000,0.0000,0.0000,0.0000,0.0000,0.0000,0.0000,1.0000,0.0000,0.0000,0.0000,0.0000,0.0000,0.0000,0.0000,0.0000,0.0000,0.0000,0.0000,0.0000,0.0000,0.0000,0.0000,0.0000,0.0000,0.0000,-0.1000,-0.1000,-0.1000,-0.1000,4
0,-1,0,-10.5640,-0.1282,-0.0281,-0.0090,0.0410,0.0010,1.1644,23.4375,23.4375,23.4375,23.4375,12.2331,0.0000,-0.1831,-0.1221,-0.0000,-0.1721,-0.2134,-10.6169,0.0084,-0.0016,-0.0004,0.0000,0.0000,0.0000,0.0000,0.0000,0.0000,0.0000,0.0000,0.0000,0.0000,0.0000,0.0000,0.0000,0.0000,1.0000,0.0000,0.0000,0.0000,0.0000,0.0000,0.0000,0.0000,0.0000,0.0000,0.0000,0.0000,0.0000,0.0000,0.0000,0.0000,0.0000,0.0000,0.0000,-0.1000,-0.1000,-0.1000,-0.1000,4
0,-1,0,-10.5640,-0.1282,-0.0281,-0.0090,0.0410,0.0010,1.1644,23.4375,23.4375,23.4375,23.4375,12.2319,0.0000,-0.2441,-0.1831,-0.0000,-0.1913,-0.1870,-10.6718,0.0084,-0.0016,-0.0004,0.0000,0.0000,0.0000,0.0000,0.0000,0.0000,0.0000,0.0000,0.0000,0.0000,0.0000,0.0000,0.0000,0.0000,1.0000,0.0000,0.0000,0.0000,0.0000,0.0000,0.0000,0.0000,0.0000,0.0000,0.0000,0.0000,0.0000,0.0000,0.0000,0.0000,0.0000,0.0000,0.0000,-0.1000,-0.1000,-0.1000,-0.1000,4
0,-1,0,-10.5640,-0.1282,-0.0281,-0.0090,0.0410,0.0010,1.1644,23.4375,23.4375,23.4375,23.4375,12.2309,0.0000,-0.0610,-0.1221,-0.0000,-0.1841,-0.1846,-10.6837,0.0084,-0.0017,-0.0005,0.0000,0.0000,0.0000,0.0000,0.0000,0.0000,0.0000,0.0000,0.0000,0.0000,0.0000,0.0000,0.0000,0.0000,1.0000,0.0000,0.0000,0.0000,0.0000,0.0000,0.0000,0.0000,0.0000,0.0000,0.0000,0.0000,0.0000,0.0000,0.0000,0.0000,0.0000,0.0000,0.0000,-0.1000,-0.1000,-0.1000,-0.1000,4
0,-1,0,-10.5640,-0.1282,-0.0281,-0.0090,0.0410,0.0010,1.1644,23.4375,23.4375,23.4375,23.4375,12.2285,0.0000,0.0000,0.0000,-0.0000,-0.1530,-0.1822,-10.7195,0.0084,-0.0017,-0.0005,0.0000,0.0000,0.0000,0.0000,0.0000,0.0000,0.0000,0.0000,0.0000,0.0000,0.0000,0.0000,0.0000,0.0000,1.0000,0.0000,0.0000,0.0000,0.0000,0.0000,0.0000,0.0000,0.0000,0.0000,0.0000,0.0000,0.0000,0.0000,0.0000,0.0000,0.0000,0.0000,0.0000,-0.1000,-0.1000,-0.1000,-0.1000,4
0,-1,0,-10.5640,-0.1282,-0.0281,-0.0090,0.0410,0.0010,1.1644,23.4375,23.4375,23.4375,23.4375,12.2273,0.0000,-0.0610,-0.1221,-0.0000,-0.1769,-0.1630,-10.6312,0.0085,-0.0018,-0.0005,0.0000,0.0000,0.0000,0.0000,0.0000,0.0000,0.0000,0.0000,0.0000,0.0000,0.0000,0.0000,0.0000,0.0000,1.0000,0.0000,0.0000,0.0000,0.0000,0.0000,0.0000,0.0000,0.0000,0.0000,0.0000,0.0000,0.0000,0.0000,0.0000,0.0000,0.0000,0.0000,0.0000,-0.1000,-0.1000,-0.1000,-0.1000,4
0,-1,0,-10.5640,-0.1282,-0.0281,-0.0090,0.0410,0.0010,1.1644,23.4375,23.4375,23.4375,23.4375,12.2263,0.0000,-0.1831,-0.0610,-0.0000,-0.1482,-0.1774,-10.6002,0.0085,-0.0018,-0.0005,0.0000,0.0000,0.0000,0.0000,0.0000,0.0000,0.0000,0.0000,0.0000,0.0000,0.0000,0.0000,0.0000,0.0000,1.0000,0.0000,0.0000,0.0000,0.0000,0.0000,0.0000,0.0000,0.0000,0.0000,0.0000,0.0000,0.0000,0.0000,0.0000,0.0000,0.0000,0.0000,0.0000,-0.1000,-0.1000,-0.1000,-0.1000,4
0,-1,0,-10.5640,-0.1282,-0.0281,-0.0090,0.0410,0.0010,1.1644,23.4375,23.4375,23.4375,23.4375,12.2251,0.0000,-0.1221,-0.0610,-0.0610,-0.1769,-0.1582,-10.6360,0.0085,-0.0018,-0.0005,0.0000,0.0000,0.0000,0.0000,0.0000,0.0000,0.0000,0.0000,0.0000,0.0000,0.0000,0.0000,0.0000,0.0000,1.0000,0.0000,0.0000,0.0000,0.0000,0.0000,0.0000,0.0000,0.0000,0.0000,0.0000,0.0000,0.0000,0.0000,0.0000,0.0000,0.0000,0.0000,0.0000,-0.1000,-0.1000,-0.1000,-0.1000,4
0,-1,0,-10.5640,-0.1282,-0.0281,-0.0090,0.0410,0.0010,1.1644,23.4375,23.4375,23.4375,23.4375,12.2239,0.0000,-0.0610,-0.1221,-0.0000,-0.1961,-0.1702,-10.5930,0.0085,-0.0018,-0.0005,0.0000,0.0000,0.0000,0.0000,0.0000,0.0000,0.0000,0.0000,0.0000,0.0000,0.0000,0.0000,0.0000,0.0000,1.0000,0.0000,0.0000,0.0000,0.0000,0.0000,0.0000,0.0000,0.0000,0.0000,0.0000,0.0000,0.0000,0.0000,0.0000,0.0000,0.0000,0.0000,0.0000,-0.1000,-0.1000,-0.1000,-0.1000,4
0,-1,0,-10.5640,-0.1282,-0.0281,-0.0090,0.0410,0.0010,1.1644,23.4375,23.4375,23.4375,23.4375,12.2225,0.0000,-0.1831,-0.0610,-0.0000,-0.1602,-0.2062,-10.6264,0.0085,-0.0018,-0.0005,0.0000,0.0000,0.0000,0.0000,0.0000,0.0000,0.0000,0.0000,0.0000,0.0000,0.0000,0.0000,0.0000,0.0000,1.0000,0.0000,0.0000,0.0000,0.0000,0.0000,0.0000,0.0000,0.0000,0.0000,0.0000,0.0000,0.0000,0.0000,0.0000,0.0000,0.0000,0.0000,0.0000,-0.1000,-0.1000,-0.1000,-0.1000,4
0,-1,0,-10.5640,-0.1282,-0.0281,-0.0090,0.0410,0.0010,1.1644,23.4375,23.4375,23.4375,23.4375,12.2213,0.0000,-0.1221,-0.0610,-0.0000,-0.1411,-0.1942,-10.5286,0.0085,-0.0018,-0.0005,0.0000,0.0000,0.0000,0.0000,0.0000,0.0000,0.0000,0.0000,0.0000,0.0000,0.0000,0.0000,0.0000,0.0000,1.0000,0.0000,0.0000,0.0000,0.0000,0.0000,0.0000,0.0000,0.0000,0.0000,0.0000,0.0000,0.0000,0.0000,0.0000,0.0000,0.0000,0.0000,0.0000,-0.1000,-0.1000,-0.1000,-0.1000,4
0,-1,0,-10.5640,-0.1282,-0.0281,-0.0090,0.0410,0.0010,1.1644,23.4375,23.4375,23.4375,23.4375,12.2196,0.0000,-0.0610,-0.1221,0.1831,-0.1889,-0.1846,-10.6503,0.0085,-0.0019,-0.0005,0.0000,0.0000,0.0000,0.0000,0.0000,0.0000,0.0000,0.0000,0.0000,0.0000,0.0000,0.0000,0.0000,0.0000,1.0000,0.0000,0.0000,0.0000,0.0000,0.0000,0.0000,0.0000,0.0000,0.0000,0.0000,0.0000,0.0000,0.0000,0.0000,0.0000,0.0000,0.0000,0.0000,-0.1000,-0.1000,-0.1000,-0.1000,4
0,-1,0,-10.5640,-0.1282,-0.0281,-0.0090,0.0410,0.0010,1.1644,23.4375,23.4375,23.4375,23.4375,12.2193,0.0000,-0.0610,-0.1221,-0.0000,-0.1865,-0.2062,-10.6240,0.0085,-0.0019,-0.0005,0.0000,0.0000,0.0000,0.0000,0.0000,0.0000,0.0000,0.0000,0.0000,0.0000,0.0000,0.0000,0.0000,0.0000,1.0000,0.0000,0.0000,0.0000,0.0000,0.0000,0.0000,0.0000,0.0000,0.0000,0.0000,0.0000,0.0000,0.0000,0.0000,0.0000,0.0000,0.0000,0.0000,-0.1000,-0.1000,-0.1000,-0.1000,4
0,-1,0,-10.5640,-0.1282,-0.0281,-0.0090,0.0410,0.0010,1.1644,23.4375,23.4375,23.4375,23.4375,12.2188,0.0000,-0.2441,-0.1831,0.1221,-0.1482,-0.1870,-10.5357,0.0085,-0.0019,-0.0005,0.0000,0.0000,0.0000,0.0000,0.0000,0.0000,0.0000,0.0000,0.0000,0.0000,0.0000,0.0000,0.0000,0.0000,1.0000,0.0000,0.0000,0.0000,0.0000,0.0000,0.0000,0.0000,0.0000,0.0000,0.0000,0.0000,0.0000,0.0000,0.0000,0.0000,0.0000,0.0000,0.0000,-0.1000,-0.1000,-0.1000,-0.1000,4
0,-1,0,-10.5640,-0.1282,-0.0281,-0.0090,0.0410,0.0010,1.1644,23.4375,23.4375,23.4375,23.4375,12.2191,0.0000,0.0000,0.0000,-0.0000,-0.1721,-0.1822,-10.6622,0.0085,-0.0019,-0.0005,0.0000,0.0000,0.0000,0.0000,0.0000,0.0000,0.0000,0.0000,0.0000,0.0000,0.0000,0.0000,0.0000,0.0000,1.0000,0.0000,0.0000,0.0000,0.0000,0.0000,0.0000,0.0000,0.0000,0.0000,0.0000,0.0000,0.0000,0.0000,0.0000,0.0000,0.0000,0.0000,0.0000,-0.1000,-0.1000,-0.1000,-0.1000,4
0,-1,0,-10.5640,-0.1282,-0.0281,-0.0090,0.0410,0.0010,1.1644,23.4375,23.4375,23.4375,23.4375,12.2186,0.0000,0.0000,0.0000,0.1831,-0.1817,-0.1750,-10.6121,0.0085,-0.0019,-0.0005,0.0000,0.0000,0.0000,0.0000,0.0000,0.0000,0.0000,0.0000,0.0000,0.0000,0.0000,0.0000,0.0000,0.0000,1.0000,0.0000,0.0000,0.0000,0.0000,0.0000,0.0000,0.0000,0.0000,0.0000,0.0000,0.0000,0.0000,0.0000,0.0000,0.0000,0.0000,0.0000,0.0000,-0.1000,-0.1000,-0.1000,-0.1000,4
0,-1,0,-10.5640,-0.1282,-0.0281,-0.0090,0.0410,0.0010,1.1644,23.4375,23.4375,23.4375,23.4375,12.2186,0.0000,-0.0610,-0.2441,0.1831,-0.1578,-0.1606,-10.6575,0.0085,-0.0020,-0.0004,0.0000,0.0000,0.0000,0.0000,0.0000,0.0000,0.0000,0.0000,0.0000,0.0000,0.0000,0.0000,0.0000,0.0000,1.0000,0.0000,0.0000,0.0000,0.0000,0.0000,0.0000,0.0000,0.0000,0.0000,0.0000,0.0000,0.0000,0.0000,0.0000,0.0000,0.0000,0.0000,0.0000,-0.1000,-0.1000,-0.1000,-0.1000,4
0,-1,0,-10.5640,-0.1282,-0.0281,-0.0090,0.0410,0.0010,1.1644,23.4375,23.4375,23.4375,23.4375,12.2186,0.0000,-0.0610,-0.1831,0.1831,-0.1052,-0.1918,-10.6217,0.0085,-0.0020,-0.0004,0.0000,0.0000,0.0000,0.0000,0.0000,0.0000,0.0000,0.0000,0.0000,0.0000,0.0000,0.0000,0.0000,0.0000,1.0000,0.0000,0.0000,0.0000,0.0000,0.0000,0.0000,0.0000,0.0000,0.0000,0.0000,0.0000,0.0000,0.0000,0.0000,0.0000,0.0000,0.0000,0.0000,-0.1000,-0.1000,-0.1000,-0.1000,4
0,-1,0,-10.5640,-0.1282,-0.0281,-0.0090,0.0410,0.0010,1.1644,23.4375,23.4375,23.4375,23.4375,12.2193,0.0000,-0.1831,-0.1221,0.1221,-0.1482,-0.1798,-10.6479,0.0085,-0.0020,-0.0004,0.0000,0.0000,0.0000,0.0000,0.0000,0.0000,0.0000,0.0000,0.0000,0.0000,0.0000,0.0000,0.0000,0.0000,1.0000,0.0000,0.0000,0.0000,0.0000,0.0000,0.0000,0.0000,0.0000,0.0000,0.0000,0.0000,0.0000,0.0000,0.0000,0.0000,0.0000,0.0000,0.0000,-0.1000,-0.1000,-0.1000,-0.1000,4
0,-1,0,-10.5640,-0.1282,-0.0281,-0.0090,0.0410,0.0010,1.1644,23.4375,23.4375,23.4375,23.4375,12.2198,0.0000,-0.2441,-0.1221,-0.0000,-0.1602,-0.1654,-10.6455,0.0085,-0.0020,-0.0004,0.0000,0.0000,0.0000,0.0000,0.0000,0.0000,0.0000,0.0000,0.0000,0.0000,0.0000,0.0000,0.0000,0.0000,1.0000,0.0000,0.0000,0.0000,0.0000,0.0000,0.0000,0.0000,0.0000,0.0000,0.0000,0.0000,0.0000,0.0000,0.0000,0.0000,0.0000,0.0000,0.0000,-0.1000,-0.1000,-0.1000,-0.1000,4
0,-1,0,-10.5640,-0.1282,-0.0281,-0.0090,0.0410,0.0010,1.1644,23.4375,23.4375,23.4375,23.4375,12.2200,0.0000,-0.0610,-0.1831,-0.0000,-0.1482,-0.1654,-10.5954,0.0086,-0.0020,-0.0004,0.0000,0.0000,0.0000,0.0000,0.0000,0.0000,0.0000,0.0000,0.0000,0.0000,0.0000,0.0000,0.0000,0.0000,1.0000,0.0000,0.0000,0.0000,0.0000,0.0000,0.0000,0.0000,0.0000,0.0000,0.0000,0.0000,0.0000,0.0000,0.0000,0.0000,0.0000,0.0000,0.0000,-0.1000,-0.1000,-0.1000,-0.1000,4
0,-1,0,-10.5640,-0.1282,-0.0281,-0.0090,0.0410,0.0010,1.1644,23.4375,23.4375,23.4375,23.4375,12.2198,0.0000,-0.1831,-0.1221,-0.0000,-0.1793,-0.1726,-10.5572,0.0086,-0.0021,-0.0004,0.0000,0.0000,0.0000,0.0000,0.0000,0.0000,0.0000,0.0000,0.0000,0.0000,0.0000,0.0000,0.0000,0.0000,1.0000,0.0000,0.0000,0.0000,0.0000,0.0000,0.0000,0.0000,0.0000,0.0000,0.0000,0.0000,0.0000,0.0000,0.0000,0.0000,0.0000,0.0000,0.0000,-0.1000,-0.1000,-0.1000,-0.1000,4
0,-1,0,-10.5640,-0.1282,-0.0281,-0.0090,0.0410,0.0010,1.1644,23.4375,23.4375,23.4375,23.4375,12.2200,0.0000,-0.1831,-0.2441,0.2441,-0.1721,-0.1870,-10.6384,0.0086,-0.0021,-0.0004,0.0000,0.0000,0.0000,0.0000,0.0000,0.0000,0.0000,0.0000,0.0000,0.0000,0.0000,0.0000,0.0000,0.0000,1.0000,0.0000,0.0000,0.0000,0.0000,0.0000,0.0000,0.0000,0.0000,0.0000,0.0000,0.0000,0.0000,0.0000,0.0000,0.0000,0.0000,0.0000,0.0000,-0.1000,-0.1000,-0.1000,-0.1000,4
0,-1,0,-10.5640,-0.1282,-0.0281,-0.0090,0.0410,0.0010,1.1644,23.4375,23.4375,23.4375,23.4375,12.2205,0.0000,-0.0610,-0.1831,-0.0000,-0.1482,-0.1582,-10.6742,0.0086,-0.0021,-0.0004,0.0000,0.0000,0.0000,0.0000,0.0000,0.0000,0.0000,0.0000,0.0000,0.0000,0.0000,0.0000,0.0000,0.0000,1.0000,0.0000,0.0000,0.0000,0.0000,0.0000,0.0000,0.0000,0.0000,0.0000,0.0000,0.0000,0.0000,0.0000,0.0000,0.0000,0.0000,0.0000,0.0000,-0.1000,-0.1000,-0.1000,-0.1000,4
0,-1,0,-10.5640,-0.1282,-0.0281,-0.0090,0.0410,0.0010,1.1644,23.4375,23.4375,23.4375,23.4375,12.2210,0.0000,0.0000,0.0000,-0.0000,-0.1530,-0.1654,-10.5524,0.0086,-0.0021,-0.0004,0.0000,0.0000,0.0000,0.0000,0.0000,0.0000,0.0000,0.0000,0.0000,0.0000,0.0000,0.0000,0.0000,0.0000,1.0000,0.0000,0.0000,0.0000,0.0000,0.0000,0.0000,0.0000,0.0000,0.0000,0.0000,0.0000,0.0000,0.0000,0.0000,0.0000,0.0000,0.0000,0.0000,-0.1000,-0.1000,-0.1000,-0.1000,4
0,-1,0,-10.5640,-0.1282,-0.0281,-0.0090,0.0410,0.0010,1.1644,23.4375,23.4375,23.4375,23.4375,12.2203,0.0000,-0.3052,-0.0610,-0.0000,-0.1482,-0.1990,-10.6622,0.0086,-0.0021,-0.0004,0.0000,0.0000,0.0000,0.0000,0.0000,0.0000,0.0000,0.0000,0.0000,0.0000,0.0000,0.0000,0.0000,0.0000,1.0000,0.0000,0.0000,0.0000,0.0000,0.0000,0.0000,0.0000,0.0000,0.0000,0.0000,0.0000,0.0000,0.0000,0.0000,0.0000,0.0000,0.0000,0.0000,-0.1000,-0.1000,-0.1000,-0.1000,4
0,-1,0,-10.5640,-0.1282,-0.0281,-0.0090,0.0410,0.0010,1.1644,23.4375,23.4375,23.4375,23.4375,12.2205,0.0000,-0.1831,-0.0610,-0.0000,-0.2176,-0.1750,-10.6121,0.0086,-0.0021,-0.0004,0.0000,0.0000,0.0000,0.0000,0.0000,0.0000,0.0000,0.0000,0.0000,0.0000,0.0000,0.0000,0.0000,0.0000,1.0000,0.0000,0.0000,0.0000,0.0000,0.0000,0.0000,0.0000,0.0000,0.0000,0.0000,0.0000,0.0000,0.0000,0.0000,0.0000,0.0000,0.0000,0.0000,-0.1000,-0.1000,-0.1000,-0.1000,4
0,-1,0,-10.5640,-0.1282,-0.0281,-0.0090,0.0410,0.0010,1.1644,23.4375,23.4375,23.4375,23.4375,12.2198,0.0000,0.0000,0.0000,0.1831,-0.1721,-0.2062,-10.6050,0.0086,-0.0021,-0.0004,0.0000,0.0000,0.0000,0.0000,0.0000,0.0000,0.0000,0.0000,0.0000,0.0000,0.0000,0.0000,0.0000,0.0000,1.0000,0.0000,0.0000,0.0000,0.0000,0.0000,0.0000,0.0000,0.0000,0.0000,0.0000,0.0000,0.0000,0.0000,0.0000,0.0000,0.0000,0.0000,0.0000,-0.1000,-0.1000,-0.1000,-0.1000,4
0,-1,0,-10.5640,-0.1282,-0.0281,-0.0090,0.0410,0.0010,1.1644,23.4375,23.4375,23.4375,23.4375,12.2200,0.0000,-0.0610,-0.1831,-0.0000,-0.1745,-0.1774,-10.6050,0.0086,-0.0022,-0.0004,0.0000,0.0000,0.0000,0.0000,0.0000,0.0000,0.0000,0.0000,0.0000,0.0000,0.0000,0.0000,0.0000,0.0000,1.0000,0.0000,0.0000,0.0000,0.0000,0.0000,0.0000,0.0000,0.0000,0.0000,0.0000,0.0000,0.0000,0.0000,0.0000,0.0000,0.0000,0.0000,0.0000,-0.1000,-0.1000,-0.1000,-0.1000,4
0,-1,0,-10.5640,-0.1282,-0.0281,-0.0090,0.0410,0.0010,1.1644,23.4375,23.4375,23.4375,23.4375,12.2200,0.0000,-0.0610,-0.1831,-0.0000,-0.1387,-0.2253,-10.6551,0.0086,-0.0022,-0.0004,0.0000,0.0000,0.0000,0.0000,0.0000,0.0000,0.0000,0.0000,0.0000,0.0000,0.0000,0.0000,0.0000,0.0000,1.0000,0.0000,0.0000,0.0000,0.0000,0.0000,0.0000,0.0000,0.0000,0.0000,0.0000,0.0000,0.0000,0.0000,0.0000,0.0000,0.0000,0.0000,0.0000,-0.1000,-0.1000,-0.1000,-0.1000,4
0,-1,0,-10.5657,-0.1271,0.0273,0.0110,0.0510,0.0010,1.1644,23.4375,23.4375,23.4375,23.4375,12.2198,0.0000,-0.0610,-0.2441,-0.0000,-0.1506,-0.2277,-10.6026,0.0086,-0.0022,-0.0004,0.0000,0.0000,0.0000,0.0000,0.0000,0.0000,0.0000,0.0000,0.0000,0.0000,0.0000,0.0000,0.0000,0.0000,1.0000,0.0000,0.0000,0.0000,0.0000,0.0000,0.0000,0.0000,0.0000,0.0000,0.0000,0.0000,0.0000,0.0000,0.0000,0.0000,0.0000,0.0000,0.0000,-0.1000,-0.1000,-0.1000,-0.1000,4
0,-1,0,-10.5657,-0.1271,0.0273,0.0110,0.0510,0.0010,1.1644,23.4375,23.4375,23.4375,23.4375,12.2198,0.0000,0.0000,0.0000,-0.0000,-0.1674,-0.2277,-10.6002,0.0086,-0.0024,-0.0004,0.0000,0.0000,0.0000,0.0000,0.0000,0.0000,0.0000,0.0000,0.0000,0.0000,0.0000,0.0000,0.0000,0.0000,1.0000,0.0000,0.0000,0.0000,0.0000,0.0000,0.0000,0.0000,0.0000,0.0000,0.0000,0.0000,0.0000,0.0000,0.0000,0.0000,0.0000,0.0000,0.0000,-0.1000,-0.1000,-0.1000,-0.1000,4
0,-1,0,-10.5657,-0.1271,0.0273,0.0110,0.0510,0.0010,1.1644,23.4375,23.4375,23.4375,23.4375,12.2198,0.0000,-0.2441,-0.0610,-0.0000,-0.1817,-0.1702,-10.6312,0.0086,-0.0024,-0.0005,0.0000,0.0000,0.0000,0.0000,0.0000,0.0000,0.0000,0.0000,0.0000,0.0000,0.0000,0.0000,0.0000,0.0000,1.0000,0.0000,0.0000,0.0000,0.0000,0.0000,0.0000,0.0000,0.0000,0.0000,0.0000,0.0000,0.0000,0.0000,0.0000,0.0000,0.0000,0.0000,0.0000,-0.1000,-0.1000,-0.1000,-0.1000,4
0,-1,0,-10.5657,-0.1271,0.0273,0.0110,0.0510,0.0010,1.1644,23.4375,23.4375,23.4375,23.4375,12.2196,0.0000,-0.0610,-0.1221,-0.1221,-0.1721,-0.1510,-10.6742,0.0087,-0.0024,-0.0005,0.0000,0.0000,0.0000,0.0000,0.0000,0.0000,0.0000,0.0000,0.0000,0.0000,0.0000,0.0000,0.0000,0.0000,1.0000,0.0000,0.0000,0.0000,0.0000,0.0000,0.0000,0.0000,0.0000,0.0000,0.0000,0.0000,0.0000,0.0000,0.0000,0.0000,0.0000,0.0000,0.0000,-0.1000,-0.1000,-0.1000,-0.1000,4
0,-1,0,-10.5657,-0.1271,0.0273,0.0110,0.0510,0.0010,1.1644,23.4375,23.4375,23.4375,23.4375,12.2193,0.0000,-0.1831,-0.0610,0.1221,-0.1721,-0.1822,-10.6455,0.0086,-0.0024,-0.0005,0.0000,0.0000,0.0000,0.0000,0.0000,0.0000,0.0000,0.0000,0.0000,0.0000,0.0000,0.0000,0.0000,0.0000,1.0000,0.0000,0.0000,0.0000,0.0000,0.0000,0.0000,0.0000,0.0000,0.0000,0.0000,0.0000,0.0000,0.0000,0.0000,0.0000,0.0000,0.0000,0.0000,-0.1000,-0.1000,-0.1000,-0.1000,4
0,-1,0,-10.5657,-0.1271,0.0273,0.0110,0.0510,0.0010,1.1644,23.4375,23.4375,23.4375,23.4375,12.2193,0.0000,-0.1221,-0.0610,0.1831,-0.1961,-0.1702,-10.6073,0.0087,-0.0024,-0.0005,0.0000,0.0000,0.0000,0.0000,0.0000,0.0000,0.0000,0.0000,0.0000,0.0000,0.0000,0.0000,0.0000,0.0000,1.0000,0.0000,0.0000,0.0000,0.0000,0.0000,0.0000,0.0000,0.0000,0.0000,0.0000,0.0000,0.0000,0.0000,0.0000,0.0000,0.0000,0.0000,0.0000,-0.1000,-0.1000,-0.1000,-0.1000,4
0,-1,0,-10.5657,-0.1271,0.0273,0.0110,0.0510,0.0010,1.1644,23.4375,23.4375,23.4375,23.4375,12.2193,0.0000,-0.2441,-0.1221,-0.0000,-0.1650,-0.1750,-10.6264,0.0086,-0.0024,-0.0005,0.0000,0.0000,0.0000,0.0000,0.0000,0.0000,0.0000,0.0000,0.0000,0.0000,0.0000,0.0000,0.0000,0.0000,1.0000,0.0000,0.0000,0.0000,0.0000,0.0000,0.0000,0.0000,0.0000,0.0000,0.0000,0.0000,0.0000,0.0000,0.0000,0.0000,0.0000,0.0000,0.0000,-0.1000,-0.1000,-0.1000,-0.1000,4
0,-1,0,-10.5657,-0.1271,0.0273,0.0110,0.0510,0.0010,1.1644,23.4375,23.4375,23.4375,23.4375,12.2193,0.0000,-0.1831,-0.0610,-0.0610,-0.1291,-0.1990,-10.6694,0.0086,-0.0024,-0.0005,0.0000,0.0000,0.0000,0.0000,0.0000,0.0000,0.0000,0.0000,0.0000,0.0000,0.0000,0.0000,0.0000,0.0000,1.0000,0.0000,0.0000,0.0000,0.0000,0.0000,0.0000,0.0000,0.0000,0.0000,0.0000,0.0000,0.0000,0.0000,0.0000,0.0000,0.0000,0.0000,0.0000,-0.1000,-0.1000,-0.1000,-0.1000,4
0,-1,0,-10.5657,-0.1271,0.0273,0.0110,0.0510,0.0010,1.1644,23.4375,23.4375,23.4375,23.4375,12.2184,0.0000,0.0000,0.0610,-0.0000,-0.1889,-0.1774,-10.6694,0.0087,-0.0024,-0.0005,0.0000,0.0000,0.0000,0.0000,0.0000,0.0000,0.0000,0.0000,0.0000,0.0000,0.0000,0.0000,0.0000,0.0000,1.0000,0.0000,0.0000,0.0000,0.0000,0.0000,0.0000,0.0000,0.0000,0.0000,0.0000,0.0000,0.0000,0.0000,0.0000,0.0000,0.0000,0.0000,0.0000,-0.1000,-0.1000,-0.1000,-0.1000,4
0,-1,0,-10.5657,-0.1271,0.0273,0.0110,0.0510,0.0010,1.1644,23.4375,23.4375,23.4375,23.4375,12.2167,0.0000,-0.1221,-0.0610,0.1221,-0.1674,-0.1870,-10.6217,0.0087,-0.0024,-0.0005,0.0000,0.0000,0.0000,0.0000,0.0000,0.0000,0.0000,0.0000,0.0000,0.0000,0.0000,0.0000,0.0000,0.0000,1.0000,0.0000,0.0000,0.0000,0.0000,0.0000,0.0000,0.0000,0.0000,0.0000,0.0000,0.0000,0.0000,0.0000,0.0000,0.0000,0.0000,0.0000,0.0000,-0.1000,-0.1000,-0.1000,-0.1000,4
0,-1,0,-10.5657,-0.1271,0.0273,0.0110,0.0510,0.0010,1.1644,23.4375,23.4375,23.4375,23.4375,12.2145,0.0000,-0.2441,0.0000,-0.2441,-0.1482,-0.1103,-10.6789,0.0087,-0.0025,-0.0005,0.0000,0.0000,0.0000,0.0000,0.0000,0.0000,0.0000,0.0000,0.0000,0.0000,0.0000,0.0000,0.0000,0.0000,1.0000,0.0000,0.0000,0.0000,0.0000,0.0000,0.0000,0.0000,0.0000,0.0000,0.0000,0.0000,0.0000,0.0000,0.0000,0.0000,0.0000,0.0000,0.0000,-0.1000,-0.1000,-0.1000,-0.1000,4
0,-1,0,-10.5657,-0.1271,0.0273,0.0110,0.0510,0.0010,1.1644,23.4375,23.4375,23.4375,23.4375,12.2128,0.0000,0.0000,0.0000,-0.0000,-0.1411,-0.2277,-10.5978,0.0087,-0.0025,-0.0005,0.0000,0.0000,0.0000,0.0000,0.0000,0.0000,0.0000,0.0000,0.0000,0.0000,0.0000,0.0000,0.0000,0.0000,1.0000,0.0000,0.0000,0.0000,0.0000,0.0000,0.0000,0.0000,0.0000,0.0000,0.0000,0.0000,0.0000,0.0000,0.0000,0.0000,0.0000,0.0000,0.0000,-0.1000,-0.1000,-0.1000,-0.1000,4
0,-1,0,-10.5657,-0.1271,0.0273,0.0110,0.0510,0.0010,1.1644,23.4375,23.4375,23.4375,23.4375,12.2109,0.0000,-0.1831,-0.0610,-0.0000,-0.1243,-0.1846,-10.6264,0.0087,-0.0025,-0.0005,0.0000,0.0000,0.0000,0.0000,0.0000,0.0000,0.0000,0.0000,0.0000,0.0000,0.0000,0.0000,0.0000,0.0000,1.0000,0.0000,0.0000,0.0000,0.0000,0.0000,0.0000,0.0000,0.0000,0.0000,0.0000,0.0000,0.0000,0.0000,0.0000,0.0000,0.0000,0.0000,0.0000,-0.1000,-0.1000,-0.1000,-0.1000,4
0,-1,0,-10.5657,-0.1271,0.0273,0.0110,0.0510,0.0010,1.1644,23.4375,23.4375,23.4375,23.4375,12.2092,0.0000,-0.1831,-0.0610,0.1221,-0.1195,-0.1678,-10.6551,0.0087,-0.0025,-0.0005,0.0000,0.0000,0.0000,0.0000,0.0000,0.0000,0.0000,0.0000,0.0000,0.0000,0.0000,0.0000,0.0000,0.0000,1.0000,0.0000,0.0000,0.0000,0.0000,0.0000,0.0000,0.0000,0.0000,0.0000,0.0000,0.0000,0.0000,0.0000,0.0000,0.0000,0.0000,0.0000,0.0000,-0.1000,-0.1000,-0.1000,-0.1000,4
0,-1,0,-10.5657,-0.1271,0.0273,0.0110,0.0510,0.0010,1.1644,23.4375,23.4375,23.4375,23.4375,12.2084,0.0000,0.0000,-0.0610,-0.0000,-0.1793,-0.2325,-10.6431,0.0087,-0.0025,-0.0005,0.0000,0.0000,0.0000,0.0000,0.0000,0.0000,0.0000,0.0000,0.0000,0.0000,0.0000,0.0000,0.0000,0.0000,1.0000,0.0000,0.0000,0.0000,0.0000,0.0000,0.0000,0.0000,0.0000,0.0000,0.0000,0.0000,0.0000,0.0000,0.0000,0.0000,0.0000,0.0000,0.0000,-0.1000,-0.1000,-0.1000,-0.1000,4
0,-1,0,-10.5657,-0.1271,0.0273,0.0110,0.0510,0.0010,1.1644,23.4375,23.4375,23.4375,23.4375,12.2082,0.0000,-0.2441,-0.1831,-0.0000,-0.1793,-0.1846,-10.6097,0.0087,-0.0025,-0.0005,0.0000,0.0000,0.0000,0.0000,0.0000,0.0000,0.0000,0.0000,0.0000,0.0000,0.0000,0.0000,0.0000,0.0000,1.0000,0.0000,0.0000,0.0000,0.0000,0.0000,0.0000,0.0000,0.0000,0.0000,0.0000,0.0000,0.0000,0.0000,0.0000,0.0000,0.0000,0.0000,0.0000,-0.1000,-0.1000,-0.1000,-0.1000,4
0,-1,0,-10.5657,-0.1271,0.0273,0.0110,0.0510,0.0010,1.1644,23.4375,23.4375,23.4375,23.4375,12.2080,0.0000,-0.3052,-0.1831,-0.0000,-0.1267,-0.1438,-10.6575,0.0087,-0.0025,-0.0005,0.0000,0.0000,0.0000,0.0000,0.0000,0.0000,0.0000,0.0000,0.0000,0.0000,0.0000,0.0000,0.0000,0.0000,1.0000,0.0000,0.0000,0.0000,0.0000,0.0000,0.0000,0.0000,0.0000,0.0000,0.0000,0.0000,0.0000,0.0000,0.0000,0.0000,0.0000,0.0000,0.0000,-0.1000,-0.1000,-0.1000,-0.1000,4
0,-1,0,-10.5657,-0.1271,0.0273,0.0110,0.0510,0.0010,1.1644,23.4375,23.4375,23.4375,23.4375,12.2077,0.0000,0.0000,0.0000,-0.0000,-0.1745,-0.2517,-10.6312,0.0087,-0.0025,-0.0005,0.0000,0.0000,0.0000,0.0000,0.0000,0.0000,0.0000,0.0000,0.0000,0.0000,0.0000,0.0000,0.0000,0.0000,1.0000,0.0000,0.0000,0.0000,0.0000,0.0000,0.0000,0.0000,0.0000,0.0000,0.0000,0.0000,0.0000,0.0000,0.0000,0.0000,0.0000,0.0000,0.0000,-0.1000,-0.1000,-0.1000,-0.1000,4
0,-1,0,-10.5657,-0.1271,0.0273,0.0110,0.0510,0.0010,1.1644,23.4375,23.4375,23.4375,23.4375,12.2058,0.0000,-0.0610,-0.1831,0.2441,-0.1698,-0.2182,-10.6073,0.0087,-0.0026,-0.0005,0.0000,0.0000,0.0000,0.0000,0.0000,0.0000,0.0000,0.0000,0.0000,0.0000,0.0000,0.0000,0.0000,0.0000,1.0000,0.0000,0.0000,0.0000,0.0000,0.0000,0.0000,0.0000,0.0000,0.0000,0.0000,0.0000,0.0000,0.0000,0.0000,0.0000,0.0000,0.0000,0.0000,-0.1000,-0.1000,-0.1000,-0.1000,4
0,-1,0,-10.5657,-0.1271,0.0273,0.0110,0.0510,0.0010,1.1644,23.4375,23.4375,23.4375,23.4375,12.2053,0.0000,0.0000,-0.1831,-0.0000,-0.1506,-0.1366,-10.5286,0.0087,-0.0026,-0.0005,0.0000,0.0000,0.0000,0.0000,0.0000,0.0000,0.0000,0.0000,0.0000,0.0000,0.0000,0.0000,0.0000,0.0000,1.0000,0.0000,0.0000,0.0000,0.0000,0.0000,0.0000,0.0000,0.0000,0.0000,0.0000,0.0000,0.0000,0.0000,0.0000,0.0000,0.0000,0.0000,0.0000,-0.1000,-0.1000,-0.1000,-0.1000,4
0,-1,0,-10.5657,-0.1271,0.0273,0.0110,0.0510,0.0010,1.1644,23.4375,23.4375,23.4375,23.4375,12.2041,0.0000,-0.0610,-0.1831,0.1221,-0.1961,-0.1343,-10.5978,0.0087,-0.0026,-0.0005,0.0000,0.0000,0.0000,0.0000,0.0000,0.0000,0.0000,0.0000,0.0000,0.0000,0.0000,0.0000,0.0000,0.0000,1.0000,0.0000,0.0000,0.0000,0.0000,0.0000,0.0000,0.0000,0.0000,0.0000,0.0000,0.0000,0.0000,0.0000,0.0000,0.0000,0.0000,0.0000,0.0000,-0.1000,-0.1000,-0.1000,-0.1000,4
0,-1,0,-10.5657,-0.1271,0.0273,0.0110,0.0510,0.0010,1.1644,23.4375,23.4375,23.4375,23.4375,12.2029,0.0000,-0.1221,-0.0610,-0.0000,-0.1698,-0.2134,-10.6073,0.0087,-0.0026,-0.0005,0.0000,0.0000,0.0000,0.0000,0.0000,0.0000,0.0000,0.0000,0.0000,0.0000,0.0000,0.0000,0.0000,0.0000,1.0000,0.0000,0.0000,0.0000,0.0000,0.0000,0.0000,0.0000,0.0000,0.0000,0.0000,0.0000,0.0000,0.0000,0.0000,0.0000,0.0000,0.0000,0.0000,-0.1000,-0.1000,-0.1000,-0.1000,4
0,-1,0,-10.5657,-0.1271,0.0273,0.0210,0.0510,0.0210,1.1644,23.4375,23.4375,23.4375,23.4375,12.2014,0.0000,-0.1831,-0.1831,0.1221,-0.1267,-0.1702,-10.6837,0.0087,-0.0027,-0.0005,0.0000,0.0000,0.0000,0.0000,0.0000,0.0000,0.0000,0.0000,0.0000,0.0000,0.0000,0.0000,0.0000,0.0000,1.0000,0.0000,0.0000,0.0000,0.0000,0.0000,0.0000,0.0000,0.0000,0.0000,0.0000,0.0000,0.0000,0.0000,0.0000,0.0000,0.0000,0.0000,0.0000,-0.1000,-0.1000,-0.1000,-0.1000,4
0,-1,0,-10.4473,-0.1835,0.0750,0.0210,0.0510,0.0210,1.1644,23.4375,23.4375,23.4375,23.4375,12.2005,0.0000,-0.0610,-0.2441,-0.0000,-0.2056,-0.1846,-10.6264,0.0087,-0.0027,-0.0005,0.0000,0.0000,0.0000,0.0000,0.0000,0.0000,0.0000,0.0000,0.0000,0.0000,0.0000,0.0000,0.0000,0.0000,1.0000,0.0000,0.0000,0.0000,0.0000,0.0000,0.0000,0.0000,0.0000,0.0000,0.0000,0.0000,0.0000,0.0000,0.0000,0.0000,0.0000,0.0000,0.0000,-0.1000,-0.1000,-0.1000,-0.1000,4
0,-1,0,-10.4473,-0.1835,0.0750,0.0210,0.0510,0.0210,1.1644,23.4375,23.4375,23.4375,23.4375,12.1990,0.0000,-0.1221,-0.0610,-0.0000,-0.1626,-0.2277,-10.5572,0.0088,-0.0027,-0.0005,0.0000,0.0000,0.0000,0.0000,0.0000,0.0000,0.0000,0.0000,0.0000,0.0000,0.0000,0.0000,0.0000,0.0000,1.0000,0.0000,0.0000,0.0000,0.0000,0.0000,0.0000,0.0000,0.0000,0.0000,0.0000,0.0000,0.0000,0.0000,0.0000,0.0000,0.0000,0.0000,0.0000,-0.1000,-0.1000,-0.1000,-0.1000,4
0,-1,0,-10.4473,-0.1835,0.0750,0.0210,0.0510,0.0210,1.1644,23.4375,23.4375,23.4375,23.4375,12.1976,0.0000,0.0000,0.0000,0.1221,-0.1195,-0.1966,-10.6121,0.0088,-0.0028,-0.0005,0.0000,0.0000,0.0000,0.0000,0.0000,0.0000,0.0000,0.0000,0.0000,0.0000,0.0000,0.0000,0.0000,0.0000,1.0000,0.0000,0.0000,0.0000,0.0000,0.0000,0.0000,0.0000,0.0000,0.0000,0.0000,0.0000,0.0000,0.0000,0.0000,0.0000,0.0000,0.0000,0.0000,-0.1000,-0.1000,-0.1000,-0.1000,4
0,-1,0,-10.4473,-0.1835,0.0750,0.0210,0.0510,0.0210,1.1644,23.4375,23.4375,23.4375,23.4375,12.1964,0.0000,-0.0610,-0.1221,-0.0000,-0.1458,-0.2206,-10.6217,0.0088,-0.0029,-0.0005,0.0000,0.0000,0.0000,0.0000,0.0000,0.0000,0.0000,0.0000,0.0000,0.0000,0.0000,0.0000,0.0000,0.0000,1.0000,0.0000,0.0000,0.0000,0.0000,0.0000,0.0000,0.0000,0.0000,0.0000,0.0000,0.0000,0.0000,0.0000,0.0000,0.0000,0.0000,0.0000,0.0000,-0.1000,-0.1000,-0.1000,-0.1000,4
0,-1,0,-10.4473,-0.1835,0.0750,0.0210,0.0510,0.0210,1.1644,23.4375,23.4375,23.4375,23.4375,12.1949,0.0000,-0.0610,-0.1831,-0.0000,-0.1530,-0.1798,-10.6742,0.0088,-0.0029,-0.0005,0.0000,0.0000,0.0000,0.0000,0.0000,0.0000,0.0000,0.0000,0.0000,0.0000,0.0000,0.0000,0.0000,0.0000,1.0000,0.0000,0.0000,0.0000,0.0000,0.0000,0.0000,0.0000,0.0000,0.0000,0.0000,0.0000,0.0000,0.0000,0.0000,0.0000,0.0000,0.0000,0.0000,-0.1000,-0.1000,-0.1000,-0.1000,4
0,-1,0,-10.4473,-0.1835,0.0750,0.0210,0.0510,0.0210,1.1644,23.4375,23.4375,23.4375,23.4375,12.1942,0.0000,0.0000,0.0000,-0.0000,-0.1841,-0.2014,-10.6622,0.0088,-0.0029,-0.0005,0.0000,0.0000,0.0000,0.0000,0.0000,0.0000,0.0000,0.0000,0.0000,0.0000,0.0000,0.0000,0.0000,0.0000,1.0000,0.0000,0.0000,0.0000,0.0000,0.0000,0.0000,0.0000,0.0000,0.0000,0.0000,0.0000,0.0000,0.0000,0.0000,0.0000,0.0000,0.0000,0.0000,-0.1000,-0.1000,-0.1000,-0.1000,4
0,-1,0,-10.4473,-0.1835,0.0750,0.0210,0.0510,0.0210,1.1644,23.4375,23.4375,23.4375,23.4375,12.1939,0.0000,0.0000,0.0000,-0.0000,-0.1817,-0.1822,-10.5691,0.0089,-0.0029,-0.0005,0.0000,0.0000,0.0000,0.0000,0.0000,0.0000,0.0000,0.0000,0.0000,0.0000,0.0000,0.0000,0.0000,0.0000,1.0000,0.0000,0.0000,0.0000,0.0000,0.0000,0.0000,0.0000,0.0000,0.0000,0.0000,0.0000,0.0000,0.0000,0.0000,0.0000,0.0000,0.0000,0.0000,-0.1000,-0.1000,-0.1000,-0.1000,4
0,-1,0,-10.4473,-0.1835,0.0750,0.0210,0.0510,0.0210,1.1644,23.4375,23.4375,23.4375,23.4375,12.1944,0.0000,-0.0610,-0.1221,-0.0000,-0.1435,-0.1774,-10.5978,0.0089,-0.0030,-0.0005,0.0000,0.0000,0.0000,0.0000,0.0000,0.0000,0.0000,0.0000,0.0000,0.0000,0.0000,0.0000,0.0000,0.0000,1.0000,0.0000,0.0000,0.0000,0.0000,0.0000,0.0000,0.0000,0.0000,0.0000,0.0000,0.0000,0.0000,0.0000,0.0000,0.0000,0.0000,0.0000,0.0000,-0.1000,-0.1000,-0.1000,-0.1000,4
0,-1,0,-10.4473,-0.1835,0.0750,0.0210,0.0510,0.0210,1.1644,23.4375,23.4375,23.4375,23.4375,12.1951,0.0000,-0.1831,-0.2441,-0.0000,-0.1506,-0.1750,-10.6360,0.0089,-0.0030,-0.0005,0.0000,0.0000,0.0000,0.0000,0.0000,0.0000,0.0000,0.0000,0.0000,0.0000,0.0000,0.0000,0.0000,0.0000,1.0000,0.0000,0.0000,0.0000,0.0000,0.0000,0.0000,0.0000,0.0000,0.0000,0.0000,0.0000,0.0000,0.0000,0.0000,0.0000,0.0000,0.0000,0.0000,-0.1000,-0.1000,-0.1000,-0.1000,4
0,-1,0,-10.4473,-0.1835,0.0750,0.0210,0.0510,0.0210,1.1644,23.4375,23.4375,23.4375,23.4375,12.1961,0.0000,-0.0610,-0.1221,-0.0000,-0.1530,-0.2038,-10.6527,0.0089,-0.0030,-0.0005,0.0000,0.0000,0.0000,0.0000,0.0000,0.0000,0.0000,0.0000,0.0000,0.0000,0.0000,0.0000,0.0000,0.0000,1.0000,0.0000,0.0000,0.0000,0.0000,0.0000,0.0000,0.0000,0.0000,0.0000,0.0000,0.0000,0.0000,0.0000,0.0000,0.0000,0.0000,0.0000,0.0000,-0.1000,-0.1000,-0.1000,-0.1000,4
0,-1,0,-10.4473,-0.1835,0.0750,0.0210,0.0510,0.0210,1.1644,23.4375,23.4375,23.4375,23.4375,12.1961,0.0000,-0.0610,-0.1221,0.1221,-0.1076,-0.2038,-10.6193,0.0089,-0.0030,-0.0005,0.0000,0.0000,0.0000,0.0000,0.0000,0.0000,0.0000,0.0000,0.0000,0.0000,0.0000,0.0000,0.0000,0.0000,1.0000,0.0000,0.0000,0.0000,0.0000,0.0000,0.0000,0.0000,0.0000,0.0000,0.0000,0.0000,0.0000,0.0000,0.0000,0.0000,0.0000,0.0000,0.0000,-0.1000,-0.1000,-0.1000,-0.1000,4
0,-1,0,-10.4473,-0.1835,0.0750,0.0210,0.0510,0.0210,1.1644,23.4375,23.4375,23.4375,23.4375,12.1956,0.0000,-0.1831,-0.0610,-0.0000,-0.1937,-0.1918,-10.6336,0.0089,-0.0030,-0.0005,0.0000,0.0000,0.0000,0.0000,0.0000,0.0000,0.0000,0.0000,0.0000,0.0000,0.0000,0.0000,0.0000,0.0000,1.0000,0.0000,0.0000,0.0000,0.0000,0.0000,0.0000,0.0000,0.0000,0.0000,0.0000,0.0000,0.0000,0.0000,0.0000,0.0000,0.0000,0.0000,0.0000,-0.1000,-0.1000,-0.1000,-0.1000,4
0,-1,0,-10.4473,-0.1835,0.0750,0.0210,0.0510,0.0210,1.1644,23.4375,23.4375,23.4375,23.4375,12.1951,0.0000,-0.0610,-0.1831,-0.0000,-0.1650,-0.1654,-10.6933,0.0089,-0.0031,-0.0005,0.0000,0.0000,0.0000,0.0000,0.0000,0.0000,0.0000,0.0000,0.0000,0.0000,0.0000,0.0000,0.0000,0.0000,1.0000,0.0000,0.0000,0.0000,0.0000,0.0000,0.0000,0.0000,0.0000,0.0000,0.0000,0.0000,0.0000,0.0000,0.0000,0.0000,0.0000,0.0000,0.0000,-0.1000,-0.1000,-0.1000,-0.1000,4
0,-1,0,-10.4473,-0.1835,0.0750,0.0210,0.0510,0.0210,1.1644,23.4375,23.4375,23.4375,23.4375,12.1932,0.0000,0.0000,0.0000,0.1221,-0.2176,-0.1822,-10.6169,0.0089,-0.0031,-0.0005,0.0000,0.0000,0.0000,0.0000,0.0000,0.0000,0.0000,0.0000,0.0000,0.0000,0.0000,0.0000,0.0000,0.0000,1.0000,0.0000,0.0000,0.0000,0.0000,0.0000,0.0000,0.0000,0.0000,0.0000,0.0000,0.0000,0.0000,0.0000,0.0000,0.0000,0.0000,0.0000,0.0000,-0.1000,-0.1000,-0.1000,-0.1000,4
0,-1,0,-10.4473,-0.1835,0.0750,0.0210,0.0510,0.0210,1.1644,23.4375,23.4375,23.4375,23.4375,12.1920,0.0000,-0.0610,-0.1221,-0.0610,-0.0861,-0.3045,-10.6479,0.0089,-0.0031,-0.0005,0.0000,0.0000,0.0000,0.0000,0.0000,0.0000,0.0000,0.0000,0.0000,0.0000,0.0000,0.0000,0.0000,0.0000,1.0000,0.0000,0.0000,0.0000,0.0000,0.0000,0.0000,0.0000,0.0000,0.0000,0.0000,0.0000,0.0000,0.0000,0.0000,0.0000,0.0000,0.0000,0.0000,-0.1000,-0.1000,-0.1000,-0.1000,4
0,-1,0,-10.4473,-0.1835,0.0750,0.0210,0.0510,0.0210,1.1644,23.4375,23.4375,23.4375,23.4375,12.1927,0.0000,-0.0610,-0.1221,-0.0000,-0.2534,-0.1007,-10.6837,0.0089,-0.0031,-0.0005,0.0000,0.0000,0.0000,0.0000,0.0000,0.0000,0.0000,0.0000,0.0000,0.0000,0.0000,0.0000,0.0000,0.0000,1.0000,0.0000,0.0000,0.0000,0.0000,0.0000,0.0000,0.0000,0.0000,0.0000,0.0000,0.0000,0.0000,0.0000,0.0000,0.0000,0.0000,0.0000,0.0000,-0.1000,-0.1000,-0.1000,-0.1000,4
0,-1,0,-10.4473,-0.1835,0.0750,0.0210,0.0510,0.0210,1.1644,23.4375,23.4375,23.4375,23.4375,12.1910,0.0000,-0.1221,-0.0610,-0.0000,-0.0478,-0.2949,-10.6455,0.0089,-0.0031,-0.0005,0.0000,0.0000,0.0000,0.0000,0.0000,0.0000,0.0000,0.0000,0.0000,0.0000,0.0000,0.0000,0.0000,0.0000,1.0000,0.0000,0.0000,0.0000,0.0000,0.0000,0.0000,0.0000,0.0000,0.0000,0.0000,0.0000,0.0000,0.0000,0.0000,0.0000,0.0000,0.0000,0.0000,-0.1000,-0.1000,-0.1000,-0.1000,4
0,-1,0,-10.4473,-0.1835,0.0750,0.0210,0.0510,0.0210,1.1644,23.4375,23.4375,23.4375,23.4375,12.1903,0.0000,-0.2441,-0.1221,0.1221,-0.2415,-0.0671,-10.6718,0.0089,-0.0031,-0.0005,0.0000,0.0000,0.0000,0.0000,0.0000,0.0000,0.0000,0.0000,0.0000,0.0000,0.0000,0.0000,0.0000,0.0000,1.0000,0.0000,0.0000,0.0000,0.0000,0.0000,0.0000,0.0000,0.0000,0.0000,0.0000,0.0000,0.0000,0.0000,0.0000,0.0000,0.0000,0.0000,0.0000,-0.1000,-0.1000,-0.1000,-0.1000,4
0,-1,0,-10.4473,-0.1835,0.0750,0.0010,0.0410,0.0210,1.1644,23.4375,23.4375,23.4375,23.4375,12.1901,0.0000,-0.1831,-0.2441,-0.0610,-0.1052,-0.2421,-10.5787,0.0089,-0.0032,-0.0005,0.0000,0.0000,0.0000,0.0000,0.0000,0.0000,0.0000,0.0000,0.0000,0.0000,0.0000,0.0000,0.0000,0.0000,1.0000,0.0000,0.0000,0.0000,0.0000,0.0000,0.0000,0.0000,0.0000,0.0000,0.0000,0.0000,0.0000,0.0000,0.0000,0.0000,0.0000,0.0000,0.0000,-0.1000,-0.1000,-0.1000,-0.1000,4
0,-1,0,-10.4473,-0.1835,0.0750,0.0010,0.0410,0.0210,1.1644,23.4375,23.4375,23.4375,23.4375,12.1908,0.0000,-0.1831,0.0000,-0.0000,-0.2008,-0.1678,-10.6073,0.0089,-0.0032,-0.0005,0.0000,0.0000,0.0000,0.0000,0.0000,0.0000,0.0000,0.0000,0.0000,0.0000,0.0000,0.0000,0.0000,0.0000,1.0000,0.0000,0.0000,0.0000,0.0000,0.0000,0.0000,0.0000,0.0000,0.0000,0.0000,0.0000,0.0000,0.0000,0.0000,0.0000,0.0000,0.0000,0.0000,-0.1000,-0.1000,-0.1000,-0.1000,4
0,-1,0,-10.4226,-0.2094,0.0051,0.0010,0.0410,0.0210,1.1644,23.4375,23.4375,23.4375,23.4375,12.1901,0.0000,-0.3052,-0.1221,-0.0000,-0.0622,-0.2253,-10.5811,0.0089,-0.0032,-0.0005,0.0000,0.0000,0.0000,0.0000,0.0000,0.0000,0.0000,0.0000,0.0000,0.0000,0.0000,0.0000,0.0000,0.0000,1.0000,0.0000,0.0000,0.0000,0.0000,0.0000,0.0000,0.0000,0.0000,0.0000,0.0000,0.0000,0.0000,0.0000,0.0000,0.0000,0.0000,0.0000,0.0000,-0.1000,-0.1000,-0.1000,-0.1000,4
0,-1,0,-10.4226,-0.2094,0.0051,0.0010,0.0410,0.0210,1.1644,23.4375,23.4375,23.4375,23.4375,12.1893,0.0000,-0.1831,-0.0610,-0.0000,-0.2056,-0.1822,-10.6097,0.0089,-0.0032,-0.0005,0.0000,0.0000,0.0000,0.0000,0.0000,0.0000,0.0000,0.0000,0.0000,0.0000,0.0000,0.0000,0.0000,0.0000,1.0000,0.0000,0.0000,0.0000,0.0000,0.0000,0.0000,0.0000,0.0000,0.0000,0.0000,0.0000,0.0000,0.0000,0.0000,0.0000,0.0000,0.0000,0.0000,-0.1000,-0.1000,-0.1000,-0.1000,4
0,-1,0,-10.4226,-0.2094,0.0051,0.0010,0.0410,0.0210,1.1644,23.4375,23.4375,23.4375,23.4375,12.1891,0.0000,0.0000,0.0000,-0.0000,-0.1650,-0.1582,-10.6169,0.0090,-0.0033,-0.0005,0.0000,0.0000,0.0000,0.0000,0.0000,0.0000,0.0000,0.0000,0.0000,0.0000,0.0000,0.0000,0.0000,0.0000,1.0000,0.0000,0.0000,0.0000,0.0000,0.0000,0.0000,0.0000,0.0000,0.0000,0.0000,0.0000,0.0000,0.0000,0.0000,0.0000,0.0000,0.0000,0.0000,-0.1000,-0.1000,-0.1000,-0.1000,4
