loop_index, counter, last_step_ns, T_ref, theta_ref, phi_ref, uwind, vwind, wwind, rho, rpm1, rpm2, rpm3, rpm4,v_batt,alt,gyro_roll,gyro_pitch,gyro_yaw,accel_X,accel_Y,accel_Z,roll,pitch,yaw,X,Y,Z,Xdot,Ydot,Zdot,x0,y0,z0,e.xbee_time,xbee_time_received_ns,xbee_x,xbee_y,xbee_z,xbee_qw,xbee_qx,xbee_qy,xbee_qz,sp_roll,sp_pitch,sp_yaw,sp_X,sp_Y,sp_Z,sp_Xdot,sp_Ydot,sp_Zdot,u_roll,u_pitch,u_yaw,u_X,u_Y,u_Z,mot_1,mot_2,mot_3,mot_4,thrust_mot1,thrust_mot2,thrust_mot3,thrust_mot4,flight_mode
1,69,199155342185,-10.5669,-0.1234,-0.0383,-0.0190,0.0610,0.0010,1.1670,6371.5366,6753.9409,6647.6943,6305.3379,11.7559,0.0000,2.6855,2.3193,0.6104,8.8369,-17.7451,-19.4054,0.0080,-0.0095,-0.0055,0.0000,0.0000,0.0000,0.0000,0.0000,0.0000,0.0000,0.0000,0.0000,0.0000,0.0000,0.0000,0.0000,0.0000,1.0000,0.0000,0.0000,0.0000,-0.1234,-0.0383,0.0000,0.0000,0.0000,0.0000,0.0000,0.0000,-0.0000,-0.0000,-0.0000,0.0000,0.0000,0.0000,-0.5754,0.6637,0.7007,0.6903,0.6573,0.5754,0.5754,0.5754,0.5754,4
2,70,199157574328,-10.5669,-0.1234,-0.0383,-0.0190,0.0610,0.0010,1.1670,6371.5366,6753.9409,6647.6943,6305.3379,11.7711,0.0000,3.1128,3.2349,0.9155,-12.9685,-8.3355,-1.4059,0.0116,-0.0083,-0.0054,0.0000,0.0000,0.0000,0.0000,0.0000,0.0000,0.0000,0.0000,0.0000,0.0000,0.0000,0.0000,0.0000,0.0000,1.0000,0.0000,0.0000,0.0000,-0.1234,-0.0383,0.0000,0.0000,0.0000,0.0000,0.0000,0.0000,-0.0000,-0.0020,-0.0020,0.0014,0.0000,0.0000,-0.5754,0.6637,0.7007,0.6903,0.6573,0.5761,0.5767,0.5761,0.5727,4
3,71,199160993747,-10.5669,-0.1234,-0.0383,-0.0190,0.0610,0.0010,1.1670,6371.5366,6753.9409,6647.6943,6305.3379,11.7858,0.0000,2.0752,-1.4038,-0.2441,-13.8651,0.5802,4.1532,0.0126,-0.0097,-0.0054,0.0000,0.0000,0.0000,0.0000,0.0000,0.0000,0.0000,0.0000,0.0000,0.0000,0.0000,0.0000,0.0000,0.0000,1.0000,0.0000,0.0000,0.0000,-0.1234,-0.0383,0.0000,0.0000,0.0000,0.0000,0.0000,0.0000,-0.0000,-0.0040,0.0040,0.0039,0.0000,0.0000,-0.5754,0.6637,0.7007,0.6903,0.6573,0.5813,0.5734,0.5733,0.5734,4
4,72,199165547112,-10.5669,-0.1234,-0.0383,-0.0190,0.0610,0.0010,1.1670,6371.5366,6753.9409,6647.6943,6305.3379,11.8011,0.0000,0.1831,-3.6011,-0.4272,-8.9995,10.6634,3.1435,0.0126,-0.0114,-0.0055,0.0000,0.0000,0.0000,0.0000,0.0000,0.0000,0.0000,0.0000,0.0000,0.0000,0.0000,0.0000,0.0000,0.0000,1.0000,0.0000,0.0000,0.0000,-0.1234,-0.0383,0.0000,0.0000,0.0000,0.0000,0.0000,0.0000,-0.0000,-0.0060,0.0060,0.0060,0.0000,0.0000,-0.5754,0.6637,0.7007,0.6903,0.6573,0.5844,0.5724,0.5724,0.5724,4
5,73,199170799859,-10.5669,-0.1234,-0.0383,-0.0190,0.0610,0.0010,1.1670,6371.5366,6753.9409,6647.6943,6305.3379,11.8149,0.0000,-0.7935,-3.9673,-1.8921,-0.9588,18.5626,-6.6141,0.0115,-0.0126,-0.0056,0.0000,0.0000,0.0000,0.0000,0.0000,0.0000,0.0000,0.0000,0.0000,0.0000,0.0000,0.0000,0.0000,0.0000,1.0000,0.0000,0.0000,0.0000,-0.1234,-0.0383,0.0000,0.0000,0.0000,0.0000,0.0000,0.0000,-0.0000,-0.0080,0.0080,0.0080,0.0000,0.0000,-0.5754,0.6637,0.7007,0.6903,0.6573,0.5874,0.5714,0.5714,0.5714,4
6,74,199176107396,-10.5669,-0.1234,-0.0383,-0.0190,0.0610,0.0010,1.1670,6371.5366,6753.9409,6647.6943,6305.3379,11.8277,0.0000,-2.6855,-2.5024,0.2441,6.5273,20.5931,-20.6275,0.0095,-0.0129,-0.0056,0.0000,0.0000,0.0000,0.0000,0.0000,0.0000,0.0000,0.0000,0.0000,0.0000,0.0000,0.0000,0.0000,0.0000,1.0000,0.0000,0.0000,0.0000,-0.1234,-0.0383,0.0000,0.0000,0.0000,0.0000,0.0000,0.0000,-0.0000,-0.0049,0.0051,0.0089,0.0000,0.0000,-0.5754,0.6637,0.7007,0.6903,0.6573,0.5848,0.5709,0.5748,0.5710,4
7,75,199180539683,-10.5669,-0.1234,-0.0383,-0.0190,0.0610,0.0010,1.1670,6371.5366,6753.9409,6647.6943,6305.3379,11.8398,0.0000,-1.6479,1.1597,-1.0376,12.9278,16.6831,-32.1371,0.0074,-0.0121,-0.0057,0.0000,0.0000,0.0000,0.0000,0.0000,0.0000,0.0000,0.0000,0.0000,0.0000,0.0000,0.0000,0.0000,0.0000,1.0000,0.0000,0.0000,0.0000,-0.1234,-0.0383,0.0000,0.0000,0.0000,0.0000,0.0000,0.0000,-0.0000,-0.0019,-0.0035,0.0106,0.0000,0.0000,-0.5754,0.6637,0.7007,0.6903,0.6573,0.5799,0.5728,0.5815,0.5674,4
8,76,199185497195,-10.5669,-0.1234,-0.0383,-0.0190,0.0610,0.0010,1.1670,6371.5366,6753.9409,6647.6943,6305.3379,11.8504,0.0000,-3.2959,2.0142,1.4648,11.1179,10.0113,-37.9444,0.0055,-0.0106,-0.0055,0.0000,0.0000,0.0000,0.0000,0.0000,0.0000,0.0000,0.0000,0.0000,0.0000,0.0000,0.0000,0.0000,0.0000,1.0000,0.0000,0.0000,0.0000,-0.1234,-0.0383,0.0000,0.0000,0.0000,0.0000,0.0000,0.0000,-0.0000,-0.0010,-0.0138,0.0102,0.0000,0.0000,-0.5754,0.6637,0.7007,0.6903,0.6573,0.5741,0.5777,0.5868,0.5628,4
9,77,199190557285,-10.5669,-0.1234,-0.0383,-0.0190,0.0610,0.0010,1.1670,6371.5366,6753.9409,6647.6943,6305.3379,11.8596,0.0000,-1.6479,4.0283,0.3052,7.9140,-2.0545,-31.2730,0.0043,-0.0091,-0.0055,0.0000,0.0000,0.0000,0.0000,0.0000,0.0000,0.0000,0.0000,0.0000,0.0000,0.0000,0.0000,0.0000,0.0000,1.0000,0.0000,0.0000,0.0000,-0.1234,-0.0383,0.0000,0.0000,0.0000,0.0000,0.0000,0.0000,-0.0000,-0.0052,-0.0160,0.0107,0.0000,0.0000,-0.5754,0.6637,0.7007,0.6903,0.6573,0.5753,0.5806,0.5862,0.5594,4
10,78,199195485507,-10.5669,-0.1234,-0.0383,-0.0190,0.0610,0.0010,1.1670,6371.5366,6753.9409,6647.6943,6305.3379,11.8685,0.0000,-2.6855,1.3428,1.9531,0.9970,-9.5486,-16.4266,0.0043,-0.0082,-0.0053,0.0000,0.0000,0.0000,0.0000,0.0000,0.0000,0.0000,0.0000,0.0000,0.0000,0.0000,0.0000,0.0000,0.0000,1.0000,0.0000,0.0000,0.0000,-0.1234,-0.0383,0.0000,0.0000,0.0000,0.0000,0.0000,0.0000,-0.0000,-0.0145,-0.0180,0.0100,0.0000,0.0000,-0.5754,0.6637,0.7007,0.6903,0.6573,0.5786,0.5866,0.5821,0.5541,4
11,79,199200487350,-10.5669,-0.1234,-0.0383,-0.0190,0.0610,0.0010,1.1670,6371.5366,6753.9409,6647.6943,6305.3379,11.8755,0.0000,-2.1973,1.7090,0.2441,-2.7329,-17.8098,3.4133,0.0050,-0.0080,-0.0053,0.0000,0.0000,0.0000,0.0000,0.0000,0.0000,0.0000,0.0000,0.0000,0.0000,0.0000,0.0000,0.0000,0.0000,1.0000,0.0000,0.0000,0.0000,-0.1234,-0.0383,0.0000,0.0000,0.0000,0.0000,0.0000,0.0000,-0.0000,-0.0200,-0.0167,0.0107,0.0000,0.0000,-0.5754,0.6637,0.7007,0.6903,0.6573,0.5824,0.5883,0.5791,0.5517,4
12,80,199205922297,-10.5669,-0.1234,-0.0383,-0.0190,0.0610,0.0010,1.1670,6371.5366,6753.9409,6647.6943,6305.3379,11.8833,0.0000,1.2817,-1.1597,0.8545,-7.7443,-23.5394,16.6867,0.0069,-0.0083,-0.0053,0.0000,0.0000,0.0000,0.0000,0.0000,0.0000,0.0000,0.0000,0.0000,0.0000,0.0000,0.0000,0.0000,0.0000,1.0000,0.0000,0.0000,0.0000,-0.1234,-0.0383,0.0000,0.0000,0.0000,0.0000,0.0000,0.0000,-0.0000,-0.0220,-0.0118,0.0109,0.0000,0.0000,-0.5754,0.6637,0.7007,0.6903,0.6573,0.5859,0.5868,0.5757,0.5530,4
13,81,199210894683,-10.5669,-0.1234,-0.0383,-0.0190,0.0610,0.0010,1.1670,6371.5366,6753.9409,6647.6943,6305.3379,11.8915,0.0000,0.6104,-2.3193,-0.9766,-5.3007,-22.3192,21.0309,0.0092,-0.0093,-0.0054,0.0000,0.0000,0.0000,0.0000,0.0000,0.0000,0.0000,0.0000,0.0000,0.0000,0.0000,0.0000,0.0000,0.0000,1.0000,0.0000,0.0000,0.0000,-0.1234,-0.0383,0.0000,0.0000,0.0000,0.0000,0.0000,0.0000,-0.0000,-0.0240,-0.0048,0.0125,0.0000,0.0000,-0.5754,0.6637,0.7007,0.6903,0.6573,0.5912,0.5835,0.5720,0.5547,4
14,82,199215516294,-10.5669,-0.1234,-0.0383,-0.0190,0.0610,0.0010,1.1670,6371.5366,6753.9409,6647.6943,6305.3379,11.8985,0.0000,3.4790,-1.9531,0.3662,-4.7628,-18.0424,16.0089,0.0117,-0.0100,-0.0054,0.0000,0.0000,0.0000,0.0000,0.0000,0.0000,0.0000,0.0000,0.0000,0.0000,0.0000,0.0000,0.0000,0.0000,1.0000,0.0000,0.0000,0.0000,-0.1234,-0.0383,0.0000,0.0000,0.0000,0.0000,0.0000,0.0000,-0.0000,-0.0260,-0.0016,0.0128,0.0000,0.0000,-0.5754,0.6637,0.7007,0.6903,0.6573,0.5940,0.5827,0.5696,0.5552,4
15,83,199220645381,-10.5669,-0.1234,-0.0383,-0.0190,0.0610,0.0010,1.1670,6371.5366,6753.9409,6647.6943,6305.3379,11.9038,0.0000,3.4790,-2.0752,-1.8311,-2.7831,-9.0979,2.8261,0.0137,-0.0106,-0.0056,0.0000,0.0000,0.0000,0.0000,0.0000,0.0000,0.0000,0.0000,0.0000,0.0000,0.0000,0.0000,0.0000,0.0000,1.0000,0.0000,0.0000,0.0000,-0.1234,-0.0383,0.0000,0.0000,0.0000,0.0000,0.0000,0.0000,-0.0000,-0.0280,0.0005,0.0148,0.0000,0.0000,-0.5754,0.6637,0.7007,0.6903,0.6573,0.5970,0.5817,0.5685,0.5542,4
16,84,199225706971,-10.5669,-0.1234,-0.0383,-0.0190,0.0610,0.0010,1.1670,6371.5366,6753.9409,6647.6943,6305.3379,11.9094,0.0000,2.7466,0.3052,-0.0000,-0.2247,0.2757,-12.7770,0.0149,-0.0109,-0.0056,0.0000,0.0000,0.0000,0.0000,0.0000,0.0000,0.0000,0.0000,0.0000,0.0000,0.0000,0.0000,0.0000,0.0000,1.0000,0.0000,0.0000,0.0000,-0.1234,-0.0383,0.0000,0.0000,0.0000,0.0000,0.0000,0.0000,-0.0000,-0.0300,-0.0006,0.0150,0.0000,0.0000,-0.5754,0.6637,0.7007,0.6903,0.6573,0.5976,0.5832,0.5682,0.5525,4
17,85,199230870890,-10.5669,-0.1234,-0.0383,-0.0190,0.0610,0.0010,1.1670,6371.5366,6753.9409,6647.6943,6305.3379,11.9159,0.0000,2.0142,0.3052,-0.6714,0.0406,9.8507,-25.9169,0.0150,-0.0109,-0.0056,0.0000,0.0000,0.0000,0.0000,0.0000,0.0000,0.0000,0.0000,0.0000,0.0000,0.0000,0.0000,0.0000,0.0000,1.0000,0.0000,0.0000,0.0000,-0.1234,-0.0383,0.0000,0.0000,0.0000,0.0000,0.0000,0.0000,-0.0000,-0.0320,-0.0030,0.0156,0.0000,0.0000,-0.5754,0.6637,0.7007,0.6903,0.6573,0.5977,0.5851,0.5687,0.5501,4
18,86,199235552998,-10.5669,-0.1234,-0.0383,-0.0190,0.0610,0.0010,1.1670,6371.5366,6753.9409,6647.6943,6305.3379,11.9220,0.0000,-0.2441,0.2441,0.5493,-1.0568,15.7457,-30.2562,0.0140,-0.0108,-0.0056,0.0000,0.0000,0.0000,0.0000,0.0000,0.0000,0.0000,0.0000,0.0000,0.0000,0.0000,0.0000,0.0000,0.0000,1.0000,0.0000,0.0000,0.0000,-0.1234,-0.0383,0.0000,0.0000,0.0000,0.0000,0.0000,0.0000,-0.0000,-0.0279,-0.0048,0.0152,0.0000,0.0000,-0.5754,0.6637,0.7007,0.6903,0.6573,0.5945,0.5842,0.5714,0.5514,4
19,87,199240554758,-10.5669,-0.1234,-0.0383,-0.0190,0.0610,0.0010,1.1670,6371.5366,6753.9409,6647.6943,6305.3379,11.9275,0.0000,-1.8921,1.1597,0.4272,-1.9295,20.8400,-29.5974,0.0123,-0.0108,-0.0055,0.0000,0.0000,0.0000,0.0000,0.0000,0.0000,0.0000,0.0000,0.0000,0.0000,0.0000,0.0000,0.0000,0.0000,1.0000,0.0000,0.0000,0.0000,-0.1234,-0.0383,0.0000,0.0000,0.0000,0.0000,0.0000,0.0000,-0.0000,-0.0207,-0.0060,0.0148,0.0000,0.0000,-0.5754,0.6637,0.7007,0.6903,0.6573,0.5901,0.5813,0.5754,0.5546,4
20,88,199260496258,-10.4209,-0.2109,-0.0030,-0.0090,0.6310,0.3310,1.1670,6720.1709,6669.2646,6634.9761,6512.9507,11.9326,0.0000,-3.1738,1.0376,0.4272,-3.5960,23.6377,-24.6255,0.0100,-0.0108,-0.0055,0.0000,0.0000,0.0000,0.0000,0.0000,0.0000,0.0000,0.0000,0.0000,0.0000,0.0000,0.0000,0.0000,0.0000,1.0000,0.0000,0.0000,0.0000,-0.2109,-0.0030,0.0000,0.0000,0.0000,0.0000,0.0000,0.0000,-0.0000,-0.0380,0.0380,0.0144,0.0000,0.0000,-0.5595,0.6978,0.6928,0.6895,0.6776,0.6047,0.5523,0.5287,0.5523,4
21,89,199279415224,-10.4209,-0.2109,-0.0030,-0.0090,0.6310,0.3310,1.1670,6803.7446,6498.9199,6357.7637,6498.9199,11.9365,0.0000,-1.9531,-1.5259,-0.2441,2.8548,5.4539,-11.5645,0.0036,-0.0116,-0.0054,0.0000,0.0000,0.0000,0.0000,0.0000,0.0000,0.0000,0.0000,0.0000,0.0000,0.0000,0.0000,0.0000,0.0000,1.0000,0.0000,0.0000,0.0000,-0.2109,-0.0030,0.0000,0.0000,0.0000,0.0000,0.0000,0.0000,-0.0000,-0.0064,0.0318,0.0143,0.0000,0.0000,-0.5595,0.7079,0.6763,0.6626,0.6763,0.5858,0.5396,0.5475,0.5650,4
22,90,199283218499,-10.4209,-0.2109,-0.0030,-0.0090,0.6310,0.3310,1.1670,6803.7446,6498.9199,6357.7637,6498.9199,11.9413,0.0000,0.4272,2.0752,0.7324,6.7999,-15.8919,-19.3386,0.0042,-0.0099,-0.0054,0.0000,0.0000,0.0000,0.0000,0.0000,0.0000,0.0000,0.0000,0.0000,0.0000,0.0000,0.0000,0.0000,0.0000,1.0000,0.0000,0.0000,0.0000,-0.2109,-0.0030,0.0000,0.0000,0.0000,0.0000,0.0000,0.0000,-0.0000,-0.0271,0.0119,0.0138,0.0000,0.0000,-0.5595,0.7079,0.6763,0.6626,0.6763,0.5859,0.5602,0.5469,0.5449,4
23,91,199285713963,-10.4209,-0.2109,-0.0030,-0.0090,0.6310,0.3310,1.1670,6803.7446,6498.9199,6357.7637,6498.9199,11.9461,0.0000,1.0986,1.3428,0.6714,0.8703,-21.1709,-7.8433,0.0079,-0.0085,-0.0053,0.0000,0.0000,0.0000,0.0000,0.0000,0.0000,0.0000,0.0000,0.0000,0.0000,0.0000,0.0000,0.0000,0.0000,1.0000,0.0000,0.0000,0.0000,-0.2109,-0.0030,0.0000,0.0000,0.0000,0.0000,0.0000,0.0000,-0.0000,-0.0440,0.0003,0.0134,0.0000,0.0000,-0.5595,0.7079,0.6763,0.6626,0.6763,0.5883,0.5746,0.5440,0.5309,4
24,92,199290495775,-10.4209,-0.2109,-0.0030,-0.0090,0.6310,0.3310,1.1670,6803.7446,6498.9199,6357.7637,6498.9199,11.9502,0.0000,1.3428,2.0142,-0.6714,-3.7705,-20.9551,0.2888,0.0101,-0.0082,-0.0054,0.0000,0.0000,0.0000,0.0000,0.0000,0.0000,0.0000,0.0000,0.0000,0.0000,0.0000,0.0000,0.0000,0.0000,1.0000,0.0000,0.0000,0.0000,-0.2109,-0.0030,0.0000,0.0000,0.0000,0.0000,0.0000,0.0000,-0.0000,-0.0460,-0.0010,0.0143,0.0000,0.0000,-0.5595,0.7079,0.6763,0.6626,0.6763,0.5891,0.5758,0.5441,0.5289,4
25,93,199295451162,-10.4209,-0.2109,-0.0030,-0.0090,0.6310,0.3310,1.1670,6803.7446,6498.9199,6357.7637,6498.9199,11.9551,0.0000,1.0376,-0.4272,-0.1831,-5.7885,-17.2704,7.5975,0.0122,-0.0086,-0.0054,0.0000,0.0000,0.0000,0.0000,0.0000,0.0000,0.0000,0.0000,0.0000,0.0000,0.0000,0.0000,0.0000,0.0000,1.0000,0.0000,0.0000,0.0000,-0.2109,-0.0030,0.0000,0.0000,0.0000,0.0000,0.0000,0.0000,-0.0000,-0.0480,0.0023,0.0147,0.0000,0.0000,-0.5595,0.7079,0.6763,0.6626,0.6763,0.5920,0.5750,0.5417,0.5292,4
26,94,199300846194,-10.4209,-0.2109,-0.0030,-0.0090,0.6310,0.3310,1.1670,6803.7446,6498.9199,6357.7637,6498.9199,11.9587,0.0000,1.4648,-1.4648,-0.9155,-7.0103,-12.2744,8.6382,0.0140,-0.0093,-0.0055,0.0000,0.0000,0.0000,0.0000,0.0000,0.0000,0.0000,0.0000,0.0000,0.0000,0.0000,0.0000,0.0000,0.0000,1.0000,0.0000,0.0000,0.0000,-0.2109,-0.0030,0.0000,0.0000,0.0000,0.0000,0.0000,0.0000,-0.0000,-0.0500,0.0063,0.0157,0.0000,0.0000,-0.5595,0.7079,0.6763,0.6626,0.6763,0.5954,0.5735,0.5392,0.5298,4
27,95,199305504262,-10.4209,-0.2109,-0.0030,-0.0090,0.6310,0.3310,1.1670,6803.7446,6498.9199,6357.7637,6498.9199,11.9611,0.0000,1.9531,-1.4038,-1.0376,-6.7736,-4.5382,5.4827,0.0154,-0.0101,-0.0056,0.0000,0.0000,0.0000,0.0000,0.0000,0.0000,0.0000,0.0000,0.0000,0.0000,0.0000,0.0000,0.0000,0.0000,1.0000,0.0000,0.0000,0.0000,-0.2109,-0.0030,0.0000,0.0000,0.0000,0.0000,0.0000,0.0000,-0.0000,-0.0520,0.0098,0.0166,0.0000,0.0000,-0.5595,0.7079,0.6763,0.6626,0.6763,0.5986,0.5723,0.5369,0.5301,4
28,96,199310484606,-10.4209,-0.2109,-0.0030,-0.0090,0.6310,0.3310,1.1670,6803.7446,6498.9199,6357.7637,6498.9199,11.9626,0.0000,1.7090,-2.4414,-0.4883,-5.3342,3.1837,-2.3296,0.0160,-0.0110,-0.0057,0.0000,0.0000,0.0000,0.0000,0.0000,0.0000,0.0000,0.0000,0.0000,0.0000,0.0000,0.0000,0.0000,0.0000,1.0000,0.0000,0.0000,0.0000,-0.2109,-0.0030,0.0000,0.0000,0.0000,0.0000,0.0000,0.0000,-0.0000,-0.0540,0.0127,0.0169,0.0000,0.0000,-0.5595,0.7079,0.6763,0.6626,0.6763,0.6013,0.5717,0.5346,0.5304,4
29,97,199315775143,-10.4209,-0.2109,-0.0030,-0.0090,0.6310,0.3310,1.1670,6803.7446,6498.9199,6357.7637,6498.9199,11.9660,0.0000,0.9766,-0.8545,-0.8545,-3.9140,7.8489,-13.6244,0.0158,-0.0116,-0.0058,0.0000,0.0000,0.0000,0.0000,0.0000,0.0000,0.0000,0.0000,0.0000,0.0000,0.0000,0.0000,0.0000,0.0000,1.0000,0.0000,0.0000,0.0000,-0.2109,-0.0030,0.0000,0.0000,0.0000,0.0000,0.0000,0.0000,-0.0000,-0.0556,0.0130,0.0174,0.0000,0.0000,-0.5595,0.7079,0.6763,0.6626,0.6763,0.6024,0.5721,0.5339,0.5295,4
30,98,199320689616,-10.4209,-0.2109,-0.0030,-0.0090,0.6310,0.3310,1.1670,6803.7446,6498.9199,6357.7637,6498.9199,11.9684,0.0000,0.9155,-0.5493,0.7324,-0.9229,13.4395,-21.1741,0.0151,-0.0120,-0.0057,0.0000,0.0000,0.0000,0.0000,0.0000,0.0000,0.0000,0.0000,0.0000,0.0000,0.0000,0.0000,0.0000,0.0000,1.0000,0.0000,0.0000,0.0000,-0.2109,-0.0030,0.0000,0.0000,0.0000,0.0000,0.0000,0.0000,-0.0000,-0.0537,0.0122,0.0166,0.0000,0.0000,-0.5595,0.7079,0.6763,0.6626,0.6763,0.6007,0.5720,0.5348,0.5304,4
31,99,199325718166,-10.4209,-0.2109,-0.0030,-0.0090,0.6310,0.3310,1.1670,6803.7446,6498.9199,6357.7637,6498.9199,11.9715,0.0000,-0.8545,-0.3662,0.3662,-0.9253,15.9998,-25.6877,0.0137,-0.0121,-0.0056,0.0000,0.0000,0.0000,0.0000,0.0000,0.0000,0.0000,0.0000,0.0000,0.0000,0.0000,0.0000,0.0000,0.0000,1.0000,0.0000,0.0000,0.0000,-0.2109,-0.0030,0.0000,0.0000,0.0000,0.0000,0.0000,0.0000,-0.0000,-0.0481,0.0097,0.0161,0.0000,0.0000,-0.5595,0.7079,0.6763,0.6626,0.6763,0.5964,0.5706,0.5386,0.5322,4
32,100,199330511685,-10.4209,-0.2109,-0.0030,-0.0090,0.6310,0.3310,1.1670,6803.7446,6498.9199,6357.7637,6498.9199,11.9742,0.0000,-1.1597,1.3428,0.7935,-1.4083,18.2413,-23.8116,0.0120,-0.0120,-0.0056,0.0000,0.0000,0.0000,0.0000,0.0000,0.0000,0.0000,0.0000,0.0000,0.0000,0.0000,0.0000,0.0000,0.0000,1.0000,0.0000,0.0000,0.0000,-0.2109,-0.0030,0.0000,0.0000,0.0000,0.0000,0.0000,0.0000,-0.0000,-0.0424,0.0070,0.0153,0.0000,0.0000,-0.5595,0.7079,0.6763,0.6626,0.6763,0.5919,0.5695,0.5424,0.5341,4
33,101,199335831721,-10.4209,-0.2109,-0.0030,-0.0090,0.6310,0.3310,1.1670,6803.7446,6498.9199,6357.7637,6498.9199,11.9756,0.0000,-1.4648,1.0376,0.9155,-3.1800,18.3396,-19.4317,0.0101,-0.0120,-0.0055,0.0000,0.0000,0.0000,0.0000,0.0000,0.0000,0.0000,0.0000,0.0000,0.0000,0.0000,0.0000,0.0000,0.0000,1.0000,0.0000,0.0000,0.0000,-0.2109,-0.0030,0.0000,0.0000,0.0000,0.0000,0.0000,0.0000,-0.0000,-0.0369,0.0057,0.0145,0.0000,0.0000,-0.5595,0.7079,0.6763,0.6626,0.6763,0.5880,0.5679,0.5454,0.5366,4
34,102,199340448166,-10.4209,-0.2109,-0.0030,-0.0090,0.6310,0.3310,1.1670,6803.7446,6498.9199,6357.7637,6498.9199,11.9780,0.0000,-2.8076,0.4883,0.7935,-2.5703,18.8527,-10.1467,0.0081,-0.0123,-0.0054,0.0000,0.0000,0.0000,0.0000,0.0000,0.0000,0.0000,0.0000,0.0000,0.0000,0.0000,0.0000,0.0000,0.0000,1.0000,0.0000,0.0000,0.0000,-0.2109,-0.0030,0.0000,0.0000,0.0000,0.0000,0.0000,0.0000,-0.0000,-0.0323,0.0061,0.0139,0.0000,0.0000,-0.5595,0.7079,0.6763,0.6626,0.6763,0.5856,0.5656,0.5472,0.5395,4
35,103,199345565962,-10.4209,-0.2109,-0.0030,-0.0090,0.6310,0.3310,1.1670,6803.7446,6498.9199,6357.7637,6498.9199,11.9809,0.0000,-2.4414,-0.1831,0.6714,-3.2278,13.6624,-1.9859,0.0061,-0.0125,-0.0053,0.0000,0.0000,0.0000,0.0000,0.0000,0.0000,0.0000,0.0000,0.0000,0.0000,0.0000,0.0000,0.0000,0.0000,1.0000,0.0000,0.0000,0.0000,-0.2109,-0.0030,0.0000,0.0000,0.0000,0.0000,0.0000,0.0000,-0.0000,-0.0289,0.0065,0.0134,0.0000,0.0000,-0.5595,0.7079,0.6763,0.6626,0.6763,0.5839,0.5640,0.5485,0.5416,4
36,104,199350788044,-10.4209,-0.2109,-0.0030,-0.0090,0.6310,0.3310,1.1670,6803.7446,6498.9199,6357.7637,6498.9199,11.9836,0.0000,-2.0752,-1.7090,-0.0610,-1.0616,7.8369,2.0074,0.0046,-0.0130,-0.0053,0.0000,0.0000,0.0000,0.0000,0.0000,0.0000,0.0000,0.0000,0.0000,0.0000,0.0000,0.0000,0.0000,0.0000,1.0000,0.0000,0.0000,0.0000,-0.2109,-0.0030,0.0000,0.0000,0.0000,0.0000,0.0000,0.0000,-0.0000,-0.0297,0.0081,0.0136,0.0000,0.0000,-0.5595,0.7079,0.6763,0.6626,0.6763,0.5851,0.5635,0.5474,0.5419,4
37,105,199355398406,-10.4209,-0.2109,-0.0030,-0.0090,0.6310,0.3310,1.1670,6803.7446,6498.9199,6357.7637,6498.9199,11.9858,0.0000,-2.1973,-2.1973,-0.0000,1.0138,2.0257,1.7377,0.0036,-0.0133,-0.0053,0.0000,0.0000,0.0000,0.0000,0.0000,0.0000,0.0000,0.0000,0.0000,0.0000,0.0000,0.0000,0.0000,0.0000,1.0000,0.0000,0.0000,0.0000,-0.2109,-0.0030,0.0000,0.0000,0.0000,0.0000,0.0000,0.0000,-0.0000,-0.0335,0.0082,0.0137,0.0000,0.0000,-0.5595,0.7079,0.6763,0.6626,0.6763,0.5871,0.5653,0.5455,0.5400,4
38,106,199360436081,-10.4209,-0.2109,-0.0030,-0.0090,0.6310,0.3310,1.1670,6803.7446,6498.9199,6357.7637,6498.9199,11.9880,0.0000,-0.7935,-2.0752,-0.8545,7.3498,-3.3275,-5.3156,0.0034,-0.0133,-0.0054,0.0000,0.0000,0.0000,0.0000,0.0000,0.0000,0.0000,0.0000,0.0000,0.0000,0.0000,0.0000,0.0000,0.0000,1.0000,0.0000,0.0000,0.0000,-0.2109,-0.0030,0.0000,0.0000,0.0000,0.0000,0.0000,0.0000,-0.0000,-0.0401,0.0070,0.0145,0.0000,0.0000,-0.5595,0.7079,0.6763,0.6626,0.6763,0.5903,0.5688,0.5432,0.5356,4
39,107,199365891194,-10.4209,-0.2109,-0.0030,-0.0090,0.6310,0.3310,1.1670,6803.7446,6498.9199,6357.7637,6498.9199,11.9901,0.0000,-0.6104,-0.9155,0.2441,9.1382,-9.0451,-17.6463,0.0037,-0.0127,-0.0054,0.0000,0.0000,0.0000,0.0000,0.0000,0.0000,0.0000,0.0000,0.0000,0.0000,0.0000,0.0000,0.0000,0.0000,1.0000,0.0000,0.0000,0.0000,-0.2109,-0.0030,0.0000,0.0000,0.0000,0.0000,0.0000,0.0000,-0.0000,-0.0479,0.0018,0.0145,0.0000,0.0000,-0.5595,0.7079,0.6763,0.6626,0.6763,0.5916,0.5753,0.5419,0.5292,4
40,108,199370603967,-10.4209,-0.2109,-0.0030,-0.0090,0.6310,0.3310,1.1670,6803.7446,6498.9199,6357.7637,6498.9199,11.9911,0.0000,-0.1221,-0.0610,-0.3662,11.7539,-13.7152,-30.3183,0.0045,-0.0118,-0.0054,0.0000,0.0000,0.0000,0.0000,0.0000,0.0000,0.0000,0.0000,0.0000,0.0000,0.0000,0.0000,0.0000,0.0000,1.0000,0.0000,0.0000,0.0000,-0.2109,-0.0030,0.0000,0.0000,0.0000,0.0000,0.0000,0.0000,-0.0000,-0.0568,-0.0034,0.0150,0.0000,0.0000,-0.5595,0.7079,0.6763,0.6626,0.6763,0.5937,0.5821,0.5403,0.5219,4
41,109,199375628309,-10.4209,-0.2109,-0.0030,-0.0090,0.6310,0.3310,1.1670,6803.7446,6498.9199,6357.7637,6498.9199,11.9938,0.0000,0.6714,1.8921,0.7324,9.8387,-17.8146,-40.3074,0.0059,-0.0105,-0.0054,0.0000,0.0000,0.0000,0.0000,0.0000,0.0000,0.0000,0.0000,0.0000,0.0000,0.0000,0.0000,0.0000,0.0000,1.0000,0.0000,0.0000,0.0000,-0.2109,-0.0030,0.0000,0.0000,0.0000,0.0000,0.0000,0.0000,-0.0000,-0.0661,-0.0098,0.0146,0.0000,0.0000,-0.5595,0.7079,0.6763,0.6626,0.6763,0.5949,0.5901,0.5386,0.5143,4
42,110,199380593279,-10.4209,-0.2109,-0.0030,-0.0090,0.6310,0.3310,1.1670,6803.7446,6498.9199,6357.7637,6498.9199,11.9962,0.0000,0.4883,2.3193,-0.0000,9.2984,-18.4595,-43.6944,0.0076,-0.0093,-0.0054,0.0000,0.0000,0.0000,0.0000,0.0000,0.0000,0.0000,0.0000,0.0000,0.0000,0.0000,0.0000,0.0000,0.0000,1.0000,0.0000,0.0000,0.0000,-0.2109,-0.0030,0.0000,0.0000,0.0000,0.0000,0.0000,0.0000,-0.0000,-0.0748,-0.0133,0.0148,0.0000,0.0000,-0.5595,0.7079,0.6763,0.6626,0.6763,0.5976,0.5962,0.5361,0.5080,4
43,111,199385923190,-10.4209,-0.2109,-0.0030,-0.0090,0.6310,0.3310,1.1670,6803.7446,6498.9199,6357.7637,6498.9199,11.9974,0.0000,0.1221,1.4038,0.5493,3.4310,-19.5071,-38.6270,0.0094,-0.0082,-0.0054,0.0000,0.0000,0.0000,0.0000,0.0000,0.0000,0.0000,0.0000,0.0000,0.0000,0.0000,0.0000,0.0000,0.0000,1.0000,0.0000,0.0000,0.0000,-0.2109,-0.0030,0.0000,0.0000,0.0000,0.0000,0.0000,0.0000,-0.0000,-0.0811,-0.0151,0.0146,0.0000,0.0000,-0.5595,0.7079,0.6763,0.6626,0.6763,0.5998,0.6003,0.5337,0.5041,4
44,112,199390503261,-10.4209,-0.2109,-0.0030,-0.0090,0.6310,0.3310,1.1670,6803.7446,6498.9199,6357.7637,6498.9199,11.9976,0.0000,0.0000,2.2583,-0.3662,-0.2893,-17.0331,-24.2293,0.0112,-0.0076,-0.0054,0.0000,0.0000,0.0000,0.0000,0.0000,0.0000,0.0000,0.0000,0.0000,0.0000,0.0000,0.0000,0.0000,0.0000,1.0000,0.0000,0.0000,0.0000,-0.2109,-0.0030,0.0000,0.0000,0.0000,0.0000,0.0000,0.0000,-0.0000,-0.0860,-0.0133,0.0150,0.0000,0.0000,-0.5595,0.7079,0.6763,0.6626,0.6763,0.6033,0.6016,0.5307,0.5023,4
45,113,199395435732,-10.4209,-0.2109,-0.0030,-0.0090,0.6310,0.3310,1.1670,6803.7446,6498.9199,6357.7637,6498.9199,11.9984,0.0000,1.0376,0.3662,-0.0000,-3.2134,-14.5255,-6.5162,0.0130,-0.0076,-0.0054,0.0000,0.0000,0.0000,0.0000,0.0000,0.0000,0.0000,0.0000,0.0000,0.0000,0.0000,0.0000,0.0000,0.0000,1.0000,0.0000,0.0000,0.0000,-0.2109,-0.0030,0.0000,0.0000,0.0000,0.0000,0.0000,0.0000,-0.0000,-0.0880,-0.0089,0.0151,0.0000,0.0000,-0.5595,0.7079,0.6763,0.6626,0.6763,0.6066,0.6004,0.5275,0.5035,4
46,114,199400757852,-10.4209,-0.2109,-0.0030,-0.0090,0.6310,0.3310,1.1670,6803.7446,6498.9199,6357.7637,6498.9199,11.9988,0.0000,1.0986,0.7324,-0.7935,-5.7933,-9.7500,9.6454,0.0144,-0.0078,-0.0055,0.0000,0.0000,0.0000,0.0000,0.0000,0.0000,0.0000,0.0000,0.0000,0.0000,0.0000,0.0000,0.0000,0.0000,1.0000,0.0000,0.0000,0.0000,-0.2109,-0.0030,0.0000,0.0000,0.0000,0.0000,0.0000,0.0000,-0.0000,-0.0890,-0.0043,0.0158,0.0000,0.0000,-0.5595,0.7079,0.6763,0.6626,0.6763,0.6097,0.5982,0.5250,0.5049,4
47,115,199405479833,-10.4209,-0.2109,-0.0030,-0.0090,0.6310,0.3310,1.1670,6803.7446,6498.9199,6357.7637,6498.9199,12.0000,0.0000,1.9531,-1.1597,-0.0610,-8.0718,-6.2666,21.6014,0.0156,-0.0085,-0.0055,0.0000,0.0000,0.0000,0.0000,0.0000,0.0000,0.0000,0.0000,0.0000,0.0000,0.0000,0.0000,0.0000,0.0000,1.0000,0.0000,0.0000,0.0000,-0.2109,-0.0030,0.0000,0.0000,0.0000,0.0000,0.0000,0.0000,-0.0000,-0.0875,0.0016,0.0159,0.0000,0.0000,-0.5595,0.7079,0.6763,0.6626,0.6763,0.6120,0.5945,0.5229,0.5085,4
48,116,199410434803,-10.4209,-0.2109,-0.0030,-0.0090,0.6310,0.3310,1.1670,6803.7446,6498.9199,6357.7637,6498.9199,12.0025,0.0000,1.7700,-0.1221,-0.6714,-8.7030,2.1576,26.9814,0.0164,-0.0093,-0.0056,0.0000,0.0000,0.0000,0.0000,0.0000,0.0000,0.0000,0.0000,0.0000,0.0000,0.0000,0.0000,0.0000,0.0000,1.0000,0.0000,0.0000,0.0000,-0.2109,-0.0030,0.0000,0.0000,0.0000,0.0000,0.0000,0.0000,-0.0000,-0.0847,0.0065,0.0164,0.0000,0.0000,-0.5595,0.7079,0.6763,0.6626,0.6763,0.6132,0.5904,0.5221,0.5122,4
49,117,199415505185,-10.4209,-0.2109,-0.0030,-0.0090,0.6310,0.3310,1.1670,6803.7446,6498.9199,6357.7637,6498.9199,12.0034,0.0000,1.6479,-0.5493,-0.3662,-9.1812,9.1530,25.7760,0.0164,-0.0102,-0.0056,0.0000,0.0000,0.0000,0.0000,0.0000,0.0000,0.0000,0.0000,0.0000,0.0000,0.0000,0.0000,0.0000,0.0000,1.0000,0.0000,0.0000,0.0000,-0.2109,-0.0030,0.0000,0.0000,0.0000,0.0000,0.0000,0.0000,-0.0000,-0.0778,0.0105,0.0166,0.0000,0.0000,-0.5595,0.7079,0.6763,0.6626,0.6763,0.6119,0.5848,0.5236,0.5175,4
50,118,199421029711,-10.4209,-0.2109,-0.0030,-0.0090,0.6310,0.3310,1.1670,6803.7446,6498.9199,6357.7637,6498.9199,12.0044,0.0000,1.4648,-1.2207,0.1221,-9.3486,14.5590,17.1784,0.0157,-0.0112,-0.0056,0.0000,0.0000,0.0000,0.0000,0.0000,0.0000,0.0000,0.0000,0.0000,0.0000,0.0000,0.0000,0.0000,0.0000,1.0000,0.0000,0.0000,0.0000,-0.2109,-0.0030,0.0000,0.0000,0.0000,0.0000,0.0000,0.0000,-0.0000,-0.0689,0.0141,0.0163,0.0000,0.0000,-0.5595,0.7079,0.6763,0.6626,0.6763,0.6091,0.5787,0.5262,0.5239,4
51,119,199425669030,-10.4209,-0.2109,-0.0030,-0.0090,0.6310,0.3310,1.1670,6803.7446,6498.9199,6357.7637,6498.9199,12.0042,0.0000,0.0000,-0.4883,0.1221,-7.7036,19.7109,5.5233,0.0143,-0.0122,-0.0056,0.0000,0.0000,0.0000,0.0000,0.0000,0.0000,0.0000,0.0000,0.0000,0.0000,0.0000,0.0000,0.0000,0.0000,1.0000,0.0000,0.0000,0.0000,-0.2109,-0.0030,0.0000,0.0000,0.0000,0.0000,0.0000,0.0000,-0.0000,-0.0587,0.0162,0.0160,0.0000,0.0000,-0.5595,0.7079,0.6763,0.6626,0.6763,0.6050,0.5727,0.5300,0.5302,4
52,120,199430634125,-10.4209,-0.2109,-0.0030,-0.0090,0.6310,0.3310,1.1670,6803.7446,6498.9199,6357.7637,6498.9199,12.0044,0.0000,-0.3662,0.0610,0.9766,-5.0784,18.3204,-4.3346,0.0124,-0.0129,-0.0055,0.0000,0.0000,0.0000,0.0000,0.0000,0.0000,0.0000,0.0000,0.0000,0.0000,0.0000,0.0000,0.0000,0.0000,1.0000,0.0000,0.0000,0.0000,-0.2109,-0.0030,0.0000,0.0000,0.0000,0.0000,0.0000,0.0000,-0.0000,-0.0482,0.0164,0.0151,0.0000,0.0000,-0.5595,0.7079,0.6763,0.6626,0.6763,0.5993,0.5678,0.5347,0.5361,4
53,121,199435806209,-10.4209,-0.2109,-0.0030,-0.0090,0.6310,0.3310,1.1670,6803.7446,6498.9199,6357.7637,6498.9199,12.0051,0.0000,-1.4038,-0.0610,0.6714,-2.9480,17.5964,-11.5406,0.0105,-0.0134,-0.0054,0.0000,0.0000,0.0000,0.0000,0.0000,0.0000,0.0000,0.0000,0.0000,0.0000,0.0000,0.0000,0.0000,0.0000,1.0000,0.0000,0.0000,0.0000,-0.2109,-0.0030,0.0000,0.0000,0.0000,0.0000,0.0000,0.0000,-0.0000,-0.0410,0.0151,0.0144,0.0000,0.0000,-0.5595,0.7079,0.6763,0.6626,0.6763,0.5947,0.5652,0.5386,0.5393,4
54,122,199440464569,-10.4209,-0.2109,-0.0030,-0.0090,0.6310,0.3310,1.1670,6803.7446,6498.9199,6357.7637,6498.9199,12.0049,0.0000,-2.4414,0.0000,1.2817,-1.8625,15.4101,-16.3144,0.0086,-0.0137,-0.0053,0.0000,0.0000,0.0000,0.0000,0.0000,0.0000,0.0000,0.0000,0.0000,0.0000,0.0000,0.0000,0.0000,0.0000,1.0000,0.0000,0.0000,0.0000,-0.2109,-0.0030,0.0000,0.0000,0.0000,0.0000,0.0000,0.0000,-0.0000,-0.0358,0.0128,0.0134,0.0000,0.0000,-0.5595,0.7079,0.6763,0.6626,0.6763,0.5905,0.5642,0.5419,0.5413,4
55,123,199445535700,-10.4209,-0.2109,-0.0030,-0.0290,0.4110,0.1410,1.1670,6803.7446,6498.9199,6357.7637,6498.9199,12.0054,0.0000,-2.5024,0.0610,0.4272,1.2218,11.1764,-18.0735,0.0069,-0.0138,-0.0052,0.0000,0.0000,0.0000,0.0000,0.0000,0.0000,0.0000,0.0000,0.0000,0.0000,0.0000,0.0000,0.0000,0.0000,1.0000,0.0000,0.0000,0.0000,-0.2109,-0.0030,0.0000,0.0000,0.0000,0.0000,0.0000,0.0000,-0.0000,-0.0332,0.0106,0.0131,0.0000,0.0000,-0.5595,0.7079,0.6763,0.6626,0.6763,0.5880,0.5642,0.5441,0.5416,4
56,124,199450402425,-10.4209,-0.2109,-0.0030,-0.0290,0.4110,0.1410,1.1670,6686.8213,6498.9199,6357.7637,6498.9199,12.0051,0.0000,-2.4414,-1.2817,0.6104,2.8835,5.6793,-19.1643,0.0056,-0.0138,-0.0052,0.0000,0.0000,0.0000,0.0000,0.0000,0.0000,0.0000,0.0000,0.0000,0.0000,0.0000,0.0000,0.0000,0.0000,1.0000,0.0000,0.0000,0.0000,-0.2109,-0.0030,0.0000,0.0000,0.0000,0.0000,0.0000,0.0000,-0.0000,-0.0339,0.0080,0.0128,0.0000,0.0000,-0.5595,0.7079,0.6763,0.6626,0.6763,0.5868,0.5660,0.5449,0.5401,4
57,125,199470083354,-10.4568,-0.1932,-0.0135,-0.0290,0.4110,0.1410,1.1670,6686.8213,6534.3716,6420.5630,6391.8833,12.0044,0.0000,-0.9155,-1.8921,-0.6714,8.6265,-4.6532,-30.0104,0.0047,-0.0131,-0.0053,0.0000,0.0000,0.0000,0.0000,0.0000,0.0000,0.0000,0.0000,0.0000,0.0000,0.0000,0.0000,0.0000,0.0000,1.0000,0.0000,0.0000,0.0000,-0.1932,-0.0135,0.0000,0.0000,0.0000,0.0000,0.0000,0.0000,-0.0000,0.0708,-0.0621,0.0139,0.0000,0.0000,-0.5630,0.6942,0.6795,0.6685,0.6657,0.5034,0.5517,0.6364,0.5604,4
58,126,199472434158,-10.4568,-0.1932,-0.0135,-0.0290,0.4110,0.1410,1.1670,6686.8213,6534.3716,6420.5630,6391.8833,12.0044,0.0000,0.2441,-1.0986,-0.6714,12.4162,-11.3442,-46.5993,0.0060,-0.0112,-0.0054,0.0000,0.0000,0.0000,0.0000,0.0000,0.0000,0.0000,0.0000,0.0000,0.0000,0.0000,0.0000,0.0000,0.0000,1.0000,0.0000,0.0000,0.0000,-0.1932,-0.0135,0.0000,0.0000,0.0000,0.0000,0.0000,0.0000,-0.0000,0.0239,-0.0544,0.0154,0.0000,0.0000,-0.5630,0.6942,0.6795,0.6685,0.6657,0.5315,0.5705,0.6098,0.5401,4
59,127,199475529259,-10.4568,-0.1932,-0.0135,-0.0290,0.4110,0.1410,1.1670,6686.8213,6534.3716,6420.5630,6391.8833,12.0049,0.0000,0.6714,0.7324,-0.7935,13.5351,-11.9843,-50.2607,0.0071,-0.0099,-0.0055,0.0000,0.0000,0.0000,0.0000,0.0000,0.0000,0.0000,0.0000,0.0000,0.0000,0.0000,0.0000,0.0000,0.0000,1.0000,0.0000,0.0000,0.0000,-0.1932,-0.0135,0.0000,0.0000,0.0000,0.0000,0.0000,0.0000,-0.0000,-0.0078,-0.0455,0.0160,0.0000,0.0000,-0.5630,0.6942,0.6795,0.6685,0.6657,0.5521,0.5816,0.5898,0.5283,4
60,128,199480486229,-10.4568,-0.1932,-0.0135,-0.0290,0.4110,0.1410,1.1670,6686.8213,6534.3716,6420.5630,6391.8833,12.0061,0.0000,0.6714,1.4038,-0.2441,8.3779,-12.3343,-44.7685,0.0083,-0.0084,-0.0055,0.0000,0.0000,0.0000,0.0000,0.0000,0.0000,0.0000,0.0000,0.0000,0.0000,0.0000,0.0000,0.0000,0.0000,1.0000,0.0000,0.0000,0.0000,-0.1932,-0.0135,0.0000,0.0000,0.0000,0.0000,0.0000,0.0000,-0.0000,-0.0300,-0.0406,0.0162,0.0000,0.0000,-0.5630,0.6942,0.6795,0.6685,0.6657,0.5658,0.5902,0.5764,0.5196,4
61,129,199495214397,-10.4568,-0.1932,-0.0135,-0.0290,0.4110,0.1410,1.1670,6340.3608,6685.0400,6605.1934,6268.2168,12.0056,0.0000,-1.1597,1.5259,0.3662,7.3761,-11.8069,-29.5569,0.0093,-0.0074,-0.0055,0.0000,0.0000,0.0000,0.0000,0.0000,0.0000,0.0000,0.0000,0.0000,0.0000,0.0000,0.0000,0.0000,0.0000,1.0000,0.0000,0.0000,0.0000,-0.1932,-0.0135,0.0000,0.0000,0.0000,0.0000,0.0000,0.0000,-0.0000,-0.0446,-0.0343,0.0159,0.0000,0.0000,-0.5630,0.6607,0.6941,0.6863,0.6537,0.5761,0.5945,0.5658,0.5156,4
62,130,199497569033,-10.4568,-0.1932,-0.0135,-0.0290,0.4110,0.1410,1.1670,6340.3608,6685.0400,6605.1934,6268.2168,12.0049,0.0000,-0.4272,-0.7935,0.3662,-6.0419,-10.1120,19.6107,0.0113,-0.0066,-0.0055,0.0000,0.0000,0.0000,0.0000,0.0000,0.0000,0.0000,0.0000,0.0000,0.0000,0.0000,0.0000,0.0000,0.0000,1.0000,0.0000,0.0000,0.0000,-0.1932,-0.0135,0.0000,0.0000,0.0000,0.0000,0.0000,0.0000,-0.0000,-0.0604,-0.0291,0.0156,0.0000,0.0000,-0.5630,0.6607,0.6941,0.6863,0.6537,0.5864,0.6000,0.5551,0.5104,4
63,131,199500486893,-10.4568,-0.1932,-0.0135,-0.0290,0.4110,0.1410,1.1670,6340.3608,6685.0400,6605.1934,6268.2168,12.0049,0.0000,1.1597,1.1597,1.4038,-12.6314,-10.4212,43.5202,0.0124,-0.0070,-0.0054,0.0000,0.0000,0.0000,0.0000,0.0000,0.0000,0.0000,0.0000,0.0000,0.0000,0.0000,0.0000,0.0000,0.0000,1.0000,0.0000,0.0000,0.0000,-0.1932,-0.0135,0.0000,0.0000,0.0000,0.0000,0.0000,0.0000,-0.0000,-0.0660,-0.0176,0.0146,0.0000,0.0000,-0.5630,0.6607,0.6941,0.6863,0.6537,0.5945,0.5975,0.5460,0.5139,4
64,132,199505819262,-10.4568,-0.1932,-0.0135,-0.0290,0.4110,0.1410,1.1670,6340.3608,6685.0400,6605.1934,6268.2168,12.0063,0.0000,2.1362,-0.1831,-0.9766,-15.0749,-8.2037,58.2115,0.0137,-0.0083,-0.0055,0.0000,0.0000,0.0000,0.0000,0.0000,0.0000,0.0000,0.0000,0.0000,0.0000,0.0000,0.0000,0.0000,0.0000,1.0000,0.0000,0.0000,0.0000,-0.1932,-0.0135,0.0000,0.0000,0.0000,0.0000,0.0000,0.0000,-0.0000,-0.0708,-0.0049,0.0155,0.0000,0.0000,-0.5630,0.6607,0.6941,0.6863,0.6537,0.6036,0.5931,0.5378,0.5174,4
65,133,199510386959,-10.4568,-0.1932,-0.0135,-0.0290,0.4110,0.1410,1.1670,6340.3608,6685.0400,6605.1934,6268.2168,12.0068,0.0000,1.3428,-0.9155,0.8545,-17.3152,-4.7875,61.3837,0.0147,-0.0099,-0.0054,0.0000,0.0000,0.0000,0.0000,0.0000,0.0000,0.0000,0.0000,0.0000,0.0000,0.0000,0.0000,0.0000,0.0000,1.0000,0.0000,0.0000,0.0000,-0.1932,-0.0135,0.0000,0.0000,0.0000,0.0000,0.0000,0.0000,-0.0000,-0.0726,0.0058,0.0149,0.0000,0.0000,-0.5630,0.6607,0.6941,0.6863,0.6537,0.6096,0.5889,0.5312,0.5221,4
66,134,199515372220,-10.4568,-0.1932,-0.0135,-0.0290,0.4110,0.1410,1.1670,6340.3608,6685.0400,6605.1934,6268.2168,12.0075,0.0000,3.2959,-1.5259,-0.7935,-16.2154,0.6808,50.8575,0.0155,-0.0118,-0.0055,0.0000,0.0000,0.0000,0.0000,0.0000,0.0000,0.0000,0.0000,0.0000,0.0000,0.0000,0.0000,0.0000,0.0000,1.0000,0.0000,0.0000,0.0000,-0.1932,-0.0135,0.0000,0.0000,0.0000,0.0000,0.0000,0.0000,-0.0000,-0.0731,0.0150,0.0156,0.0000,0.0000,-0.5630,0.6607,0.6941,0.6863,0.6537,0.6148,0.5842,0.5267,0.5261,4
67,135,199521144609,-10.4568,-0.1932,-0.0135,-0.0290,0.4110,0.1410,1.1670,6340.3608,6685.0400,6605.1934,6268.2168,12.0080,0.0000,1.9531,-1.7700,0.6714,-11.8400,7.8776,19.7969,0.0157,-0.0135,-0.0055,0.0000,0.0000,0.0000,0.0000,0.0000,0.0000,0.0000,0.0000,0.0000,0.0000,0.0000,0.0000,0.0000,0.0000,1.0000,0.0000,0.0000,0.0000,-0.1932,-0.0135,0.0000,0.0000,0.0000,0.0000,0.0000,0.0000,-0.0000,-0.0695,0.0210,0.0151,0.0000,0.0000,-0.5630,0.6607,0.6941,0.6863,0.6537,0.6158,0.5797,0.5253,0.5311,4
68,136,199525687391,-10.4568,-0.1932,-0.0135,-0.0290,0.4110,0.1410,1.1670,6340.3608,6685.0400,6605.1934,6268.2168,12.0080,0.0000,1.9531,-0.6714,-0.8545,-7.5769,11.4856,-12.7460,0.0152,-0.0148,-0.0055,0.0000,0.0000,0.0000,0.0000,0.0000,0.0000,0.0000,0.0000,0.0000,0.0000,0.0000,0.0000,0.0000,0.0000,1.0000,0.0000,0.0000,0.0000,-0.1932,-0.0135,0.0000,0.0000,0.0000,0.0000,0.0000,0.0000,-0.0000,-0.0625,0.0218,0.0157,0.0000,0.0000,-0.5630,0.6607,0.6941,0.6863,0.6537,0.6130,0.5754,0.5287,0.5348,4
69,137,199530427705,-10.4568,-0.1932,-0.0135,-0.0290,0.4110,0.1410,1.1670,6340.3608,6685.0400,6605.1934,6268.2168,12.0083,0.0000,0.7935,0.0000,-0.6714,-0.1841,16.4242,-42.8996,0.0141,-0.0155,-0.0056,0.0000,0.0000,0.0000,0.0000,0.0000,0.0000,0.0000,0.0000,0.0000,0.0000,0.0000,0.0000,0.0000,0.0000,1.0000,0.0000,0.0000,0.0000,-0.1932,-0.0135,0.0000,0.0000,0.0000,0.0000,0.0000,0.0000,-0.0000,-0.0546,0.0194,0.0161,0.0000,0.0000,-0.5630,0.6607,0.6941,0.6863,0.6537,0.6080,0.5725,0.5340,0.5373,4
70,138,199535374467,-10.4568,-0.1932,-0.0135,-0.0290,0.4110,0.1410,1.1670,6340.3608,6685.0400,6605.1934,6268.2168,12.0092,0.0000,-1.8311,-0.1831,1.5259,6.5799,17.6636,-62.3694,0.0123,-0.0154,-0.0054,0.0000,0.0000,0.0000,0.0000,0.0000,0.0000,0.0000,0.0000,0.0000,0.0000,0.0000,0.0000,0.0000,0.0000,1.0000,0.0000,0.0000,0.0000,-0.1932,-0.0135,0.0000,0.0000,0.0000,0.0000,0.0000,0.0000,-0.0000,-0.0446,0.0133,0.0147,0.0000,0.0000,-0.5630,0.6607,0.6941,0.6863,0.6537,0.5993,0.5713,0.5414,0.5400,4
71,139,199540740584,-10.4568,-0.1932,-0.0135,-0.0290,0.4110,0.1410,1.1670,6340.3608,6685.0400,6605.1934,6268.2168,12.0107,0.0000,-3.9673,0.2441,-1.5869,6.5608,18.7016,-67.4989,0.0102,-0.0147,-0.0055,0.0000,0.0000,0.0000,0.0000,0.0000,0.0000,0.0000,0.0000,0.0000,0.0000,0.0000,0.0000,0.0000,0.0000,1.0000,0.0000,0.0000,0.0000,-0.1932,-0.0135,0.0000,0.0000,0.0000,0.0000,0.0000,0.0000,-0.0000,-0.0356,0.0046,0.0157,0.0000,0.0000,-0.5630,0.6607,0.6941,0.6863,0.6537,0.5910,0.5706,0.5507,0.5396,4
72,140,199545461774,-10.4568,-0.1932,-0.0135,-0.0290,0.4110,0.1410,1.1670,6340.3608,6685.0400,6605.1934,6268.2168,12.0112,0.0000,-3.8452,1.5869,3.1128,10.5775,12.2312,-70.1006,0.0080,-0.0138,-0.0052,0.0000,0.0000,0.0000,0.0000,0.0000,0.0000,0.0000,0.0000,0.0000,0.0000,0.0000,0.0000,0.0000,0.0000,1.0000,0.0000,0.0000,0.0000,-0.1932,-0.0135,0.0000,0.0000,0.0000,0.0000,0.0000,0.0000,-0.0000,-0.0288,-0.0020,0.0131,0.0000,0.0000,-0.5630,0.6607,0.6941,0.6863,0.6537,0.5829,0.5718,0.5562,0.5410,4
73,141,199550381829,-10.4568,-0.1932,-0.0135,-0.0290,0.4110,0.1410,1.1670,6340.3608,6685.0400,6605.1934,6268.2168,12.0116,0.0000,-4.3945,0.7935,-2.8687,11.0414,10.4428,-56.8247,0.0064,-0.0126,-0.0055,0.0000,0.0000,0.0000,0.0000,0.0000,0.0000,0.0000,0.0000,0.0000,0.0000,0.0000,0.0000,0.0000,0.0000,1.0000,0.0000,0.0000,0.0000,-0.1932,-0.0135,0.0000,0.0000,0.0000,0.0000,0.0000,0.0000,-0.0000,-0.0275,-0.0087,0.0154,0.0000,0.0000,-0.5630,0.6607,0.6941,0.6863,0.6537,0.5801,0.5733,0.5613,0.5372,4
74,142,199555676116,-10.4568,-0.1932,-0.0135,-0.0290,0.4110,0.1410,1.1670,6340.3608,6685.0400,6605.1934,6268.2168,12.0129,0.0000,-2.9907,-0.0610,3.5400,10.8740,3.0926,-39.2238,0.0051,-0.0115,-0.0052,0.0000,0.0000,0.0000,0.0000,0.0000,0.0000,0.0000,0.0000,0.0000,0.0000,0.0000,0.0000,0.0000,0.0000,1.0000,0.0000,0.0000,0.0000,-0.1932,-0.0135,0.0000,0.0000,0.0000,0.0000,0.0000,0.0000,-0.0000,-0.0283,-0.0129,0.0127,0.0000,0.0000,-0.5630,0.6607,0.6941,0.6863,0.6537,0.5770,0.5773,0.5616,0.5360,4
75,143,199560395806,-10.4568,-0.1932,-0.0135,-0.0290,0.4110,0.1410,1.1670,6340.3608,6685.0400,6605.1934,6268.2168,12.0131,0.0000,-2.2583,-0.3052,-3.9062,8.5692,-1.7716,-23.2984,0.0046,-0.0104,-0.0055,0.0000,0.0000,0.0000,0.0000,0.0000,0.0000,0.0000,0.0000,0.0000,0.0000,0.0000,0.0000,0.0000,0.0000,1.0000,0.0000,0.0000,0.0000,-0.1932,-0.0135,0.0000,0.0000,0.0000,0.0000,0.0000,0.0000,-0.0000,-0.0336,-0.0156,0.0159,0.0000,0.0000,-0.5630,0.6607,0.6941,0.6863,0.6537,0.5799,0.5797,0.5619,0.5304,4
76,144,199565461646,-10.4568,-0.1932,-0.0135,-0.0290,0.4110,0.1410,1.1670,6340.3608,6685.0400,6605.1934,6268.2168,12.0141,0.0000,-0.8545,0.6714,3.2349,7.1991,-9.4743,-8.6477,0.0047,-0.0095,-0.0052,0.0000,0.0000,0.0000,0.0000,0.0000,0.0000,0.0000,0.0000,0.0000,0.0000,0.0000,0.0000,0.0000,0.0000,1.0000,0.0000,0.0000,0.0000,-0.1932,-0.0135,0.0000,0.0000,0.0000,0.0000,0.0000,0.0000,-0.0000,-0.0408,-0.0166,0.0134,0.0000,0.0000,-0.5630,0.6607,0.6941,0.6863,0.6537,0.5818,0.5850,0.5575,0.5276,4
77,145,199570440574,-10.4568,-0.1932,-0.0135,-0.0290,0.4110,0.1410,1.1670,6340.3608,6685.0400,6605.1934,6268.2168,12.0153,0.0000,1.0986,-1.3428,-2.9907,4.4137,-12.6699,-0.9667,0.0057,-0.0089,-0.0055,0.0000,0.0000,0.0000,0.0000,0.0000,0.0000,0.0000,0.0000,0.0000,0.0000,0.0000,0.0000,0.0000,0.0000,1.0000,0.0000,0.0000,0.0000,-0.1932,-0.0135,0.0000,0.0000,0.0000,0.0000,0.0000,0.0000,-0.0000,-0.0514,-0.0153,0.0159,0.0000,0.0000,-0.5630,0.6607,0.6941,0.6863,0.6537,0.5890,0.5884,0.5529,0.5217,4
78,146,199575865063,-10.4568,-0.1932,-0.0135,-0.0290,0.4110,0.1410,1.1670,6340.3608,6685.0400,6605.1934,6268.2168,12.0153,0.0000,1.4648,0.7324,2.6855,1.7119,-13.8398,7.6094,0.0071,-0.0084,-0.0053,0.0000,0.0000,0.0000,0.0000,0.0000,0.0000,0.0000,0.0000,0.0000,0.0000,0.0000,0.0000,0.0000,0.0000,1.0000,0.0000,0.0000,0.0000,-0.1932,-0.0135,0.0000,0.0000,0.0000,0.0000,0.0000,0.0000,-0.0000,-0.0608,-0.0139,0.0139,0.0000,0.0000,-0.5630,0.6607,0.6941,0.6863,0.6537,0.5934,0.5933,0.5465,0.5186,4
79,147,199580419136,-10.4568,-0.1932,-0.0135,-0.0290,0.4110,0.1410,1.1670,6340.3608,6685.0400,6605.1934,6268.2168,12.0150,0.0000,1.7700,1.2207,-0.9766,-1.3772,-14.0052,14.8011,0.0086,-0.0081,-0.0054,0.0000,0.0000,0.0000,0.0000,0.0000,0.0000,0.0000,0.0000,0.0000,0.0000,0.0000,0.0000,0.0000,0.0000,1.0000,0.0000,0.0000,0.0000,-0.1932,-0.0135,0.0000,0.0000,0.0000,0.0000,0.0000,0.0000,-0.0000,-0.0683,-0.0116,0.0149,0.0000,0.0000,-0.5630,0.6607,0.6941,0.6863,0.6537,0.5987,0.5955,0.5421,0.5156,4
80,148,199585483518,-10.4568,-0.1932,-0.0135,-0.0290,0.4110,0.1410,1.1670,6340.3608,6685.0400,6605.1934,6268.2168,12.0148,0.0000,1.8311,1.1597,1.4038,-7.1776,-13.0966,22.3270,0.0101,-0.0082,-0.0053,0.0000,0.0000,0.0000,0.0000,0.0000,0.0000,0.0000,0.0000,0.0000,0.0000,0.0000,0.0000,0.0000,0.0000,1.0000,0.0000,0.0000,0.0000,-0.1932,-0.0135,0.0000,0.0000,0.0000,0.0000,0.0000,0.0000,-0.0000,-0.0737,-0.0082,0.0140,0.0000,0.0000,-0.5630,0.6607,0.6941,0.6863,0.6537,0.6027,0.5969,0.5372,0.5150,4
81,149,199590709016,-10.4568,-0.1932,-0.0135,-0.0290,0.4110,0.1410,1.1670,6340.3608,6685.0400,6605.1934,6268.2168,12.0155,0.0000,0.8545,1.2207,0.6714,-8.5285,-10.4020,28.9076,0.0115,-0.0088,-0.0052,0.0000,0.0000,0.0000,0.0000,0.0000,0.0000,0.0000,0.0000,0.0000,0.0000,0.0000,0.0000,0.0000,0.0000,1.0000,0.0000,0.0000,0.0000,-0.1932,-0.0135,0.0000,0.0000,0.0000,0.0000,0.0000,0.0000,-0.0000,-0.0765,-0.0025,0.0137,0.0000,0.0000,-0.5630,0.6607,0.6941,0.6863,0.6537,0.6069,0.5956,0.5328,0.5166,4
82,150,199595421332,-10.4568,-0.1932,-0.0135,-0.0290,0.4110,0.1410,1.1670,6340.3608,6685.0400,6605.1934,6268.2168,12.0150,0.0000,1.2817,-0.3052,-0.0000,-14.3792,-6.5855,31.4807,0.0126,-0.0096,-0.0052,0.0000,0.0000,0.0000,0.0000,0.0000,0.0000,0.0000,0.0000,0.0000,0.0000,0.0000,0.0000,0.0000,0.0000,1.0000,0.0000,0.0000,0.0000,-0.1932,-0.0135,0.0000,0.0000,0.0000,0.0000,0.0000,0.0000,-0.0000,-0.0773,0.0032,0.0140,0.0000,0.0000,-0.5630,0.6607,0.6941,0.6863,0.6537,0.6102,0.5930,0.5297,0.5189,4
83,151,199600361678,-10.4568,-0.1932,-0.0135,-0.0290,0.4110,0.1410,1.1670,6340.3608,6685.0400,6605.1934,6268.2168,12.0148,0.0000,0.9766,-2.4414,-0.6714,-12.5166,-1.0572,26.2510,0.0134,-0.0113,-0.0053,0.0000,0.0000,0.0000,0.0000,0.0000,0.0000,0.0000,0.0000,0.0000,0.0000,0.0000,0.0000,0.0000,0.0000,1.0000,0.0000,0.0000,0.0000,-0.1932,-0.0135,0.0000,0.0000,0.0000,0.0000,0.0000,0.0000,-0.0000,-0.0756,0.0118,0.0147,0.0000,0.0000,-0.5630,0.6607,0.6941,0.6863,0.6537,0.6140,0.5876,0.5266,0.5237,4
84,152,199605365229,-10.4568,-0.1932,-0.0135,-0.0290,0.4110,0.1410,1.1670,6340.3608,6685.0400,6605.1934,6268.2168,12.0141,0.0000,0.9155,-1.6479,-0.0000,-12.0695,5.2358,10.0846,0.0136,-0.0126,-0.0053,0.0000,0.0000,0.0000,0.0000,0.0000,0.0000,0.0000,0.0000,0.0000,0.0000,0.0000,0.0000,0.0000,0.0000,1.0000,0.0000,0.0000,0.0000,-0.1932,-0.0135,0.0000,0.0000,0.0000,0.0000,0.0000,0.0000,-0.0000,-0.0712,0.0163,0.0147,0.0000,0.0000,-0.5630,0.6607,0.6941,0.6863,0.6537,0.6141,0.5831,0.5266,0.5281,4
85,153,199610733471,-10.4568,-0.1932,-0.0135,-0.0290,0.4110,0.1410,1.1670,6340.3608,6685.0400,6605.1934,6268.2168,12.0145,0.0000,1.1597,-2.8687,-2.0142,-4.6528,11.7014,-14.0683,0.0132,-0.0141,-0.0055,0.0000,0.0000,0.0000,0.0000,0.0000,0.0000,0.0000,0.0000,0.0000,0.0000,0.0000,0.0000,0.0000,0.0000,1.0000,0.0000,0.0000,0.0000,-0.1932,-0.0135,0.0000,0.0000,0.0000,0.0000,0.0000,0.0000,-0.0000,-0.0646,0.0198,0.0162,0.0000,0.0000,-0.5630,0.6607,0.6941,0.6863,0.6537,0.6133,0.5773,0.5289,0.5325,4
86,154,199615374665,-10.4568,-0.1932,-0.0135,-0.0290,0.4110,0.1410,1.1670,6340.3608,6685.0400,6605.1934,6268.2168,12.0150,0.0000,0.3662,-3.2959,-0.4272,-2.1638,15.5251,-35.7723,0.0121,-0.0148,-0.0055,0.0000,0.0000,0.0000,0.0000,0.0000,0.0000,0.0000,0.0000,0.0000,0.0000,0.0000,0.0000,0.0000,0.0000,1.0000,0.0000,0.0000,0.0000,-0.1932,-0.0135,0.0000,0.0000,0.0000,0.0000,0.0000,0.0000,-0.0000,-0.0556,0.0180,0.0163,0.0000,0.0000,-0.5630,0.6607,0.6941,0.6863,0.6537,0.6079,0.5736,0.5344,0.5360,4
87,155,199620380049,-10.4568,-0.1932,-0.0135,-0.0290,0.4110,0.1410,1.1670,6340.3608,6685.0400,6605.1934,6268.2168,12.0150,0.0000,-0.7935,-0.5493,-0.3662,6.1734,15.3430,-53.8936,0.0105,-0.0150,-0.0055,0.0000,0.0000,0.0000,0.0000,0.0000,0.0000,0.0000,0.0000,0.0000,0.0000,0.0000,0.0000,0.0000,0.0000,1.0000,0.0000,0.0000,0.0000,-0.1932,-0.0135,0.0000,0.0000,0.0000,0.0000,0.0000,0.0000,-0.0000,-0.0463,0.0137,0.0163,0.0000,0.0000,-0.5630,0.6607,0.6941,0.6863,0.6537,0.6011,0.5711,0.5412,0.5385,4
88,156,199625997738,-10.4568,-0.1932,-0.0135,-0.0290,0.4110,0.1410,1.1670,6340.3608,6685.0400,6605.1934,6268.2168,12.0148,0.0000,-0.9155,-1.2817,-0.1221,7.9403,16.4098,-63.8254,0.0089,-0.0144,-0.0055,0.0000,0.0000,0.0000,0.0000,0.0000,0.0000,0.0000,0.0000,0.0000,0.0000,0.0000,0.0000,0.0000,0.0000,1.0000,0.0000,0.0000,0.0000,-0.1932,-0.0135,0.0000,0.0000,0.0000,0.0000,0.0000,0.0000,-0.0000,-0.0397,0.0060,0.0161,0.0000,0.0000,-0.5630,0.6607,0.6941,0.6863,0.6537,0.5939,0.5718,0.5481,0.5381,4
89,157,199630452898,-10.4568,-0.1932,-0.0135,-0.0290,0.4110,0.1410,1.1670,6340.3608,6685.0400,6605.1934,6268.2168,12.0148,0.0000,-2.6855,1.4648,0.8545,12.7533,11.6654,-61.4791,0.0071,-0.0134,-0.0054,0.0000,0.0000,0.0000,0.0000,0.0000,0.0000,0.0000,0.0000,0.0000,0.0000,0.0000,0.0000,0.0000,0.0000,1.0000,0.0000,0.0000,0.0000,-0.1932,-0.0135,0.0000,0.0000,0.0000,0.0000,0.0000,0.0000,-0.0000,-0.0335,-0.0018,0.0152,0.0000,0.0000,-0.5630,0.6607,0.6941,0.6863,0.6537,0.5864,0.5730,0.5547,0.5377,4
90,158,199635369079,-10.4568,-0.1932,-0.0135,-0.0290,0.4110,0.1410,1.1670,6340.3608,6685.0400,6605.1934,6268.2168,12.0141,0.0000,-3.2349,2.0142,1.5869,11.2016,8.7766,-49.6497,0.0056,-0.0119,-0.0053,0.0000,0.0000,0.0000,0.0000,0.0000,0.0000,0.0000,0.0000,0.0000,0.0000,0.0000,0.0000,0.0000,0.0000,1.0000,0.0000,0.0000,0.0000,-0.1932,-0.0135,0.0000,0.0000,0.0000,0.0000,0.0000,0.0000,-0.0000,-0.0316,-0.0104,0.0139,0.0000,0.0000,-0.5630,0.6607,0.6941,0.6863,0.6537,0.5805,0.5770,0.5593,0.5350,4
91,159,199641066513,-10.4568,-0.1932,-0.0135,-0.0290,0.4110,0.1410,1.1670,6340.3608,6685.0400,6605.1934,6268.2168,12.0143,0.0000,-3.0518,2.3193,-0.6714,8.6935,3.5984,-25.9407,0.0045,-0.0106,-0.0053,0.0000,0.0000,0.0000,0.0000,0.0000,0.0000,0.0000,0.0000,0.0000,0.0000,0.0000,0.0000,0.0000,0.0000,1.0000,0.0000,0.0000,0.0000,-0.1932,-0.0135,0.0000,0.0000,0.0000,0.0000,0.0000,0.0000,-0.0000,-0.0321,-0.0155,0.0144,0.0000,0.0000,-0.5630,0.6607,0.6941,0.6863,0.6537,0.5785,0.5795,0.5619,0.5320,4
92,160,199645625336,-10.4568,-0.1932,-0.0135,-0.0990,0.5310,0.1510,1.1670,6340.3608,6685.0400,6605.1934,6268.2168,12.0148,0.0000,-3.0518,1.4038,2.4414,3.0269,-3.5361,1.3939,0.0039,-0.0096,-0.0051,0.0000,0.0000,0.0000,0.0000,0.0000,0.0000,0.0000,0.0000,0.0000,0.0000,0.0000,0.0000,0.0000,0.0000,1.0000,0.0000,0.0000,0.0000,-0.1932,-0.0135,0.0000,0.0000,0.0000,0.0000,0.0000,0.0000,-0.0000,-0.0355,-0.0170,0.0127,0.0000,0.0000,-0.5630,0.6607,0.6941,0.6863,0.6537,0.5786,0.5828,0.5601,0.5304,4
93,161,199650400898,-10.4568,-0.1932,-0.0135,-0.0990,0.5310,0.1510,1.1670,6636.3511,6685.0400,6605.1934,6268.2168,12.0145,0.0000,-0.6104,-0.1831,-2.0142,-0.3395,-9.7428,16.2380,0.0042,-0.0093,-0.0053,0.0000,0.0000,0.0000,0.0000,0.0000,0.0000,0.0000,0.0000,0.0000,0.0000,0.0000,0.0000,0.0000,0.0000,1.0000,0.0000,0.0000,0.0000,-0.1932,-0.0135,0.0000,0.0000,0.0000,0.0000,0.0000,0.0000,-0.0000,-0.0433,-0.0137,0.0145,0.0000,0.0000,-0.5630,0.6607,0.6941,0.6863,0.6537,0.5850,0.5842,0.5554,0.5273,4
94,162,199655331120,-10.4568,-0.1932,-0.0135,-0.0990,0.5310,0.1510,1.1670,6636.3511,6661.5522,6605.1934,6268.2168,12.0145,0.0000,0.3052,0.0610,1.9531,-1.9151,-16.2060,22.7494,0.0051,-0.0093,-0.0052,0.0000,0.0000,0.0000,0.0000,0.0000,0.0000,0.0000,0.0000,0.0000,0.0000,0.0000,0.0000,0.0000,0.0000,1.0000,0.0000,0.0000,0.0000,-0.1932,-0.0135,0.0000,0.0000,0.0000,0.0000,0.0000,0.0000,-0.0000,-0.0528,-0.0095,0.0132,0.0000,0.0000,-0.5630,0.6607,0.6941,0.6863,0.6537,0.5912,0.5876,0.5479,0.5252,4
95,163,199662994252,-10.4745,-0.1819,-0.0337,-0.0990,0.5310,0.1510,1.1670,6636.3511,6661.5522,6500.7231,6320.1191,12.0150,0.0000,1.7700,-1.2207,-1.8311,-2.8883,-18.1742,22.0453,0.0069,-0.0096,-0.0053,0.0000,0.0000,0.0000,0.0000,0.0000,0.0000,0.0000,0.0000,0.0000,0.0000,0.0000,0.0000,0.0000,0.0000,1.0000,0.0000,0.0000,0.0000,-0.1819,-0.0337,0.0000,0.0000,0.0000,0.0000,0.0000,0.0000,-0.0000,0.0047,-0.1276,0.0149,0.0000,0.0000,-0.5608,0.6892,0.6916,0.6760,0.6586,0.5020,0.6148,0.6344,0.4919,4
96,164,199665469466,-10.4745,-0.1819,-0.0337,-0.0990,0.5310,0.1510,1.1670,6636.3511,6661.5522,6500.7231,6320.1191,12.0148,0.0000,2.6245,-0.5493,1.4038,-3.1106,-18.2941,15.3716,0.0089,-0.0100,-0.0052,0.0000,0.0000,0.0000,0.0000,0.0000,0.0000,0.0000,0.0000,0.0000,0.0000,0.0000,0.0000,0.0000,0.0000,1.0000,0.0000,0.0000,0.0000,-0.1819,-0.0337,0.0000,0.0000,0.0000,0.0000,0.0000,0.0000,-0.0000,-0.0253,-0.0875,0.0140,0.0000,0.0000,-0.5608,0.6892,0.6916,0.6760,0.6586,0.5367,0.6102,0.5989,0.4974,4
97,165,199670468101,-10.4745,-0.1819,-0.0337,-0.0990,0.5310,0.1510,1.1670,6178.4961,6661.5522,6500.7231,6320.1191,12.0148,0.0000,2.6855,0.6714,-0.6714,-3.7705,-13.6097,4.5399,0.0109,-0.0102,-0.0053,0.0000,0.0000,0.0000,0.0000,0.0000,0.0000,0.0000,0.0000,0.0000,0.0000,0.0000,0.0000,0.0000,0.0000,1.0000,0.0000,0.0000,0.0000,-0.1819,-0.0337,0.0000,0.0000,0.0000,0.0000,0.0000,0.0000,-0.0000,-0.0463,-0.0606,0.0148,0.0000,0.0000,-0.5608,0.6892,0.6916,0.6760,0.6586,0.5610,0.6068,0.5753,0.5000,4
98,166,199683147867,-10.4745,-0.1819,-0.0337,-0.0990,0.5310,0.1510,1.1670,6178.4961,6818.7832,6617.9375,6165.7832,12.0150,0.0000,2.6855,0.9155,1.5869,-6.3982,-10.2678,-3.6782,0.0124,-0.0105,-0.0052,0.0000,0.0000,0.0000,0.0000,0.0000,0.0000,0.0000,0.0000,0.0000,0.0000,0.0000,0.0000,0.0000,0.0000,1.0000,0.0000,0.0000,0.0000,-0.1819,-0.0337,0.0000,0.0000,0.0000,0.0000,0.0000,0.0000,-0.0000,-0.0579,-0.0418,0.0138,0.0000,0.0000,-0.5608,0.6449,0.7091,0.6874,0.6436,0.5757,0.6038,0.5596,0.5040,4
99,167,199685328178,-10.4745,-0.1819,-0.0337,-0.0990,0.5310,0.1510,1.1670,6178.4961,6818.7832,6617.9375,6165.7832,12.0148,0.0000,1.0376,1.0986,-0.2441,-5.2290,-5.2981,-5.9219,0.0135,-0.0110,-0.0052,0.0000,0.0000,0.0000,0.0000,0.0000,0.0000,0.0000,0.0000,0.0000,0.0000,0.0000,0.0000,0.0000,0.0000,1.0000,0.0000,0.0000,0.0000,-0.1819,-0.0337,0.0000,0.0000,0.0000,0.0000,0.0000,0.0000,-0.0000,-0.0632,-0.0276,0.0142,0.0000,0.0000,-0.5608,0.6449,0.7091,0.6874,0.6436,0.5857,0.5991,0.5501,0.5083,4
100,168,199686807982,-10.4745,-0.1819,-0.0337,-0.0990,0.5310,0.1510,1.1670,6178.4961,6818.7832,6617.9375,6165.7832,12.0141,0.0000,0.4272,-0.5493,-0.0000,-5.2816,2.0953,-5.1843,0.0141,-0.0116,-0.0052,0.0000,0.0000,0.0000,0.0000,0.0000,0.0000,0.0000,0.0000,0.0000,0.0000,0.0000,0.0000,0.0000,0.0000,1.0000,0.0000,0.0000,0.0000,-0.1819,-0.0337,0.0000,0.0000,0.0000,0.0000,0.0000,0.0000,-0.0000,-0.0637,-0.0176,0.0143,0.0000,0.0000,-0.5608,0.6449,0.7091,0.6874,0.6436,0.5910,0.5943,0.5449,0.5130,4
101,169,199690502721,-10.4745,-0.1819,-0.0337,-0.0990,0.5310,0.1510,1.1670,6178.4961,6818.7832,6617.9375,6165.7832,12.0131,0.0000,-0.2441,-0.7935,-0.1831,-2.8715,7.1489,-5.4612,0.0139,-0.0122,-0.0053,0.0000,0.0000,0.0000,0.0000,0.0000,0.0000,0.0000,0.0000,0.0000,0.0000,0.0000,0.0000,0.0000,0.0000,1.0000,0.0000,0.0000,0.0000,-0.1819,-0.0337,0.0000,0.0000,0.0000,0.0000,0.0000,0.0000,-0.0000,-0.0594,-0.0105,0.0145,0.0000,0.0000,-0.5608,0.6449,0.7091,0.6874,0.6436,0.5925,0.5885,0.5436,0.5185,4
102,170,199695812925,-10.4745,-0.1819,-0.0337,-0.0990,0.5310,0.1510,1.1670,6178.4961,6818.7832,6617.9375,6165.7832,12.0129,0.0000,-1.4038,-2.3804,-1.1597,-0.9325,14.8970,-11.6600,0.0131,-0.0126,-0.0054,0.0000,0.0000,0.0000,0.0000,0.0000,0.0000,0.0000,0.0000,0.0000,0.0000,0.0000,0.0000,0.0000,0.0000,1.0000,0.0000,0.0000,0.0000,-0.1819,-0.0337,0.0000,0.0000,0.0000,0.0000,0.0000,0.0000,-0.0000,-0.0529,-0.0062,0.0154,0.0000,0.0000,-0.5608,0.6449,0.7091,0.6874,0.6436,0.5918,0.5827,0.5451,0.5235,4
103,171,199700376705,-10.4745,-0.1819,-0.0337,-0.0990,0.5310,0.1510,1.1670,6178.4961,6818.7832,6617.9375,6165.7832,12.0126,0.0000,-1.5259,-1.9531,-1.3428,1.4848,20.3222,-20.0666,0.0115,-0.0129,-0.0055,0.0000,0.0000,0.0000,0.0000,0.0000,0.0000,0.0000,0.0000,0.0000,0.0000,0.0000,0.0000,0.0000,0.0000,1.0000,0.0000,0.0000,0.0000,-0.1819,-0.0337,0.0000,0.0000,0.0000,0.0000,0.0000,0.0000,-0.0000,-0.0437,-0.0046,0.0162,0.0000,0.0000,-0.5608,0.6449,0.7091,0.6874,0.6436,0.5884,0.5769,0.5494,0.5285,4
104,172,199705397797,-10.4745,-0.1819,-0.0337,-0.0990,0.5310,0.1510,1.1670,6178.4961,6818.7832,6617.9375,6165.7832,12.0126,0.0000,-1.5869,-0.4272,-0.0610,4.2391,19.0684,-30.0557,0.0094,-0.0127,-0.0055,0.0000,0.0000,0.0000,0.0000,0.0000,0.0000,0.0000,0.0000,0.0000,0.0000,0.0000,0.0000,0.0000,0.0000,1.0000,0.0000,0.0000,0.0000,-0.1819,-0.0337,0.0000,0.0000,0.0000,0.0000,0.0000,0.0000,-0.0000,-0.0340,-0.0058,0.0159,0.0000,0.0000,-0.5608,0.6449,0.7091,0.6874,0.6436,0.5828,0.5727,0.5547,0.5329,4
105,173,199710644129,-10.4745,-0.1819,-0.0337,-0.0990,0.5310,0.1510,1.1670,6178.4961,6818.7832,6617.9375,6165.7832,12.0121,0.0000,-2.3804,-0.9766,-1.0986,7.4693,16.6087,-39.3503,0.0073,-0.0124,-0.0055,0.0000,0.0000,0.0000,0.0000,0.0000,0.0000,0.0000,0.0000,0.0000,0.0000,0.0000,0.0000,0.0000,0.0000,1.0000,0.0000,0.0000,0.0000,-0.1819,-0.0337,0.0000,0.0000,0.0000,0.0000,0.0000,0.0000,-0.0000,-0.0274,-0.0081,0.0165,0.0000,0.0000,-0.5608,0.6449,0.7091,0.6874,0.6436,0.5787,0.5703,0.5593,0.5348,4
106,174,199720884637,-10.4745,-0.1819,-0.0337,-0.0990,0.5310,0.1510,1.1670,6178.4961,6818.7832,6617.9375,6165.7832,12.0104,0.0000,-2.6245,2.1362,1.0986,7.8877,0.1462,-32.7219,0.0042,-0.0105,-0.0053,0.0000,0.0000,0.0000,0.0000,0.0000,0.0000,0.0000,0.0000,0.0000,0.0000,0.0000,0.0000,0.0000,0.0000,1.0000,0.0000,0.0000,0.0000,-0.1819,-0.0337,0.0000,0.0000,0.0000,0.0000,0.0000,0.0000,-0.0000,-0.0167,-0.0189,0.0145,0.0000,0.0000,-0.5608,0.6449,0.7091,0.6874,0.6436,0.5669,0.5713,0.5692,0.5357,4
107,175,199725651199,-10.4745,-0.1819,-0.0337,-0.0990,0.5310,0.1510,1.1670,6178.4961,6818.7832,6617.9375,6165.7832,12.0095,0.0000,-1.9531,0.9155,0.9155,4.8178,-8.1893,-16.0304,0.0041,-0.0096,-0.0053,0.0000,0.0000,0.0000,0.0000,0.0000,0.0000,0.0000,0.0000,0.0000,0.0000,0.0000,0.0000,0.0000,0.0000,1.0000,0.0000,0.0000,0.0000,-0.1819,-0.0337,0.0000,0.0000,0.0000,0.0000,0.0000,0.0000,-0.0000,-0.0265,-0.0204,0.0139,0.0000,0.0000,-0.5608,0.6449,0.7091,0.6874,0.6436,0.5708,0.5773,0.5647,0.5304,4
108,176,199730728580,-10.4745,-0.1819,-0.0337,-0.0990,0.5310,0.1510,1.1670,6178.4961,6818.7832,6617.9375,6165.7832,12.0085,0.0000,-1.4038,1.2817,1.4648,0.2965,-14.3624,4.0506,0.0047,-0.0090,-0.0051,0.0000,0.0000,0.0000,0.0000,0.0000,0.0000,0.0000,0.0000,0.0000,0.0000,0.0000,0.0000,0.0000,0.0000,1.0000,0.0000,0.0000,0.0000,-0.1819,-0.0337,0.0000,0.0000,0.0000,0.0000,0.0000,0.0000,-0.0000,-0.0384,-0.0197,0.0130,0.0000,0.0000,-0.5608,0.6449,0.7091,0.6874,0.6436,0.5766,0.5833,0.5580,0.5252,4
109,177,199735350025,-10.4745,-0.1819,-0.0337,-0.0990,0.5310,0.1510,1.1670,6178.4961,6818.7832,6617.9375,6165.7832,12.0073,0.0000,-0.1831,-0.5493,0.3662,-3.6701,-21.6743,16.7607,0.0061,-0.0090,-0.0051,0.0000,0.0000,0.0000,0.0000,0.0000,0.0000,0.0000,0.0000,0.0000,0.0000,0.0000,0.0000,0.0000,0.0000,1.0000,0.0000,0.0000,0.0000,-0.1819,-0.0337,0.0000,0.0000,0.0000,0.0000,0.0000,0.0000,-0.0000,-0.0510,-0.0156,0.0131,0.0000,0.0000,-0.5608,0.6449,0.7091,0.6874,0.6436,0.5850,0.5875,0.5496,0.5210,4
110,178,199740370367,-10.4745,-0.1819,-0.0337,-0.0990,0.5310,0.1510,1.1670,6178.4961,6818.7832,6617.9375,6165.7832,12.0063,0.0000,2.6855,-2.3804,-0.6714,-4.7245,-22.1538,21.3221,0.0084,-0.0096,-0.0052,0.0000,0.0000,0.0000,0.0000,0.0000,0.0000,0.0000,0.0000,0.0000,0.0000,0.0000,0.0000,0.0000,0.0000,1.0000,0.0000,0.0000,0.0000,-0.1819,-0.0337,0.0000,0.0000,0.0000,0.0000,0.0000,0.0000,-0.0000,-0.0656,-0.0093,0.0140,0.0000,0.0000,-0.5608,0.6449,0.7091,0.6874,0.6436,0.5959,0.5913,0.5396,0.5163,4
111,179,199745767941,-10.4745,-0.1819,-0.0337,-0.0990,0.5310,0.1510,1.1670,6178.4961,6818.7832,6617.9375,6165.7832,12.0049,0.0000,2.7466,-1.2207,-0.1221,-2.9672,-20.2311,15.9874,0.0108,-0.0102,-0.0052,0.0000,0.0000,0.0000,0.0000,0.0000,0.0000,0.0000,0.0000,0.0000,0.0000,0.0000,0.0000,0.0000,0.0000,1.0000,0.0000,0.0000,0.0000,-0.1819,-0.0337,0.0000,0.0000,0.0000,0.0000,0.0000,0.0000,-0.0000,-0.0762,-0.0050,0.0144,0.0000,0.0000,-0.5608,0.6449,0.7091,0.6874,0.6436,0.6036,0.5942,0.5323,0.5130,4
112,180,199750328014,-10.4745,-0.1819,-0.0337,-0.0990,0.5310,0.1510,1.1670,6178.4961,6818.7832,6617.9375,6165.7832,12.0044,0.0000,4.0894,-1.6479,-1.1597,-0.7723,-13.2525,1.0216,0.0132,-0.0106,-0.0054,0.0000,0.0000,0.0000,0.0000,0.0000,0.0000,0.0000,0.0000,0.0000,0.0000,0.0000,0.0000,0.0000,0.0000,1.0000,0.0000,0.0000,0.0000,-0.1819,-0.0337,0.0000,0.0000,0.0000,0.0000,0.0000,0.0000,-0.0000,-0.0833,-0.0027,0.0155,0.0000,0.0000,-0.5608,0.6449,0.7091,0.6874,0.6436,0.6088,0.5961,0.5283,0.5100,4
113,181,199755267651,-10.4745,-0.1819,-0.0337,-0.0990,0.5310,0.1510,1.1670,6178.4961,6818.7832,6617.9375,6165.7832,12.0042,0.0000,3.2959,-0.4272,0.1221,-0.0909,-4.0419,-13.5838,0.0148,-0.0107,-0.0054,0.0000,0.0000,0.0000,0.0000,0.0000,0.0000,0.0000,0.0000,0.0000,0.0000,0.0000,0.0000,0.0000,0.0000,1.0000,0.0000,0.0000,0.0000,-0.1819,-0.0337,0.0000,0.0000,0.0000,0.0000,0.0000,0.0000,-0.0000,-0.0837,-0.0032,0.0155,0.0000,0.0000,-0.5608,0.6449,0.7091,0.6874,0.6436,0.6088,0.5965,0.5283,0.5096,4
114,182,199760366115,-10.4745,-0.1819,-0.0337,-0.0990,0.5310,0.1510,1.1670,6178.4961,6818.7832,6617.9375,6165.7832,12.0037,0.0000,1.8311,1.2207,0.1831,-1.3652,4.5765,-22.8521,0.0153,-0.0106,-0.0054,0.0000,0.0000,0.0000,0.0000,0.0000,0.0000,0.0000,0.0000,0.0000,0.0000,0.0000,0.0000,0.0000,0.0000,1.0000,0.0000,0.0000,0.0000,-0.1819,-0.0337,0.0000,0.0000,0.0000,0.0000,0.0000,0.0000,-0.0000,-0.0778,-0.0049,0.0153,0.0000,0.0000,-0.5608,0.6449,0.7091,0.6874,0.6436,0.6049,0.5945,0.5320,0.5118,4
115,183,199765765230,-10.4745,-0.1819,-0.0337,-0.0990,0.5310,0.1510,1.1670,6178.4961,6818.7832,6617.9375,6165.7832,12.0025,0.0000,0.7935,1.3428,-0.0000,-4.1435,12.3415,-23.2650,0.0149,-0.0106,-0.0054,0.0000,0.0000,0.0000,0.0000,0.0000,0.0000,0.0000,0.0000,0.0000,0.0000,0.0000,0.0000,0.0000,0.0000,1.0000,0.0000,0.0000,0.0000,-0.1819,-0.0337,0.0000,0.0000,0.0000,0.0000,0.0000,0.0000,-0.0000,-0.0681,-0.0055,0.0152,0.0000,0.0000,-0.5608,0.6449,0.7091,0.6874,0.6436,0.5997,0.5900,0.5371,0.5164,4
116,184,199770364217,-10.4745,-0.1819,-0.0337,-0.0990,0.5310,0.1510,1.1670,6178.4961,6818.7832,6617.9375,6165.7832,12.0017,0.0000,-1.2817,1.3428,0.2441,-6.0037,20.4780,-19.2479,0.0136,-0.0108,-0.0053,0.0000,0.0000,0.0000,0.0000,0.0000,0.0000,0.0000,0.0000,0.0000,0.0000,0.0000,0.0000,0.0000,0.0000,1.0000,0.0000,0.0000,0.0000,-0.1819,-0.0337,0.0000,0.0000,0.0000,0.0000,0.0000,0.0000,-0.0000,-0.0558,-0.0043,0.0149,0.0000,0.0000,-0.5608,0.6449,0.7091,0.6874,0.6436,0.5940,0.5833,0.5425,0.5233,4
117,185,199775513012,-10.4745,-0.1819,-0.0337,-0.0990,0.5310,0.1510,1.1670,6178.4961,6818.7832,6617.9375,6165.7832,12.0010,0.0000,-2.0752,0.6104,0.3052,-7.1131,22.0747,-14.5457,0.0114,-0.0113,-0.0053,0.0000,0.0000,0.0000,0.0000,0.0000,0.0000,0.0000,0.0000,0.0000,0.0000,0.0000,0.0000,0.0000,0.0000,1.0000,0.0000,0.0000,0.0000,-0.1819,-0.0337,0.0000,0.0000,0.0000,0.0000,0.0000,0.0000,-0.0000,-0.0420,-0.0019,0.0145,0.0000,0.0000,-0.5608,0.6449,0.7091,0.6874,0.6436,0.5881,0.5755,0.5480,0.5316,4
118,186,199780688263,-10.4745,-0.1819,-0.0337,-0.0990,0.5310,0.1510,1.1670,6178.4961,6818.7832,6617.9375,6165.7832,12.0010,0.0000,-2.8687,-1.1597,-0.7324,-4.0311,18.8670,-10.8436,0.0090,-0.0121,-0.0053,0.0000,0.0000,0.0000,0.0000,0.0000,0.0000,0.0000,0.0000,0.0000,0.0000,0.0000,0.0000,0.0000,0.0000,1.0000,0.0000,0.0000,0.0000,-0.1819,-0.0337,0.0000,0.0000,0.0000,0.0000,0.0000,0.0000,-0.0000,-0.0312,0.0014,0.0149,0.0000,0.0000,-0.5608,0.6449,0.7091,0.6874,0.6436,0.5846,0.5682,0.5519,0.5385,4
119,187,199785432410,-10.4745,-0.1819,-0.0337,-0.0990,0.5310,0.1510,1.1670,6178.4961,6818.7832,6617.9375,6165.7832,12.0010,0.0000,-2.1973,-2.4414,0.2441,0.1172,11.7182,-12.7579,0.0070,-0.0127,-0.0053,0.0000,0.0000,0.0000,0.0000,0.0000,0.0000,0.0000,0.0000,0.0000,0.0000,0.0000,0.0000,0.0000,0.0000,1.0000,0.0000,0.0000,0.0000,-0.1819,-0.0337,0.0000,0.0000,0.0000,0.0000,0.0000,0.0000,-0.0000,-0.0258,0.0027,0.0146,0.0000,0.0000,-0.5608,0.6449,0.7091,0.6874,0.6436,0.5823,0.5650,0.5539,0.5419,4
120,188,199790330341,-10.4745,-0.1819,-0.0337,-0.0990,0.5310,0.1510,1.1670,6178.4961,6818.7832,6617.9375,6165.7832,12.0013,0.0000,-1.5259,-1.1597,-0.6714,8.4759,4.9217,-17.8826,0.0057,-0.0128,-0.0053,0.0000,0.0000,0.0000,0.0000,0.0000,0.0000,0.0000,0.0000,0.0000,0.0000,0.0000,0.0000,0.0000,0.0000,1.0000,0.0000,0.0000,0.0000,-0.1819,-0.0337,0.0000,0.0000,0.0000,0.0000,0.0000,0.0000,-0.0000,-0.0265,0.0004,0.0150,0.0000,0.0000,-0.5608,0.6449,0.7091,0.6874,0.6436,0.5817,0.5663,0.5548,0.5403,4
