loop_index, counter, last_step_ns, T_ref, theta_ref, phi_ref, uwind, vwind, wwind, rho, rpm1, rpm2, rpm3, rpm4,v_batt,alt,gyro_roll,gyro_pitch,gyro_yaw,accel_X,accel_Y,accel_Z,roll,pitch,yaw,X,Y,Z,Xdot,Ydot,Zdot,x0,y0,z0,e.xbee_time,xbee_time_received_ns,xbee_x,xbee_y,xbee_z,xbee_qw,xbee_qx,xbee_qy,xbee_qz,sp_roll,sp_pitch,sp_yaw,sp_X,sp_Y,sp_Z,sp_Xdot,sp_Ydot,sp_Zdot,u_roll,u_pitch,u_yaw,u_X,u_Y,u_Z,mot_1,mot_2,mot_3,mot_4,flight mode
1,104,306695053120,-10.5211,-0.1460,0.0634,0.0310,0.0710,0.0110,1.1644,23.4375,23.4375,23.4375,23.4375,12.2384,0.0000,0.0000,0.0000,-0.0000,-0.1411,-0.1894,-10.6575,0.0125,-0.0123,-0.0016,0.0000,0.0000,0.0000,0.0000,0.0000,0.0000,0.0000,0.0000,0.0000,0.0000,0.0000,0.0000,0.0000,0.0000,1.0000,0.0000,0.0000,0.0000,-0.1460,0.0634,0.0000,0.0000,0.0000,0.0000,0.0000,0.0000,-0.0000,-0.0000,0.0000,0.0000,0.0000,0.0000,-0.5727,0.0025,0.0025,0.0025,0.0025,4
2,105,306778925587,-10.5669,-0.1221,0.0419,0.0210,0.0610,0.0010,1.1644,23.4375,23.4375,23.4375,23.4375,12.2367,0.0000,-0.1831,-0.1221,-0.0000,-0.1698,-0.1702,-10.6431,0.0125,-0.0124,-0.0015,0.0000,0.0000,0.0000,0.0000,0.0000,0.0000,0.0000,0.0000,0.0000,0.0000,0.0000,0.0000,0.0000,0.0000,1.0000,0.0000,0.0000,0.0000,-0.1221,0.0419,0.0000,0.0000,0.0000,0.0000,0.0000,0.0000,-0.0000,0.0020,-0.0020,0.0004,0.0000,0.0000,-0.5754,0.0025,0.0025,0.0025,0.0025,4
3,106,306835868596,-10.5669,-0.1221,0.0419,0.0210,0.0610,0.0010,1.1644,23.4375,23.4375,23.4375,23.4375,12.2350,0.0000,-0.1221,-0.0610,-0.0610,-0.1602,-0.2325,-10.6384,0.0125,-0.0124,-0.0015,0.0000,0.0000,0.0000,0.0000,0.0000,0.0000,0.0000,0.0000,0.0000,0.0000,0.0000,0.0000,0.0000,0.0000,1.0000,0.0000,0.0000,0.0000,-0.1221,0.0419,0.0000,0.0000,0.0000,0.0000,0.0000,0.0000,-0.0000,-0.0040,0.0035,0.0011,0.0000,0.0000,-0.5754,0.0025,0.0025,0.0025,0.0025,4
4,107,306839819633,-10.5669,-0.1221,0.0419,0.0210,0.0610,0.0010,1.1644,23.4375,23.4375,23.4375,23.4375,12.2338,0.0000,0.0000,0.0000,-0.0000,-0.1889,-0.1750,-10.6503,0.0125,-0.0124,-0.0015,0.0000,0.0000,0.0000,0.0000,0.0000,0.0000,0.0000,0.0000,0.0000,0.0000,0.0000,0.0000,0.0000,0.0000,1.0000,0.0000,0.0000,0.0000,-0.1221,0.0419,0.0000,0.0000,0.0000,0.0000,0.0000,0.0000,-0.0000,-0.0060,0.0060,0.0016,0.0000,0.0000,-0.5754,0.0025,0.0025,0.0025,0.0025,4
5,108,306845222977,-10.5669,-0.1221,0.0419,0.0210,0.0610,0.0010,1.1644,23.4375,23.4375,23.4375,23.4375,12.2336,0.0000,-0.1831,-0.0610,-0.0000,-0.1721,-0.1822,-10.5620,0.0125,-0.0124,-0.0015,0.0000,0.0000,0.0000,0.0000,0.0000,0.0000,0.0000,0.0000,0.0000,0.0000,0.0000,0.0000,0.0000,0.0000,1.0000,0.0000,0.0000,0.0000,-0.1221,0.0419,0.0000,0.0000,0.0000,0.0000,0.0000,0.0000,-0.0000,-0.0080,0.0080,0.0020,0.0000,0.0000,-0.5754,0.0025,0.0025,0.0025,0.0025,4
6,109,306849864142,-10.5669,-0.1221,0.0419,0.0210,0.0610,0.0010,1.1644,23.4375,23.4375,23.4375,23.4375,12.2329,0.0000,-0.0610,-0.1831,-0.1831,-0.2056,-0.1918,-10.6217,0.0125,-0.0125,-0.0016,0.0000,0.0000,0.0000,0.0000,0.0000,0.0000,0.0000,0.0000,0.0000,0.0000,0.0000,0.0000,0.0000,0.0000,1.0000,0.0000,0.0000,0.0000,-0.1221,0.0419,0.0000,0.0000,0.0000,0.0000,0.0000,0.0000,-0.0000,-0.0100,0.0100,0.0026,0.0000,0.0000,-0.5754,0.0025,0.0025,0.0025,0.0025,4
7,110,306854818596,-10.5669,-0.1221,0.0419,0.0210,0.0610,0.0010,1.1644,23.4375,23.4375,23.4375,23.4375,12.2309,0.0000,-0.1831,-0.1221,-0.0000,-0.1769,-0.1870,-10.5954,0.0125,-0.0125,-0.0016,0.0000,0.0000,0.0000,0.0000,0.0000,0.0000,0.0000,0.0000,0.0000,0.0000,0.0000,0.0000,0.0000,0.0000,1.0000,0.0000,0.0000,0.0000,-0.1221,0.0419,0.0000,0.0000,0.0000,0.0000,0.0000,0.0000,-0.0000,-0.0120,0.0116,0.0029,0.0000,0.0000,-0.5754,0.0025,0.0025,0.0025,0.0025,4
8,111,306860117968,-10.5669,-0.1221,0.0419,0.0210,0.0610,0.0010,1.1644,23.4375,23.4375,23.4375,23.4375,12.2300,0.0000,-0.1221,-0.0610,-0.0000,-0.2056,-0.2062,-10.5501,0.0125,-0.0125,-0.0016,0.0000,0.0000,0.0000,0.0000,0.0000,0.0000,0.0000,0.0000,0.0000,0.0000,0.0000,0.0000,0.0000,0.0000,1.0000,0.0000,0.0000,0.0000,-0.1221,0.0419,0.0000,0.0000,0.0000,0.0000,0.0000,0.0000,-0.0000,-0.0140,0.0126,0.0031,0.0000,0.0000,-0.5754,0.0025,0.0025,0.0025,0.0025,4
9,112,306865207772,-10.5669,-0.1221,0.0419,0.0210,0.0610,0.0010,1.1644,23.4375,23.4375,23.4375,23.4375,12.2285,0.0000,-0.1831,-0.1831,-0.0610,-0.1650,-0.1702,-10.6288,0.0125,-0.0125,-0.0016,0.0000,0.0000,0.0000,0.0000,0.0000,0.0000,0.0000,0.0000,0.0000,0.0000,0.0000,0.0000,0.0000,0.0000,1.0000,0.0000,0.0000,0.0000,-0.1221,0.0419,0.0000,0.0000,0.0000,0.0000,0.0000,0.0000,-0.0000,-0.0160,0.0134,0.0034,0.0000,0.0000,-0.5754,0.0025,0.0025,0.0025,0.0025,4
10,113,306869893642,-10.5669,-0.1221,0.0419,0.0210,0.0610,0.0010,1.1644,23.4375,23.4375,23.4375,23.4375,12.2275,0.0000,0.0000,-0.0610,-0.0000,-0.1363,-0.2014,-10.6050,0.0125,-0.0125,-0.0016,0.0000,0.0000,0.0000,0.0000,0.0000,0.0000,0.0000,0.0000,0.0000,0.0000,0.0000,0.0000,0.0000,0.0000,1.0000,0.0000,0.0000,0.0000,-0.1221,0.0419,0.0000,0.0000,0.0000,0.0000,0.0000,0.0000,-0.0000,-0.0180,0.0139,0.0035,0.0000,0.0000,-0.5754,0.0025,0.0025,0.0025,0.0025,4
11,114,306874814654,-10.5669,-0.1221,0.0419,0.0210,0.0610,0.0010,1.1644,23.4375,23.4375,23.4375,23.4375,12.2266,0.0000,-0.0610,-0.1221,0.1221,-0.1578,-0.1726,-10.6097,0.0125,-0.0125,-0.0016,0.0000,0.0000,0.0000,0.0000,0.0000,0.0000,0.0000,0.0000,0.0000,0.0000,0.0000,0.0000,0.0000,0.0000,1.0000,0.0000,0.0000,0.0000,-0.1221,0.0419,0.0000,0.0000,0.0000,0.0000,0.0000,0.0000,-0.0000,-0.0200,0.0142,0.0036,0.0000,0.0000,-0.5754,0.0025,0.0025,0.0025,0.0025,4
12,115,306880236857,-10.5669,-0.1221,0.0419,0.0210,0.0610,0.0010,1.1644,23.4375,23.4375,23.4375,23.4375,12.2256,0.0000,-0.0610,-0.1221,0.1221,-0.1721,-0.1774,-10.5811,0.0125,-0.0125,-0.0016,0.0000,0.0000,0.0000,0.0000,0.0000,0.0000,0.0000,0.0000,0.0000,0.0000,0.0000,0.0000,0.0000,0.0000,1.0000,0.0000,0.0000,0.0000,-0.1221,0.0419,0.0000,0.0000,0.0000,0.0000,0.0000,0.0000,-0.0000,-0.0220,0.0145,0.0037,0.0000,0.0000,-0.5754,0.0025,0.0025,0.0025,0.0025,4
13,116,306884777451,-10.5669,-0.1221,0.0419,0.0210,0.0610,0.0010,1.1644,23.4375,23.4375,23.4375,23.4375,12.2249,0.0000,0.0000,0.0000,-0.0000,-0.1721,-0.1894,-10.6455,0.0125,-0.0125,-0.0016,0.0000,0.0000,0.0000,0.0000,0.0000,0.0000,0.0000,0.0000,0.0000,0.0000,0.0000,0.0000,0.0000,0.0000,1.0000,0.0000,0.0000,0.0000,-0.1221,0.0419,0.0000,0.0000,0.0000,0.0000,0.0000,0.0000,-0.0000,-0.0240,0.0146,0.0038,0.0000,0.0000,-0.5754,0.0025,0.0025,0.0025,0.0025,4
14,117,306889754056,-10.5669,-0.1221,0.0419,0.0210,0.0610,0.0010,1.1644,23.4375,23.4375,23.4375,23.4375,12.2237,0.0000,-0.1831,-0.1831,0.1221,-0.1650,-0.1894,-10.5930,0.0125,-0.0125,-0.0016,0.0000,0.0000,0.0000,0.0000,0.0000,0.0000,0.0000,0.0000,0.0000,0.0000,0.0000,0.0000,0.0000,0.0000,1.0000,0.0000,0.0000,0.0000,-0.1221,0.0419,0.0000,0.0000,0.0000,0.0000,0.0000,0.0000,-0.0000,-0.0260,0.0148,0.0038,0.0000,0.0000,-0.5754,0.0025,0.0025,0.0025,0.0025,4
15,118,306894880388,-10.5669,-0.1221,0.0419,0.0210,0.0610,0.0010,1.1644,23.4375,23.4375,23.4375,23.4375,12.2227,0.0000,-0.0610,-0.1831,-0.0000,-0.1554,-0.1630,-10.6312,0.0125,-0.0125,-0.0016,0.0000,0.0000,0.0000,0.0000,0.0000,0.0000,0.0000,0.0000,0.0000,0.0000,0.0000,0.0000,0.0000,0.0000,1.0000,0.0000,0.0000,0.0000,-0.1221,0.0419,0.0000,0.0000,0.0000,0.0000,0.0000,0.0000,-0.0000,-0.0280,0.0149,0.0039,0.0000,0.0000,-0.5754,0.0025,0.0025,0.0025,0.0025,4
16,119,306899861119,-10.5669,-0.1221,0.0419,0.0210,0.0610,0.0010,1.1644,23.4375,23.4375,23.4375,23.4375,12.2217,0.0000,-0.2441,-0.1831,-0.0000,-0.1339,-0.1654,-10.6336,0.0125,-0.0126,-0.0016,0.0000,0.0000,0.0000,0.0000,0.0000,0.0000,0.0000,0.0000,0.0000,0.0000,0.0000,0.0000,0.0000,0.0000,1.0000,0.0000,0.0000,0.0000,-0.1221,0.0419,0.0000,0.0000,0.0000,0.0000,0.0000,0.0000,-0.0000,-0.0300,0.0149,0.0040,0.0000,0.0000,-0.5754,0.0025,0.0025,0.0025,0.0025,4
17,120,306905166723,-10.5669,-0.1221,0.0419,0.0210,0.0610,0.0110,1.1644,23.4375,23.4375,23.4375,23.4375,12.2213,0.0000,-0.1831,0.0000,-0.0000,-0.1674,-0.1966,-10.6861,0.0125,-0.0125,-0.0016,0.0000,0.0000,0.0000,0.0000,0.0000,0.0000,0.0000,0.0000,0.0000,0.0000,0.0000,0.0000,0.0000,0.0000,1.0000,0.0000,0.0000,0.0000,-0.1221,0.0419,0.0000,0.0000,0.0000,0.0000,0.0000,0.0000,-0.0000,-0.0320,0.0148,0.0041,0.0000,0.0000,-0.5754,0.0025,0.0025,0.0025,0.0025,4
18,121,306909809996,-10.5669,-0.1221,0.0419,0.0210,0.0610,0.0110,1.1644,23.4375,23.4375,23.4375,23.4375,12.2215,0.0000,0.0000,0.0000,-0.0000,-0.1291,-0.1846,-10.6479,0.0125,-0.0126,-0.0016,0.0000,0.0000,0.0000,0.0000,0.0000,0.0000,0.0000,0.0000,0.0000,0.0000,0.0000,0.0000,0.0000,0.0000,1.0000,0.0000,0.0000,0.0000,-0.1221,0.0419,0.0000,0.0000,0.0000,0.0000,0.0000,0.0000,-0.0000,-0.0335,0.0149,0.0042,0.0000,0.0000,-0.5754,0.0025,0.0025,0.0025,0.0025,4
19,122,306941165185,-10.5108,-0.1562,0.0535,0.0210,0.0610,0.0110,1.1644,23.4375,23.4375,23.4375,23.4375,12.2215,0.0000,-0.0610,-0.2441,-0.0000,-0.1984,-0.1750,-10.6002,0.0125,-0.0126,-0.0016,0.0000,0.0000,0.0000,0.0000,0.0000,0.0000,0.0000,0.0000,0.0000,0.0000,0.0000,0.0000,0.0000,0.0000,1.0000,0.0000,0.0000,0.0000,-0.1562,0.0535,0.0000,0.0000,0.0000,0.0000,0.0000,0.0000,-0.0000,-0.0360,0.0360,0.0042,0.0000,0.0000,-0.5725,0.0025,0.0025,0.0025,0.0025,4
20,123,306945609434,-10.5108,-0.1562,0.0535,0.0210,0.0610,0.0110,1.1644,23.4375,23.4375,23.4375,23.4375,12.2210,0.0000,-0.0610,-0.1221,-0.0000,-0.1793,-0.2397,-10.5763,0.0126,-0.0126,-0.0016,0.0000,0.0000,0.0000,0.0000,0.0000,0.0000,0.0000,0.0000,0.0000,0.0000,0.0000,0.0000,0.0000,0.0000,1.0000,0.0000,0.0000,0.0000,-0.1562,0.0535,0.0000,0.0000,0.0000,0.0000,0.0000,0.0000,-0.0000,-0.0380,0.0305,0.0043,0.0000,0.0000,-0.5725,0.0025,0.0025,0.0025,0.0025,4
21,124,306980936315,-10.5108,-0.1562,0.0535,0.0210,0.0610,0.0110,1.1644,23.4375,23.4375,23.4375,23.4375,12.2210,0.0000,-0.1221,-0.0610,-0.0000,-0.1315,-0.1990,-10.6575,0.0126,-0.0126,-0.0016,0.0000,0.0000,0.0000,0.0000,0.0000,0.0000,0.0000,0.0000,0.0000,0.0000,0.0000,0.0000,0.0000,0.0000,1.0000,0.0000,0.0000,0.0000,-0.1562,0.0535,0.0000,0.0000,0.0000,0.0000,0.0000,0.0000,-0.0000,-0.0400,0.0267,0.0043,0.0000,0.0000,-0.5725,0.0025,0.0025,0.0025,0.0025,4
22,125,307041253611,-10.5108,-0.1562,0.0535,0.0210,0.0610,0.0110,1.1644,23.4375,23.4375,23.4375,23.4375,12.2215,0.0000,0.0000,0.0000,-0.1221,-0.1458,-0.2230,-10.6097,0.0126,-0.0126,-0.0016,0.0000,0.0000,0.0000,0.0000,0.0000,0.0000,0.0000,0.0000,0.0000,0.0000,0.0000,0.0000,0.0000,0.0000,1.0000,0.0000,0.0000,0.0000,-0.1562,0.0535,0.0000,0.0000,0.0000,0.0000,0.0000,0.0000,-0.0000,-0.0420,0.0241,0.0045,0.0000,0.0000,-0.5725,0.0025,0.0025,0.0025,0.0025,4
23,126,307044802459,-10.5108,-0.1562,0.0535,0.0210,0.0610,0.0110,1.1644,23.4375,23.4375,23.4375,23.4375,12.2213,0.0000,-0.1221,-0.0610,0.1831,-0.1626,-0.2182,-10.5906,0.0126,-0.0126,-0.0016,0.0000,0.0000,0.0000,0.0000,0.0000,0.0000,0.0000,0.0000,0.0000,0.0000,0.0000,0.0000,0.0000,0.0000,1.0000,0.0000,0.0000,0.0000,-0.1562,0.0535,0.0000,0.0000,0.0000,0.0000,0.0000,0.0000,-0.0000,-0.0433,0.0222,0.0044,0.0000,0.0000,-0.5725,0.0025,0.0025,0.0025,0.0025,4
24,127,307049790649,-10.5108,-0.1562,0.0535,0.0210,0.0610,0.0110,1.1644,23.4375,23.4375,23.4375,23.4375,12.2213,0.0000,-0.2441,-0.0610,-0.0000,-0.1530,-0.1798,-10.5739,0.0126,-0.0126,-0.0016,0.0000,0.0000,0.0000,0.0000,0.0000,0.0000,0.0000,0.0000,0.0000,0.0000,0.0000,0.0000,0.0000,0.0000,1.0000,0.0000,0.0000,0.0000,-0.1562,0.0535,0.0000,0.0000,0.0000,0.0000,0.0000,0.0000,-0.0000,-0.0441,0.0209,0.0044,0.0000,0.0000,-0.5725,0.0025,0.0025,0.0025,0.0025,4
25,128,307055074125,-10.5108,-0.1562,0.0535,0.0210,0.0610,0.0110,1.1644,23.4375,23.4375,23.4375,23.4375,12.2205,0.0000,-0.1831,-0.1221,-0.0000,-0.1315,-0.1774,-10.6933,0.0126,-0.0126,-0.0016,0.0000,0.0000,0.0000,0.0000,0.0000,0.0000,0.0000,0.0000,0.0000,0.0000,0.0000,0.0000,0.0000,0.0000,1.0000,0.0000,0.0000,0.0000,-0.1562,0.0535,0.0000,0.0000,0.0000,0.0000,0.0000,0.0000,-0.0000,-0.0447,0.0200,0.0044,0.0000,0.0000,-0.5725,0.0025,0.0025,0.0025,0.0025,4
26,129,307059898504,-10.5108,-0.1562,0.0535,0.0210,0.0610,0.0110,1.1644,23.4375,23.4375,23.4375,23.4375,12.2203,0.0000,-0.0610,-0.1221,-0.0000,-0.1865,-0.1726,-10.6694,0.0126,-0.0126,-0.0016,0.0000,0.0000,0.0000,0.0000,0.0000,0.0000,0.0000,0.0000,0.0000,0.0000,0.0000,0.0000,0.0000,0.0000,1.0000,0.0000,0.0000,0.0000,-0.1562,0.0535,0.0000,0.0000,0.0000,0.0000,0.0000,0.0000,-0.0000,-0.0451,0.0194,0.0044,0.0000,0.0000,-0.5725,0.0025,0.0025,0.0025,0.0025,4
27,130,307064884735,-10.5108,-0.1562,0.0535,0.0210,0.0610,0.0110,1.1644,23.4375,23.4375,23.4375,23.4375,12.2198,0.0000,0.0000,0.0000,-0.0000,-0.1578,-0.1894,-10.6408,0.0126,-0.0127,-0.0016,0.0000,0.0000,0.0000,0.0000,0.0000,0.0000,0.0000,0.0000,0.0000,0.0000,0.0000,0.0000,0.0000,0.0000,1.0000,0.0000,0.0000,0.0000,-0.1562,0.0535,0.0000,0.0000,0.0000,0.0000,0.0000,0.0000,-0.0000,-0.0454,0.0190,0.0045,0.0000,0.0000,-0.5725,0.0025,0.0025,0.0025,0.0025,4
28,131,307070166628,-10.5108,-0.1562,0.0535,0.0210,0.0610,0.0110,1.1644,23.4375,23.4375,23.4375,23.4375,12.2200,0.0000,-0.1221,-0.0610,-0.0610,-0.1602,-0.1654,-10.5930,0.0126,-0.0127,-0.0016,0.0000,0.0000,0.0000,0.0000,0.0000,0.0000,0.0000,0.0000,0.0000,0.0000,0.0000,0.0000,0.0000,0.0000,1.0000,0.0000,0.0000,0.0000,-0.1562,0.0535,0.0000,0.0000,0.0000,0.0000,0.0000,0.0000,-0.0000,-0.0456,0.0187,0.0045,0.0000,0.0000,-0.5725,0.0025,0.0025,0.0025,0.0025,4
29,132,307074733559,-10.5108,-0.1562,0.0535,0.0210,0.0610,0.0110,1.1644,23.4375,23.4375,23.4375,23.4375,12.2200,0.0000,-0.1831,-0.1831,-0.0000,-0.1961,-0.2038,-10.6240,0.0126,-0.0127,-0.0016,0.0000,0.0000,0.0000,0.0000,0.0000,0.0000,0.0000,0.0000,0.0000,0.0000,0.0000,0.0000,0.0000,0.0000,1.0000,0.0000,0.0000,0.0000,-0.1562,0.0535,0.0000,0.0000,0.0000,0.0000,0.0000,0.0000,-0.0000,-0.0457,0.0186,0.0046,0.0000,0.0000,-0.5725,0.0025,0.0025,0.0025,0.0025,4
30,133,307079729208,-10.5108,-0.1562,0.0535,0.0210,0.0610,0.0110,1.1644,23.4375,23.4375,23.4375,23.4375,12.2198,0.0000,-0.1221,-0.0610,-0.0610,-0.2056,-0.2182,-10.5333,0.0126,-0.0127,-0.0016,0.0000,0.0000,0.0000,0.0000,0.0000,0.0000,0.0000,0.0000,0.0000,0.0000,0.0000,0.0000,0.0000,0.0000,1.0000,0.0000,0.0000,0.0000,-0.1562,0.0535,0.0000,0.0000,0.0000,0.0000,0.0000,0.0000,-0.0000,-0.0458,0.0184,0.0046,0.0000,0.0000,-0.5725,0.0025,0.0025,0.0025,0.0025,4
31,134,307084719732,-10.5108,-0.1562,0.0535,0.0210,0.0610,0.0110,1.1644,23.4375,23.4375,23.4375,23.4375,12.2200,0.0000,-0.1221,-0.0610,0.1221,-0.1602,-0.1822,-10.6789,0.0126,-0.0127,-0.0016,0.0000,0.0000,0.0000,0.0000,0.0000,0.0000,0.0000,0.0000,0.0000,0.0000,0.0000,0.0000,0.0000,0.0000,1.0000,0.0000,0.0000,0.0000,-0.1562,0.0535,0.0000,0.0000,0.0000,0.0000,0.0000,0.0000,-0.0000,-0.0459,0.0183,0.0046,0.0000,0.0000,-0.5725,0.0025,0.0025,0.0025,0.0025,4
32,135,307090081426,-10.5108,-0.1562,0.0535,0.0210,0.0610,0.0110,1.1644,23.4375,23.4375,23.4375,23.4375,12.2200,0.0000,-0.1831,-0.1831,-0.0000,-0.1984,-0.2062,-10.6789,0.0126,-0.0127,-0.0016,0.0000,0.0000,0.0000,0.0000,0.0000,0.0000,0.0000,0.0000,0.0000,0.0000,0.0000,0.0000,0.0000,0.0000,1.0000,0.0000,0.0000,0.0000,-0.1562,0.0535,0.0000,0.0000,0.0000,0.0000,0.0000,0.0000,-0.0000,-0.0459,0.0183,0.0046,0.0000,0.0000,-0.5725,0.0025,0.0025,0.0025,0.0025,4
33,136,307094767704,-10.5108,-0.1562,0.0535,0.0210,0.0610,0.0110,1.1644,23.4375,23.4375,23.4375,23.4375,12.2203,0.0000,-0.1221,-0.0610,-0.0000,-0.1793,-0.1966,-10.6097,0.0126,-0.0127,-0.0016,0.0000,0.0000,0.0000,0.0000,0.0000,0.0000,0.0000,0.0000,0.0000,0.0000,0.0000,0.0000,0.0000,0.0000,1.0000,0.0000,0.0000,0.0000,-0.1562,0.0535,0.0000,0.0000,0.0000,0.0000,0.0000,0.0000,-0.0000,-0.0460,0.0183,0.0046,0.0000,0.0000,-0.5725,0.0025,0.0025,0.0025,0.0025,4
34,137,307099756644,-10.5108,-0.1562,0.0535,0.0210,0.0610,0.0110,1.1644,23.4375,23.4375,23.4375,23.4375,12.2200,0.0000,-0.1221,-0.0610,-0.0000,-0.1267,-0.1774,-10.6646,0.0126,-0.0127,-0.0017,0.0000,0.0000,0.0000,0.0000,0.0000,0.0000,0.0000,0.0000,0.0000,0.0000,0.0000,0.0000,0.0000,0.0000,1.0000,0.0000,0.0000,0.0000,-0.1562,0.0535,0.0000,0.0000,0.0000,0.0000,0.0000,0.0000,-0.0000,-0.0460,0.0182,0.0046,0.0000,0.0000,-0.5725,0.0025,0.0025,0.0025,0.0025,4
35,138,307139535525,-10.5238,-0.1561,0.0211,0.0110,0.0810,0.0110,1.1644,23.4375,23.4375,23.4375,23.4375,12.2198,0.0000,-0.0610,-0.1831,-0.0000,-0.1435,-0.1750,-10.6097,0.0126,-0.0127,-0.0017,0.0000,0.0000,0.0000,0.0000,0.0000,0.0000,0.0000,0.0000,0.0000,0.0000,0.0000,0.0000,0.0000,0.0000,1.0000,0.0000,0.0000,0.0000,-0.1561,0.0211,0.0000,0.0000,0.0000,0.0000,0.0000,0.0000,-0.0000,-0.0451,-0.0680,0.0046,0.0000,0.0000,-0.5727,0.0025,0.0025,0.0025,0.0025,4
36,139,307195847250,-10.5238,-0.1561,0.0211,0.0110,0.0810,0.0110,1.1644,23.4375,23.4375,23.4375,23.4375,12.2198,0.0000,-0.1831,-0.1221,0.1221,-0.1530,-0.1654,-10.6002,0.0126,-0.0128,-0.0016,0.0000,0.0000,0.0000,0.0000,0.0000,0.0000,0.0000,0.0000,0.0000,0.0000,0.0000,0.0000,0.0000,0.0000,1.0000,0.0000,0.0000,0.0000,-0.1561,0.0211,0.0000,0.0000,0.0000,0.0000,0.0000,0.0000,-0.0000,-0.0454,-0.0434,0.0046,0.0000,0.0000,-0.5727,0.0025,0.0025,0.0025,0.0025,4
37,140,307199781479,-10.5238,-0.1561,0.0211,0.0110,0.0810,0.0110,1.1644,23.4375,23.4375,23.4375,23.4375,12.2196,0.0000,-0.1831,-0.0610,-0.0000,-0.1387,-0.1726,-10.6050,0.0126,-0.0128,-0.0016,0.0000,0.0000,0.0000,0.0000,0.0000,0.0000,0.0000,0.0000,0.0000,0.0000,0.0000,0.0000,0.0000,0.0000,1.0000,0.0000,0.0000,0.0000,-0.1561,0.0211,0.0000,0.0000,0.0000,0.0000,0.0000,0.0000,-0.0000,-0.0455,-0.0269,0.0046,0.0000,0.0000,-0.5727,0.0025,0.0025,0.0025,0.0025,4
38,141,307204740374,-10.5238,-0.1561,0.0211,0.0110,0.0810,0.0110,1.1644,23.4375,23.4375,23.4375,23.4375,12.2193,0.0000,0.0000,0.0000,-0.0000,-0.1482,-0.1942,-10.6288,0.0126,-0.0128,-0.0017,0.0000,0.0000,0.0000,0.0000,0.0000,0.0000,0.0000,0.0000,0.0000,0.0000,0.0000,0.0000,0.0000,0.0000,1.0000,0.0000,0.0000,0.0000,-0.1561,0.0211,0.0000,0.0000,0.0000,0.0000,0.0000,0.0000,-0.0000,-0.0457,-0.0156,0.0046,0.0000,0.0000,-0.5727,0.0025,0.0025,0.0025,0.0025,4
39,142,307210300550,-10.5238,-0.1561,0.0211,0.0110,0.0810,0.0110,1.1644,23.4375,23.4375,23.4375,23.4375,12.2191,0.0000,-0.0610,-0.1221,-0.0000,-0.1506,-0.2110,-10.6169,0.0126,-0.0128,-0.0017,0.0000,0.0000,0.0000,0.0000,0.0000,0.0000,0.0000,0.0000,0.0000,0.0000,0.0000,0.0000,0.0000,0.0000,1.0000,0.0000,0.0000,0.0000,-0.1561,0.0211,0.0000,0.0000,0.0000,0.0000,0.0000,0.0000,-0.0000,-0.0459,-0.0077,0.0046,0.0000,0.0000,-0.5727,0.0025,0.0025,0.0025,0.0025,4
40,143,307214896109,-10.5238,-0.1561,0.0211,0.0110,0.0810,0.0110,1.1644,23.4375,23.4375,23.4375,23.4375,12.2191,0.0000,0.0000,0.0000,-0.0000,-0.1841,-0.1894,-10.6050,0.0127,-0.0128,-0.0017,0.0000,0.0000,0.0000,0.0000,0.0000,0.0000,0.0000,0.0000,0.0000,0.0000,0.0000,0.0000,0.0000,0.0000,1.0000,0.0000,0.0000,0.0000,-0.1561,0.0211,0.0000,0.0000,0.0000,0.0000,0.0000,0.0000,-0.0000,-0.0459,-0.0024,0.0046,0.0000,0.0000,-0.5727,0.0025,0.0025,0.0025,0.0025,4
41,144,307219813874,-10.5238,-0.1561,0.0211,0.0110,0.0810,0.0110,1.1644,23.4375,23.4375,23.4375,23.4375,12.2179,0.0000,0.0000,0.0000,-0.0610,-0.1554,-0.1774,-10.5143,0.0127,-0.0128,-0.0017,0.0000,0.0000,0.0000,0.0000,0.0000,0.0000,0.0000,0.0000,0.0000,0.0000,0.0000,0.0000,0.0000,0.0000,1.0000,0.0000,0.0000,0.0000,-0.1561,0.0211,0.0000,0.0000,0.0000,0.0000,0.0000,0.0000,-0.0000,-0.0460,0.0013,0.0047,0.0000,0.0000,-0.5727,0.0025,0.0025,0.0025,0.0025,4
42,145,307225247202,-10.5238,-0.1561,0.0211,0.0110,0.0810,0.0110,1.1644,23.4375,23.4375,23.4375,23.4375,12.2179,0.0000,-0.0610,-0.1221,0.1221,-0.1052,-0.1702,-10.6312,0.0127,-0.0128,-0.0017,0.0000,0.0000,0.0000,0.0000,0.0000,0.0000,0.0000,0.0000,0.0000,0.0000,0.0000,0.0000,0.0000,0.0000,1.0000,0.0000,0.0000,0.0000,-0.1561,0.0211,0.0000,0.0000,0.0000,0.0000,0.0000,0.0000,-0.0000,-0.0460,0.0038,0.0046,0.0000,0.0000,-0.5727,0.0025,0.0025,0.0025,0.0025,4
43,146,307229730455,-10.5238,-0.1561,0.0211,0.0110,0.0810,0.0110,1.1644,23.4375,23.4375,23.4375,23.4375,12.2181,0.0000,-0.0610,-0.1221,-0.0000,-0.1889,-0.2158,-10.6169,0.0127,-0.0128,-0.0017,0.0000,0.0000,0.0000,0.0000,0.0000,0.0000,0.0000,0.0000,0.0000,0.0000,0.0000,0.0000,0.0000,0.0000,1.0000,0.0000,0.0000,0.0000,-0.1561,0.0211,0.0000,0.0000,0.0000,0.0000,0.0000,0.0000,-0.0000,-0.0460,0.0055,0.0047,0.0000,0.0000,-0.5727,0.0025,0.0025,0.0025,0.0025,4
44,147,307234725855,-10.5238,-0.1561,0.0211,0.0110,0.0810,0.0110,1.1644,23.4375,23.4375,23.4375,23.4375,12.2181,0.0000,-0.0610,-0.3052,0.1221,-0.1626,-0.2038,-10.6455,0.0127,-0.0128,-0.0017,0.0000,0.0000,0.0000,0.0000,0.0000,0.0000,0.0000,0.0000,0.0000,0.0000,0.0000,0.0000,0.0000,0.0000,1.0000,0.0000,0.0000,0.0000,-0.1561,0.0211,0.0000,0.0000,0.0000,0.0000,0.0000,0.0000,-0.0000,-0.0461,0.0068,0.0046,0.0000,0.0000,-0.5727,0.0025,0.0025,0.0025,0.0025,4
45,148,307239683833,-10.5238,-0.1561,0.0211,0.0110,0.0810,0.0110,1.1644,23.4375,23.4375,23.4375,23.4375,12.2184,0.0000,0.0000,0.0000,0.1831,-0.1411,-0.2469,-10.5954,0.0127,-0.0128,-0.0017,0.0000,0.0000,0.0000,0.0000,0.0000,0.0000,0.0000,0.0000,0.0000,0.0000,0.0000,0.0000,0.0000,0.0000,1.0000,0.0000,0.0000,0.0000,-0.1561,0.0211,0.0000,0.0000,0.0000,0.0000,0.0000,0.0000,-0.0000,-0.0461,0.0076,0.0045,0.0000,0.0000,-0.5727,0.0025,0.0025,0.0025,0.0025,4
46,149,307245077739,-10.5238,-0.1561,0.0211,0.0110,0.0810,0.0110,1.1644,23.4375,23.4375,23.4375,23.4375,12.2181,0.0000,-0.2441,-0.1221,-0.0610,-0.1650,-0.1966,-10.5596,0.0127,-0.0128,-0.0017,0.0000,0.0000,0.0000,0.0000,0.0000,0.0000,0.0000,0.0000,0.0000,0.0000,0.0000,0.0000,0.0000,0.0000,1.0000,0.0000,0.0000,0.0000,-0.1561,0.0211,0.0000,0.0000,0.0000,0.0000,0.0000,0.0000,-0.0000,-0.0461,0.0082,0.0046,0.0000,0.0000,-0.5727,0.0025,0.0025,0.0025,0.0025,4
47,150,307249690217,-10.5238,-0.1561,0.0211,0.0110,0.0810,0.0110,1.1644,23.4375,23.4375,23.4375,23.4375,12.2184,0.0000,-0.0610,-0.1221,-0.0000,-0.1674,-0.1846,-10.6193,0.0127,-0.0128,-0.0017,0.0000,0.0000,0.0000,0.0000,0.0000,0.0000,0.0000,0.0000,0.0000,0.0000,0.0000,0.0000,0.0000,0.0000,1.0000,0.0000,0.0000,0.0000,-0.1561,0.0211,0.0000,0.0000,0.0000,0.0000,0.0000,0.0000,-0.0000,-0.0461,0.0085,0.0046,0.0000,0.0000,-0.5727,0.0025,0.0025,0.0025,0.0025,4
48,151,307254667322,-10.5238,-0.1561,0.0211,0.0110,0.0810,0.0110,1.1644,23.4375,23.4375,23.4375,23.4375,12.2184,0.0000,-0.0610,-0.1221,-0.0000,-0.2008,-0.1534,-10.5739,0.0127,-0.0128,-0.0017,0.0000,0.0000,0.0000,0.0000,0.0000,0.0000,0.0000,0.0000,0.0000,0.0000,0.0000,0.0000,0.0000,0.0000,1.0000,0.0000,0.0000,0.0000,-0.1561,0.0211,0.0000,0.0000,0.0000,0.0000,0.0000,0.0000,-0.0000,-0.0461,0.0088,0.0046,0.0000,0.0000,-0.5727,0.0025,0.0025,0.0025,0.0025,4
49,152,307260340637,-10.5238,-0.1561,0.0211,0.0110,0.0810,0.0110,1.1644,23.4375,23.4375,23.4375,23.4375,12.2176,0.0000,0.0000,0.0000,0.2441,-0.1698,-0.2230,-10.6408,0.0127,-0.0128,-0.0017,0.0000,0.0000,0.0000,0.0000,0.0000,0.0000,0.0000,0.0000,0.0000,0.0000,0.0000,0.0000,0.0000,0.0000,1.0000,0.0000,0.0000,0.0000,-0.1561,0.0211,0.0000,0.0000,0.0000,0.0000,0.0000,0.0000,-0.0000,-0.0461,0.0090,0.0045,0.0000,0.0000,-0.5727,0.0025,0.0025,0.0025,0.0025,4
50,153,307264856520,-10.5238,-0.1561,0.0211,0.0110,0.0810,0.0110,1.1644,23.4375,23.4375,23.4375,23.4375,12.2176,0.0000,-0.1221,-0.0610,-0.0000,-0.1674,-0.2134,-10.6622,0.0127,-0.0128,-0.0017,0.0000,0.0000,0.0000,0.0000,0.0000,0.0000,0.0000,0.0000,0.0000,0.0000,0.0000,0.0000,0.0000,0.0000,1.0000,0.0000,0.0000,0.0000,-0.1561,0.0211,0.0000,0.0000,0.0000,0.0000,0.0000,0.0000,-0.0000,-0.0461,0.0091,0.0045,0.0000,0.0000,-0.5727,0.0025,0.0025,0.0025,0.0025,4
51,154,307269770076,-10.5238,-0.1561,0.0211,0.0110,0.0810,0.0110,1.1644,23.4375,23.4375,23.4375,23.4375,12.2181,0.0000,0.0000,0.0000,-0.0000,-0.1506,-0.1846,-10.6384,0.0127,-0.0128,-0.0017,0.0000,0.0000,0.0000,0.0000,0.0000,0.0000,0.0000,0.0000,0.0000,0.0000,0.0000,0.0000,0.0000,0.0000,1.0000,0.0000,0.0000,0.0000,-0.1561,0.0211,0.0000,0.0000,0.0000,0.0000,0.0000,0.0000,-0.0000,-0.0461,0.0091,0.0046,0.0000,0.0000,-0.5727,0.0025,0.0025,0.0025,0.0025,4
52,155,307274693175,-10.5238,-0.1561,0.0211,0.0110,0.0810,0.0110,1.1644,23.4375,23.4375,23.4375,23.4375,12.2184,0.0000,-0.0610,-0.1831,-0.0000,-0.1626,-0.1942,-10.5882,0.0127,-0.0128,-0.0017,0.0000,0.0000,0.0000,0.0000,0.0000,0.0000,0.0000,0.0000,0.0000,0.0000,0.0000,0.0000,0.0000,0.0000,1.0000,0.0000,0.0000,0.0000,-0.1561,0.0211,0.0000,0.0000,0.0000,0.0000,0.0000,0.0000,-0.0000,-0.0461,0.0092,0.0046,0.0000,0.0000,-0.5727,0.0025,0.0025,0.0025,0.0025,4
53,156,307280086373,-10.5238,-0.1561,0.0211,0.0110,0.0810,0.0110,1.1644,23.4375,23.4375,23.4375,23.4375,12.2179,0.0000,-0.1221,-0.0610,0.1831,-0.1363,-0.2014,-10.6217,0.0127,-0.0128,-0.0017,0.0000,0.0000,0.0000,0.0000,0.0000,0.0000,0.0000,0.0000,0.0000,0.0000,0.0000,0.0000,0.0000,0.0000,1.0000,0.0000,0.0000,0.0000,-0.1561,0.0211,0.0000,0.0000,0.0000,0.0000,0.0000,0.0000,-0.0000,-0.0461,0.0093,0.0045,0.0000,0.0000,-0.5727,0.0025,0.0025,0.0025,0.0025,4
54,157,307284701059,-10.5238,-0.1561,0.0211,0.0110,0.0810,0.0110,1.1644,23.4375,23.4375,23.4375,23.4375,12.2184,0.0000,-0.1831,-0.0610,-0.0000,-0.1841,-0.2134,-10.6431,0.0127,-0.0128,-0.0017,0.0000,0.0000,0.0000,0.0000,0.0000,0.0000,0.0000,0.0000,0.0000,0.0000,0.0000,0.0000,0.0000,0.0000,1.0000,0.0000,0.0000,0.0000,-0.1561,0.0211,0.0000,0.0000,0.0000,0.0000,0.0000,0.0000,-0.0000,-0.0460,0.0092,0.0045,0.0000,0.0000,-0.5727,0.0025,0.0025,0.0025,0.0025,4
55,158,307289706918,-10.5238,-0.1561,0.0211,0.0110,0.0810,0.0110,1.1644,23.4375,23.4375,23.4375,23.4375,12.2188,0.0000,-0.0610,-0.1221,-0.0000,-0.1650,-0.1846,-10.6073,0.0127,-0.0128,-0.0017,0.0000,0.0000,0.0000,0.0000,0.0000,0.0000,0.0000,0.0000,0.0000,0.0000,0.0000,0.0000,0.0000,0.0000,1.0000,0.0000,0.0000,0.0000,-0.1561,0.0211,0.0000,0.0000,0.0000,0.0000,0.0000,0.0000,-0.0000,-0.0461,0.0093,0.0046,0.0000,0.0000,-0.5727,0.0025,0.0025,0.0025,0.0025,4
56,159,307378949066,-10.4384,-0.1686,0.1123,0.0410,0.0610,0.0310,1.1644,23.4375,23.4375,23.4375,23.4375,12.2186,0.0000,-0.0610,-0.1831,0.1221,-0.1458,-0.1774,-10.5954,0.0127,-0.0129,-0.0017,0.0000,0.0000,0.0000,0.0000,0.0000,0.0000,0.0000,0.0000,0.0000,0.0000,0.0000,0.0000,0.0000,0.0000,1.0000,0.0000,0.0000,0.0000,-0.1686,0.1123,0.0000,0.0000,0.0000,0.0000,0.0000,0.0000,-0.0000,-0.1100,0.1100,0.0045,0.0000,0.0000,-0.5689,0.0025,0.0025,0.0025,0.0025,4
57,160,307435807733,-10.4384,-0.1686,0.1123,0.0410,0.0610,0.0310,1.1644,23.4375,23.4375,23.4375,23.4375,12.2181,0.0000,0.0000,0.0000,0.1221,-0.1482,-0.2062,-10.7076,0.0128,-0.0130,-0.0016,0.0000,0.0000,0.0000,0.0000,0.0000,0.0000,0.0000,0.0000,0.0000,0.0000,0.0000,0.0000,0.0000,0.0000,1.0000,0.0000,0.0000,0.0000,-0.1686,0.1123,0.0000,0.0000,0.0000,0.0000,0.0000,0.0000,-0.0000,-0.0911,0.0868,0.0041,0.0000,0.0000,-0.5689,0.0025,0.0025,0.0025,0.0025,4
58,161,307439692455,-10.4384,-0.1686,0.1123,0.0410,0.0610,0.0310,1.1644,23.4375,23.4375,23.4375,23.4375,12.2184,0.0000,-0.0610,-0.1831,0.1831,-0.1291,-0.1918,-10.5882,0.0128,-0.0130,-0.0016,0.0000,0.0000,0.0000,0.0000,0.0000,0.0000,0.0000,0.0000,0.0000,0.0000,0.0000,0.0000,0.0000,0.0000,1.0000,0.0000,0.0000,0.0000,-0.1686,0.1123,0.0000,0.0000,0.0000,0.0000,0.0000,0.0000,-0.0000,-0.0781,0.0703,0.0041,0.0000,0.0000,-0.5689,0.0025,0.0025,0.0025,0.0025,4
59,162,307444698564,-10.4384,-0.1686,0.1123,0.0410,0.0610,0.0310,1.1644,23.4375,23.4375,23.4375,23.4375,12.2186,0.0000,-0.1221,-0.0610,-0.0000,-0.1602,-0.2230,-10.6312,0.0128,-0.0130,-0.0016,0.0000,0.0000,0.0000,0.0000,0.0000,0.0000,0.0000,0.0000,0.0000,0.0000,0.0000,0.0000,0.0000,0.0000,1.0000,0.0000,0.0000,0.0000,-0.1686,0.1123,0.0000,0.0000,0.0000,0.0000,0.0000,0.0000,-0.0000,-0.0691,0.0589,0.0041,0.0000,0.0000,-0.5689,0.0025,0.0025,0.0025,0.0025,4
60,163,307450005668,-10.4384,-0.1686,0.1123,0.0410,0.0610,0.0310,1.1644,23.4375,23.4375,23.4375,23.4375,12.2186,0.0000,-0.0610,-0.1221,-0.0610,-0.1698,-0.1918,-10.6193,0.0128,-0.0130,-0.0016,0.0000,0.0000,0.0000,0.0000,0.0000,0.0000,0.0000,0.0000,0.0000,0.0000,0.0000,0.0000,0.0000,0.0000,1.0000,0.0000,0.0000,0.0000,-0.1686,0.1123,0.0000,0.0000,0.0000,0.0000,0.0000,0.0000,-0.0000,-0.0630,0.0512,0.0043,0.0000,0.0000,-0.5689,0.0025,0.0025,0.0025,0.0025,4
61,164,307454645399,-10.4384,-0.1686,0.1123,0.0410,0.0610,0.0310,1.1644,23.4375,23.4375,23.4375,23.4375,12.2198,0.0000,-0.1831,-0.1221,-0.0000,-0.2056,-0.1774,-10.6622,0.0128,-0.0130,-0.0016,0.0000,0.0000,0.0000,0.0000,0.0000,0.0000,0.0000,0.0000,0.0000,0.0000,0.0000,0.0000,0.0000,0.0000,1.0000,0.0000,0.0000,0.0000,-0.1686,0.1123,0.0000,0.0000,0.0000,0.0000,0.0000,0.0000,-0.0000,-0.0587,0.0459,0.0043,0.0000,0.0000,-0.5689,0.0025,0.0025,0.0025,0.0025,4
62,165,307460102313,-10.4384,-0.1686,0.1123,0.0410,0.0610,0.0310,1.1644,23.4375,23.4375,23.4375,23.4375,12.2198,0.0000,-0.2441,-0.1221,-0.1221,-0.1889,-0.1798,-10.6193,0.0128,-0.0130,-0.0016,0.0000,0.0000,0.0000,0.0000,0.0000,0.0000,0.0000,0.0000,0.0000,0.0000,0.0000,0.0000,0.0000,0.0000,1.0000,0.0000,0.0000,0.0000,-0.1686,0.1123,0.0000,0.0000,0.0000,0.0000,0.0000,0.0000,-0.0000,-0.0557,0.0423,0.0044,0.0000,0.0000,-0.5689,0.0025,0.0025,0.0025,0.0025,4
63,166,307465199391,-10.4384,-0.1686,0.1123,0.0410,0.0610,0.0310,1.1644,23.4375,23.4375,23.4375,23.4375,12.2196,0.0000,-0.2441,-0.2441,-0.0000,-0.1698,-0.1582,-10.6527,0.0128,-0.0130,-0.0016,0.0000,0.0000,0.0000,0.0000,0.0000,0.0000,0.0000,0.0000,0.0000,0.0000,0.0000,0.0000,0.0000,0.0000,1.0000,0.0000,0.0000,0.0000,-0.1686,0.1123,0.0000,0.0000,0.0000,0.0000,0.0000,0.0000,-0.0000,-0.0537,0.0398,0.0044,0.0000,0.0000,-0.5689,0.0025,0.0025,0.0025,0.0025,4
64,167,307469691230,-10.4384,-0.1686,0.1123,0.0410,0.0610,0.0310,1.1644,23.4375,23.4375,23.4375,23.4375,12.2200,0.0000,-0.0610,-0.1221,-0.0000,-0.1004,-0.1534,-10.6169,0.0128,-0.0130,-0.0016,0.0000,0.0000,0.0000,0.0000,0.0000,0.0000,0.0000,0.0000,0.0000,0.0000,0.0000,0.0000,0.0000,0.0000,1.0000,0.0000,0.0000,0.0000,-0.1686,0.1123,0.0000,0.0000,0.0000,0.0000,0.0000,0.0000,-0.0000,-0.0524,0.0381,0.0045,0.0000,0.0000,-0.5689,0.0025,0.0025,0.0025,0.0025,4
65,168,307474635081,-10.4384,-0.1686,0.1123,0.0410,0.0610,0.0310,1.1644,23.4375,23.4375,23.4375,23.4375,12.2196,0.0000,0.0000,0.0000,-0.0000,-0.1984,-0.1630,-10.5668,0.0128,-0.0130,-0.0016,0.0000,0.0000,0.0000,0.0000,0.0000,0.0000,0.0000,0.0000,0.0000,0.0000,0.0000,0.0000,0.0000,0.0000,1.0000,0.0000,0.0000,0.0000,-0.1686,0.1123,0.0000,0.0000,0.0000,0.0000,0.0000,0.0000,-0.0000,-0.0515,0.0368,0.0045,0.0000,0.0000,-0.5689,0.0025,0.0025,0.0025,0.0025,4
66,169,307479652858,-10.4384,-0.1686,0.1123,0.0410,0.0610,0.0310,1.1644,23.4375,23.4375,23.4375,23.4375,12.2203,0.0000,-0.1221,-0.0610,-0.0610,-0.1530,-0.2445,-10.6431,0.0128,-0.0130,-0.0016,0.0000,0.0000,0.0000,0.0000,0.0000,0.0000,0.0000,0.0000,0.0000,0.0000,0.0000,0.0000,0.0000,0.0000,1.0000,0.0000,0.0000,0.0000,-0.1686,0.1123,0.0000,0.0000,0.0000,0.0000,0.0000,0.0000,-0.0000,-0.0508,0.0360,0.0046,0.0000,0.0000,-0.5689,0.0025,0.0025,0.0025,0.0025,4
67,170,307485009676,-10.4384,-0.1686,0.1123,0.0410,0.0610,0.0310,1.1644,23.4375,23.4375,23.4375,23.4375,12.2208,0.0000,-0.1221,-0.0610,0.1221,-0.1674,-0.1942,-10.5787,0.0128,-0.0130,-0.0016,0.0000,0.0000,0.0000,0.0000,0.0000,0.0000,0.0000,0.0000,0.0000,0.0000,0.0000,0.0000,0.0000,0.0000,1.0000,0.0000,0.0000,0.0000,-0.1686,0.1123,0.0000,0.0000,0.0000,0.0000,0.0000,0.0000,-0.0000,-0.0504,0.0355,0.0045,0.0000,0.0000,-0.5689,0.0025,0.0025,0.0025,0.0025,4
68,171,307489675286,-10.4384,-0.1686,0.1123,0.0410,0.0610,0.0310,1.1644,23.4375,23.4375,23.4375,23.4375,12.2205,0.0000,-0.2441,-0.1831,0.1221,-0.1674,-0.1894,-10.6145,0.0128,-0.0131,-0.0016,0.0000,0.0000,0.0000,0.0000,0.0000,0.0000,0.0000,0.0000,0.0000,0.0000,0.0000,0.0000,0.0000,0.0000,1.0000,0.0000,0.0000,0.0000,-0.1686,0.1123,0.0000,0.0000,0.0000,0.0000,0.0000,0.0000,-0.0000,-0.0501,0.0351,0.0045,0.0000,0.0000,-0.5689,0.0025,0.0025,0.0025,0.0025,4
69,172,307494602218,-10.4384,-0.1686,0.1123,0.0410,0.0610,0.0310,1.1644,23.4375,23.4375,23.4375,23.4375,12.2210,0.0000,-0.0610,-0.1221,0.1221,-0.1458,-0.2349,-10.5930,0.0128,-0.0131,-0.0016,0.0000,0.0000,0.0000,0.0000,0.0000,0.0000,0.0000,0.0000,0.0000,0.0000,0.0000,0.0000,0.0000,0.0000,1.0000,0.0000,0.0000,0.0000,-0.1686,0.1123,0.0000,0.0000,0.0000,0.0000,0.0000,0.0000,-0.0000,-0.0499,0.0349,0.0044,0.0000,0.0000,-0.5689,0.0025,0.0025,0.0025,0.0025,4
70,173,307500213443,-10.4384,-0.1686,0.1123,0.0410,0.0610,0.0310,1.1644,23.4375,23.4375,23.4375,23.4375,12.2210,0.0000,-0.3052,-0.1831,-0.0610,-0.2032,-0.1846,-10.6527,0.0128,-0.0131,-0.0016,0.0000,0.0000,0.0000,0.0000,0.0000,0.0000,0.0000,0.0000,0.0000,0.0000,0.0000,0.0000,0.0000,0.0000,1.0000,0.0000,0.0000,0.0000,-0.1686,0.1123,0.0000,0.0000,0.0000,0.0000,0.0000,0.0000,-0.0000,-0.0497,0.0347,0.0045,0.0000,0.0000,-0.5689,0.0025,0.0025,0.0025,0.0025,4
71,174,307504719991,-10.4384,-0.1686,0.1123,0.0210,0.0810,0.0110,1.1644,23.4375,23.4375,23.4375,23.4375,12.2203,0.0000,-0.0610,-0.1831,-0.0000,-0.1721,-0.2086,-10.6933,0.0128,-0.0131,-0.0017,0.0000,0.0000,0.0000,0.0000,0.0000,0.0000,0.0000,0.0000,0.0000,0.0000,0.0000,0.0000,0.0000,0.0000,1.0000,0.0000,0.0000,0.0000,-0.1686,0.1123,0.0000,0.0000,0.0000,0.0000,0.0000,0.0000,-0.0000,-0.0497,0.0346,0.0046,0.0000,0.0000,-0.5689,0.0025,0.0025,0.0025,0.0025,4
72,175,307509818694,-10.4384,-0.1686,0.1123,0.0210,0.0810,0.0110,1.1644,23.4375,23.4375,23.4375,23.4375,12.2198,0.0000,-0.1831,-0.1831,-0.0000,-0.1387,-0.2038,-10.6073,0.0128,-0.0131,-0.0017,0.0000,0.0000,0.0000,0.0000,0.0000,0.0000,0.0000,0.0000,0.0000,0.0000,0.0000,0.0000,0.0000,0.0000,1.0000,0.0000,0.0000,0.0000,-0.1686,0.1123,0.0000,0.0000,0.0000,0.0000,0.0000,0.0000,-0.0000,-0.0496,0.0346,0.0046,0.0000,0.0000,-0.5689,0.0025,0.0025,0.0025,0.0025,4
73,176,307514633780,-10.4384,-0.1686,0.1123,0.0210,0.0810,0.0110,1.1644,23.4375,23.4375,23.4375,23.4375,12.2200,0.0000,-0.1831,-0.0610,0.1221,-0.1602,-0.1918,-10.6288,0.0128,-0.0131,-0.0016,0.0000,0.0000,0.0000,0.0000,0.0000,0.0000,0.0000,0.0000,0.0000,0.0000,0.0000,0.0000,0.0000,0.0000,1.0000,0.0000,0.0000,0.0000,-0.1686,0.1123,0.0000,0.0000,0.0000,0.0000,0.0000,0.0000,-0.0000,-0.0495,0.0345,0.0045,0.0000,0.0000,-0.5689,0.0025,0.0025,0.0025,0.0025,4
74,177,307542030363,-10.5249,-0.1519,0.0392,0.0210,0.0810,0.0110,1.1644,23.4375,23.4375,23.4375,23.4375,12.2196,0.0000,-0.2441,-0.0610,0.1831,-0.1554,-0.1702,-10.5930,0.0128,-0.0131,-0.0016,0.0000,0.0000,0.0000,0.0000,0.0000,0.0000,0.0000,0.0000,0.0000,0.0000,0.0000,0.0000,0.0000,0.0000,1.0000,0.0000,0.0000,0.0000,-0.1519,0.0392,0.0000,0.0000,0.0000,0.0000,0.0000,0.0000,-0.0000,0.0507,-0.1460,0.0044,0.0000,0.0000,-0.5727,0.0025,0.0025,0.0025,0.0025,4
75,178,307545737981,-10.5249,-0.1519,0.0392,0.0210,0.0810,0.0110,1.1644,23.4375,23.4375,23.4375,23.4375,12.2188,0.0000,-0.1831,-0.1831,0.1221,-0.1411,-0.1798,-10.5620,0.0128,-0.0131,-0.0016,0.0000,0.0000,0.0000,0.0000,0.0000,0.0000,0.0000,0.0000,0.0000,0.0000,0.0000,0.0000,0.0000,0.0000,1.0000,0.0000,0.0000,0.0000,-0.1519,0.0392,0.0000,0.0000,0.0000,0.0000,0.0000,0.0000,-0.0000,0.0207,-0.0956,0.0042,0.0000,0.0000,-0.5727,0.0025,0.0025,0.0025,0.0025,4
76,179,307581485913,-10.5249,-0.1519,0.0392,0.0210,0.0810,0.0110,1.1644,23.4375,23.4375,23.4375,23.4375,12.2191,0.0000,-0.2441,-0.1221,-0.2441,-0.2056,-0.1822,-10.6670,0.0128,-0.0131,-0.0016,0.0000,0.0000,0.0000,0.0000,0.0000,0.0000,0.0000,0.0000,0.0000,0.0000,0.0000,0.0000,0.0000,0.0000,1.0000,0.0000,0.0000,0.0000,-0.1519,0.0392,0.0000,0.0000,0.0000,0.0000,0.0000,0.0000,-0.0000,0.0001,-0.0610,0.0044,0.0000,0.0000,-0.5727,0.0025,0.0025,0.0025,0.0025,4
77,180,307641146503,-10.5249,-0.1519,0.0392,0.0210,0.0810,0.0110,1.1644,23.4375,23.4375,23.4375,23.4375,12.2191,0.0000,0.0000,-0.0610,-0.0000,-0.1698,-0.2182,-10.6193,0.0128,-0.0132,-0.0016,0.0000,0.0000,0.0000,0.0000,0.0000,0.0000,0.0000,0.0000,0.0000,0.0000,0.0000,0.0000,0.0000,0.0000,1.0000,0.0000,0.0000,0.0000,-0.1519,0.0392,0.0000,0.0000,0.0000,0.0000,0.0000,0.0000,-0.0000,-0.0143,-0.0372,0.0044,0.0000,0.0000,-0.5727,0.0025,0.0025,0.0025,0.0025,4
78,181,307644648221,-10.5249,-0.1519,0.0392,0.0210,0.0810,0.0110,1.1644,23.4375,23.4375,23.4375,23.4375,12.2191,0.0000,-0.0610,-0.1221,0.1221,-0.1435,-0.1774,-10.6312,0.0128,-0.0132,-0.0016,0.0000,0.0000,0.0000,0.0000,0.0000,0.0000,0.0000,0.0000,0.0000,0.0000,0.0000,0.0000,0.0000,0.0000,1.0000,0.0000,0.0000,0.0000,-0.1519,0.0392,0.0000,0.0000,0.0000,0.0000,0.0000,0.0000,-0.0000,-0.0239,-0.0210,0.0044,0.0000,0.0000,-0.5727,0.0025,0.0025,0.0025,0.0025,4
79,182,307649588739,-10.5249,-0.1519,0.0392,0.0210,0.0810,0.0110,1.1644,23.4375,23.4375,23.4375,23.4375,12.2191,0.0000,-0.1831,-0.1221,0.1831,-0.1506,-0.2086,-10.5524,0.0128,-0.0132,-0.0016,0.0000,0.0000,0.0000,0.0000,0.0000,0.0000,0.0000,0.0000,0.0000,0.0000,0.0000,0.0000,0.0000,0.0000,1.0000,0.0000,0.0000,0.0000,-0.1519,0.0392,0.0000,0.0000,0.0000,0.0000,0.0000,0.0000,-0.0000,-0.0305,-0.0099,0.0043,0.0000,0.0000,-0.5727,0.0025,0.0025,0.0025,0.0025,4
80,183,307654928138,-10.5249,-0.1519,0.0392,0.0210,0.0810,0.0110,1.1644,23.4375,23.4375,23.4375,23.4375,12.2196,0.0000,-0.1221,-0.0610,0.1221,-0.1721,-0.1774,-10.6670,0.0128,-0.0132,-0.0016,0.0000,0.0000,0.0000,0.0000,0.0000,0.0000,0.0000,0.0000,0.0000,0.0000,0.0000,0.0000,0.0000,0.0000,1.0000,0.0000,0.0000,0.0000,-0.1519,0.0392,0.0000,0.0000,0.0000,0.0000,0.0000,0.0000,-0.0000,-0.0350,-0.0023,0.0043,0.0000,0.0000,-0.5727,0.0025,0.0025,0.0025,0.0025,4
81,184,307659620001,-10.5249,-0.1519,0.0392,0.0210,0.0810,0.0110,1.1644,23.4375,23.4375,23.4375,23.4375,12.2198,0.0000,-0.1831,-0.0610,-0.0000,-0.1602,-0.1462,-10.5954,0.0128,-0.0132,-0.0016,0.0000,0.0000,0.0000,0.0000,0.0000,0.0000,0.0000,0.0000,0.0000,0.0000,0.0000,0.0000,0.0000,0.0000,1.0000,0.0000,0.0000,0.0000,-0.1519,0.0392,0.0000,0.0000,0.0000,0.0000,0.0000,0.0000,-0.0000,-0.0381,0.0029,0.0043,0.0000,0.0000,-0.5727,0.0025,0.0025,0.0025,0.0025,4
82,185,307664786879,-10.5249,-0.1519,0.0392,0.0210,0.0810,0.0110,1.1644,23.4375,23.4375,23.4375,23.4375,12.2198,0.0000,-0.1221,-0.0610,-0.0610,-0.1578,-0.1990,-10.6240,0.0128,-0.0132,-0.0016,0.0000,0.0000,0.0000,0.0000,0.0000,0.0000,0.0000,0.0000,0.0000,0.0000,0.0000,0.0000,0.0000,0.0000,1.0000,0.0000,0.0000,0.0000,-0.1519,0.0392,0.0000,0.0000,0.0000,0.0000,0.0000,0.0000,-0.0000,-0.0402,0.0065,0.0044,0.0000,0.0000,-0.5727,0.0025,0.0025,0.0025,0.0025,4
83,186,307669658389,-10.5249,-0.1519,0.0392,0.0210,0.0810,0.0110,1.1644,23.4375,23.4375,23.4375,23.4375,12.2200,0.0000,0.0000,-0.0610,-0.0000,-0.1721,-0.2038,-10.6431,0.0128,-0.0132,-0.0016,0.0000,0.0000,0.0000,0.0000,0.0000,0.0000,0.0000,0.0000,0.0000,0.0000,0.0000,0.0000,0.0000,0.0000,1.0000,0.0000,0.0000,0.0000,-0.1519,0.0392,0.0000,0.0000,0.0000,0.0000,0.0000,0.0000,-0.0000,-0.0418,0.0090,0.0044,0.0000,0.0000,-0.5727,0.0025,0.0025,0.0025,0.0025,4
84,187,307675001414,-10.5249,-0.1519,0.0392,0.0210,0.0810,0.0110,1.1644,23.4375,23.4375,23.4375,23.4375,12.2196,0.0000,0.0000,0.0000,-0.0000,-0.1530,-0.1750,-10.5787,0.0128,-0.0132,-0.0016,0.0000,0.0000,0.0000,0.0000,0.0000,0.0000,0.0000,0.0000,0.0000,0.0000,0.0000,0.0000,0.0000,0.0000,1.0000,0.0000,0.0000,0.0000,-0.1519,0.0392,0.0000,0.0000,0.0000,0.0000,0.0000,0.0000,-0.0000,-0.0428,0.0106,0.0044,0.0000,0.0000,-0.5727,0.0025,0.0025,0.0025,0.0025,4
85,188,307679629977,-10.5249,-0.1519,0.0392,0.0210,0.0810,0.0110,1.1644,23.4375,23.4375,23.4375,23.4375,12.2203,0.0000,-0.0610,-0.1221,-0.0000,-0.1769,-0.2062,-10.6718,0.0128,-0.0132,-0.0016,0.0000,0.0000,0.0000,0.0000,0.0000,0.0000,0.0000,0.0000,0.0000,0.0000,0.0000,0.0000,0.0000,0.0000,1.0000,0.0000,0.0000,0.0000,-0.1519,0.0392,0.0000,0.0000,0.0000,0.0000,0.0000,0.0000,-0.0000,-0.0435,0.0118,0.0045,0.0000,0.0000,-0.5727,0.0025,0.0025,0.0025,0.0025,4
86,189,307684638419,-10.5249,-0.1519,0.0392,0.0210,0.0810,0.0110,1.1644,23.4375,23.4375,23.4375,23.4375,12.2198,0.0000,-0.0610,-0.1831,-0.0610,-0.1578,-0.1750,-10.5954,0.0128,-0.0132,-0.0016,0.0000,0.0000,0.0000,0.0000,0.0000,0.0000,0.0000,0.0000,0.0000,0.0000,0.0000,0.0000,0.0000,0.0000,1.0000,0.0000,0.0000,0.0000,-0.1519,0.0392,0.0000,0.0000,0.0000,0.0000,0.0000,0.0000,-0.0000,-0.0440,0.0127,0.0046,0.0000,0.0000,-0.5727,0.0025,0.0025,0.0025,0.0025,4
87,190,307689922770,-10.5249,-0.1519,0.0392,0.0210,0.0810,0.0110,1.1644,23.4375,23.4375,23.4375,23.4375,12.2203,0.0000,-0.0610,-0.1831,0.1221,-0.1745,-0.1942,-10.6431,0.0128,-0.0132,-0.0016,0.0000,0.0000,0.0000,0.0000,0.0000,0.0000,0.0000,0.0000,0.0000,0.0000,0.0000,0.0000,0.0000,0.0000,1.0000,0.0000,0.0000,0.0000,-0.1519,0.0392,0.0000,0.0000,0.0000,0.0000,0.0000,0.0000,-0.0000,-0.0443,0.0133,0.0045,0.0000,0.0000,-0.5727,0.0025,0.0025,0.0025,0.0025,4
88,191,307694565085,-10.5249,-0.1519,0.0392,0.0210,0.0810,0.0110,1.1644,23.4375,23.4375,23.4375,23.4375,12.2205,0.0000,-0.0610,-0.1221,0.1221,-0.1721,-0.1822,-10.6240,0.0128,-0.0132,-0.0016,0.0000,0.0000,0.0000,0.0000,0.0000,0.0000,0.0000,0.0000,0.0000,0.0000,0.0000,0.0000,0.0000,0.0000,1.0000,0.0000,0.0000,0.0000,-0.1519,0.0392,0.0000,0.0000,0.0000,0.0000,0.0000,0.0000,-0.0000,-0.0445,0.0136,0.0045,0.0000,0.0000,-0.5727,0.0025,0.0025,0.0025,0.0025,4
89,192,307699611407,-10.5249,-0.1519,0.0392,0.0210,0.0810,0.0110,1.1644,23.4375,23.4375,23.4375,23.4375,12.2210,0.0000,-0.0610,-0.2441,-0.0610,-0.1889,-0.1750,-10.6193,0.0129,-0.0132,-0.0016,0.0000,0.0000,0.0000,0.0000,0.0000,0.0000,0.0000,0.0000,0.0000,0.0000,0.0000,0.0000,0.0000,0.0000,1.0000,0.0000,0.0000,0.0000,-0.1519,0.0392,0.0000,0.0000,0.0000,0.0000,0.0000,0.0000,-0.0000,-0.0446,0.0139,0.0046,0.0000,0.0000,-0.5727,0.0025,0.0025,0.0025,0.0025,4
90,193,307739684115,-10.5310,-0.1298,0.0813,0.0510,0.0810,0.0110,1.1644,23.4375,23.4375,23.4375,23.4375,12.2208,0.0000,-0.1831,-0.1221,-0.0610,-0.1506,-0.1990,-10.6479,0.0129,-0.0133,-0.0017,0.0000,0.0000,0.0000,0.0000,0.0000,0.0000,0.0000,0.0000,0.0000,0.0000,0.0000,0.0000,0.0000,0.0000,1.0000,0.0000,0.0000,0.0000,-0.1298,0.0813,0.0000,0.0000,0.0000,0.0000,0.0000,0.0000,-0.0000,0.0868,0.1780,0.0046,0.0000,0.0000,-0.5728,0.0025,0.0025,0.0025,0.0025,4
91,194,307795693804,-10.5310,-0.1298,0.0813,0.0510,0.0810,0.0110,1.1644,23.4375,23.4375,23.4375,23.4375,12.2213,0.0000,0.0000,0.0000,-0.0000,-0.1961,-0.2158,-10.6646,0.0129,-0.0133,-0.0017,0.0000,0.0000,0.0000,0.0000,0.0000,0.0000,0.0000,0.0000,0.0000,0.0000,0.0000,0.0000,0.0000,0.0000,1.0000,0.0000,0.0000,0.0000,-0.1298,0.0813,0.0000,0.0000,0.0000,0.0000,0.0000,0.0000,-0.0000,0.0473,0.1306,0.0048,0.0000,0.0000,-0.5728,0.0025,0.0025,0.0025,0.0025,4
92,195,307799613156,-10.5310,-0.1298,0.0813,0.0510,0.0810,0.0110,1.1644,23.4375,23.4375,23.4375,23.4375,12.2213,0.0000,-0.0610,-0.1221,-0.0000,-0.2104,-0.1870,-10.5644,0.0129,-0.0133,-0.0017,0.0000,0.0000,0.0000,0.0000,0.0000,0.0000,0.0000,0.0000,0.0000,0.0000,0.0000,0.0000,0.0000,0.0000,1.0000,0.0000,0.0000,0.0000,-0.1298,0.0813,0.0000,0.0000,0.0000,0.0000,0.0000,0.0000,-0.0000,0.0202,0.0977,0.0049,0.0000,0.0000,-0.5728,0.0025,0.0025,0.0025,0.0025,4
93,196,307804602263,-10.5310,-0.1298,0.0813,0.0510,0.0810,0.0110,1.1644,23.4375,23.4375,23.4375,23.4375,12.2213,0.0000,-0.0610,-0.2441,-0.0000,-0.0980,-0.1798,-10.6885,0.0129,-0.0133,-0.0017,0.0000,0.0000,0.0000,0.0000,0.0000,0.0000,0.0000,0.0000,0.0000,0.0000,0.0000,0.0000,0.0000,0.0000,1.0000,0.0000,0.0000,0.0000,-0.1298,0.0813,0.0000,0.0000,0.0000,0.0000,0.0000,0.0000,-0.0000,0.0016,0.0752,0.0049,0.0000,0.0000,-0.5728,0.0025,0.0025,0.0025,0.0025,4
94,197,307810206986,-10.5310,-0.1298,0.0813,0.0510,0.0810,0.0110,1.1644,23.4375,23.4375,23.4375,23.4375,12.2217,0.0000,0.0000,0.0000,-0.0000,-0.1482,-0.1966,-10.6169,0.0129,-0.0133,-0.0017,0.0000,0.0000,0.0000,0.0000,0.0000,0.0000,0.0000,0.0000,0.0000,0.0000,0.0000,0.0000,0.0000,0.0000,1.0000,0.0000,0.0000,0.0000,-0.1298,0.0813,0.0000,0.0000,0.0000,0.0000,0.0000,0.0000,-0.0000,-0.0112,0.0597,0.0048,0.0000,0.0000,-0.5728,0.0025,0.0025,0.0025,0.0025,4
95,198,307814773417,-10.5310,-0.1298,0.0813,0.0510,0.0810,0.0110,1.1644,23.4375,23.4375,23.4375,23.4375,12.2222,0.0000,-0.2441,-0.1221,0.1831,-0.1674,-0.1534,-10.6121,0.0129,-0.0133,-0.0017,0.0000,0.0000,0.0000,0.0000,0.0000,0.0000,0.0000,0.0000,0.0000,0.0000,0.0000,0.0000,0.0000,0.0000,1.0000,0.0000,0.0000,0.0000,-0.1298,0.0813,0.0000,0.0000,0.0000,0.0000,0.0000,0.0000,-0.0000,-0.0198,0.0491,0.0047,0.0000,0.0000,-0.5728,0.0025,0.0025,0.0025,0.0025,4
96,199,307819724394,-10.5310,-0.1298,0.0813,0.0510,0.0810,0.0110,1.1644,23.4375,23.4375,23.4375,23.4375,12.2217,0.0000,-0.3662,0.0000,-0.0000,-0.1865,-0.1942,-10.6742,0.0129,-0.0133,-0.0017,0.0000,0.0000,0.0000,0.0000,0.0000,0.0000,0.0000,0.0000,0.0000,0.0000,0.0000,0.0000,0.0000,0.0000,1.0000,0.0000,0.0000,0.0000,-0.1298,0.0813,0.0000,0.0000,0.0000,0.0000,0.0000,0.0000,-0.0000,-0.0257,0.0417,0.0047,0.0000,0.0000,-0.5728,0.0025,0.0025,0.0025,0.0025,4
97,200,307825173973,-10.5310,-0.1298,0.0813,0.0510,0.0810,0.0110,1.1644,23.4375,23.4375,23.4375,23.4375,12.2222,0.0000,0.0000,-0.1831,0.2441,-0.1411,-0.1798,-10.6336,0.0129,-0.0134,-0.0017,0.0000,0.0000,0.0000,0.0000,0.0000,0.0000,0.0000,0.0000,0.0000,0.0000,0.0000,0.0000,0.0000,0.0000,1.0000,0.0000,0.0000,0.0000,-0.1298,0.0813,0.0000,0.0000,0.0000,0.0000,0.0000,0.0000,-0.0000,-0.0299,0.0368,0.0045,0.0000,0.0000,-0.5728,0.0025,0.0025,0.0025,0.0025,4
98,201,307829631307,-10.5310,-0.1298,0.0813,0.0510,0.0810,0.0110,1.1644,23.4375,23.4375,23.4375,23.4375,12.2220,0.0000,0.0610,0.0000,-0.0000,-0.1458,-0.1942,-10.6073,0.0129,-0.0134,-0.0017,0.0000,0.0000,0.0000,0.0000,0.0000,0.0000,0.0000,0.0000,0.0000,0.0000,0.0000,0.0000,0.0000,0.0000,1.0000,0.0000,0.0000,0.0000,-0.1298,0.0813,0.0000,0.0000,0.0000,0.0000,0.0000,0.0000,-0.0000,-0.0328,0.0334,0.0046,0.0000,0.0000,-0.5728,0.0025,0.0025,0.0025,0.0025,4
99,202,307834574825,-10.5310,-0.1298,0.0813,0.0510,0.0810,0.0110,1.1644,23.4375,23.4375,23.4375,23.4375,12.2215,0.0000,0.0000,0.0000,-0.0000,-0.1458,-0.1846,-10.6789,0.0129,-0.0134,-0.0017,0.0000,0.0000,0.0000,0.0000,0.0000,0.0000,0.0000,0.0000,0.0000,0.0000,0.0000,0.0000,0.0000,0.0000,1.0000,0.0000,0.0000,0.0000,-0.1298,0.0813,0.0000,0.0000,0.0000,0.0000,0.0000,0.0000,-0.0000,-0.0348,0.0310,0.0046,0.0000,0.0000,-0.5728,0.0025,0.0025,0.0025,0.0025,4
100,203,307839617314,-10.5310,-0.1298,0.0813,0.0510,0.0810,0.0110,1.1644,23.4375,23.4375,23.4375,23.4375,12.2210,0.0000,-0.2441,-0.1221,-0.0000,-0.1363,-0.1870,-10.6718,0.0129,-0.0134,-0.0017,0.0000,0.0000,0.0000,0.0000,0.0000,0.0000,0.0000,0.0000,0.0000,0.0000,0.0000,0.0000,0.0000,0.0000,1.0000,0.0000,0.0000,0.0000,-0.1298,0.0813,0.0000,0.0000,0.0000,0.0000,0.0000,0.0000,-0.0000,-0.0360,0.0294,0.0046,0.0000,0.0000,-0.5728,0.0025,0.0025,0.0025,0.0025,4
101,204,307844953588,-10.5310,-0.1298,0.0813,0.0510,0.0810,0.0110,1.1644,23.4375,23.4375,23.4375,23.4375,12.2213,0.0000,0.0000,0.0000,-0.0610,-0.1650,-0.1750,-10.6050,0.0129,-0.0134,-0.0017,0.0000,0.0000,0.0000,0.0000,0.0000,0.0000,0.0000,0.0000,0.0000,0.0000,0.0000,0.0000,0.0000,0.0000,1.0000,0.0000,0.0000,0.0000,-0.1298,0.0813,0.0000,0.0000,0.0000,0.0000,0.0000,0.0000,-0.0000,-0.0370,0.0283,0.0047,0.0000,0.0000,-0.5728,0.0025,0.0025,0.0025,0.0025,4
102,205,307856238961,-10.5310,-0.1298,0.0813,0.0510,0.0810,0.0110,1.1644,23.4375,23.4375,23.4375,23.4375,12.2213,0.0000,-0.2441,-0.1221,-0.0000,-0.1530,-0.1822,-10.5691,0.0129,-0.0134,-0.0017,0.0000,0.0000,0.0000,0.0000,0.0000,0.0000,0.0000,0.0000,0.0000,0.0000,0.0000,0.0000,0.0000,0.0000,1.0000,0.0000,0.0000,0.0000,-0.1298,0.0813,0.0000,0.0000,0.0000,0.0000,0.0000,0.0000,-0.0000,-0.0375,0.0275,0.0047,0.0000,0.0000,-0.5728,0.0025,0.0025,0.0025,0.0025,4
103,206,307857845740,-10.5310,-0.1298,0.0813,0.0510,0.0810,0.0110,1.1644,23.4375,23.4375,23.4375,23.4375,12.2222,0.0000,-0.0610,-0.1221,-0.0000,-0.1841,-0.1966,-10.6551,0.0129,-0.0134,-0.0017,0.0000,0.0000,0.0000,0.0000,0.0000,0.0000,0.0000,0.0000,0.0000,0.0000,0.0000,0.0000,0.0000,0.0000,1.0000,0.0000,0.0000,0.0000,-0.1298,0.0813,0.0000,0.0000,0.0000,0.0000,0.0000,0.0000,-0.0000,-0.0380,0.0270,0.0048,0.0000,0.0000,-0.5728,0.0025,0.0025,0.0025,0.0025,4
104,207,307859546280,-10.5310,-0.1298,0.0813,0.0510,0.0810,0.0110,1.1644,23.4375,23.4375,23.4375,23.4375,12.2225,0.0000,-0.1831,-0.1221,0.1221,-0.1578,-0.1894,-10.6264,0.0129,-0.0134,-0.0017,0.0000,0.0000,0.0000,0.0000,0.0000,0.0000,0.0000,0.0000,0.0000,0.0000,0.0000,0.0000,0.0000,0.0000,1.0000,0.0000,0.0000,0.0000,-0.1298,0.0813,0.0000,0.0000,0.0000,0.0000,0.0000,0.0000,-0.0000,-0.0383,0.0267,0.0047,0.0000,0.0000,-0.5728,0.0025,0.0025,0.0025,0.0025,4
105,208,307865062909,-10.5310,-0.1298,0.0813,0.0510,0.0810,0.0110,1.1644,23.4375,23.4375,23.4375,23.4375,12.2213,0.0000,-0.1831,-0.1221,-0.0000,-0.1817,-0.2110,-10.6813,0.0129,-0.0134,-0.0017,0.0000,0.0000,0.0000,0.0000,0.0000,0.0000,0.0000,0.0000,0.0000,0.0000,0.0000,0.0000,0.0000,0.0000,1.0000,0.0000,0.0000,0.0000,-0.1298,0.0813,0.0000,0.0000,0.0000,0.0000,0.0000,0.0000,-0.0000,-0.0385,0.0265,0.0047,0.0000,0.0000,-0.5728,0.0025,0.0025,0.0025,0.0025,4
106,209,307869691921,-10.5310,-0.1298,0.0813,0.0510,0.0810,0.0110,1.1644,23.4375,23.4375,23.4375,23.4375,12.2215,0.0000,-0.0610,-0.2441,-0.0000,-0.1913,-0.2158,-10.6050,0.0129,-0.0134,-0.0017,0.0000,0.0000,0.0000,0.0000,0.0000,0.0000,0.0000,0.0000,0.0000,0.0000,0.0000,0.0000,0.0000,0.0000,1.0000,0.0000,0.0000,0.0000,-0.1298,0.0813,0.0000,0.0000,0.0000,0.0000,0.0000,0.0000,-0.0000,-0.0387,0.0264,0.0047,0.0000,0.0000,-0.5728,0.0025,0.0025,0.0025,0.0025,4
107,210,307874575741,-10.5310,-0.1298,0.0813,0.0510,0.0810,0.0110,1.1644,23.4375,23.4375,23.4375,23.4375,12.2208,0.0000,-0.1831,-0.0610,-0.0000,-0.1554,-0.1678,-10.6264,0.0129,-0.0134,-0.0017,0.0000,0.0000,0.0000,0.0000,0.0000,0.0000,0.0000,0.0000,0.0000,0.0000,0.0000,0.0000,0.0000,0.0000,1.0000,0.0000,0.0000,0.0000,-0.1298,0.0813,0.0000,0.0000,0.0000,0.0000,0.0000,0.0000,-0.0000,-0.0387,0.0262,0.0047,0.0000,0.0000,-0.5728,0.0025,0.0025,0.0025,0.0025,4
108,211,307879931708,-10.5310,-0.1298,0.0813,0.0510,0.0810,0.0110,1.1644,23.4375,23.4375,23.4375,23.4375,12.2208,0.0000,-0.1221,-0.0610,-0.0610,-0.1841,-0.1990,-10.6145,0.0129,-0.0134,-0.0017,0.0000,0.0000,0.0000,0.0000,0.0000,0.0000,0.0000,0.0000,0.0000,0.0000,0.0000,0.0000,0.0000,0.0000,1.0000,0.0000,0.0000,0.0000,-0.1298,0.0813,0.0000,0.0000,0.0000,0.0000,0.0000,0.0000,-0.0000,-0.0388,0.0261,0.0047,0.0000,0.0000,-0.5728,0.0025,0.0025,0.0025,0.0025,4
109,212,307884604759,-10.5310,-0.1298,0.0813,0.0510,0.0810,0.0110,1.1644,23.4375,23.4375,23.4375,23.4375,12.2205,0.0000,-0.2441,-0.1831,-0.0000,-0.1721,-0.1630,-10.6264,0.0129,-0.0134,-0.0017,0.0000,0.0000,0.0000,0.0000,0.0000,0.0000,0.0000,0.0000,0.0000,0.0000,0.0000,0.0000,0.0000,0.0000,1.0000,0.0000,0.0000,0.0000,-0.1298,0.0813,0.0000,0.0000,0.0000,0.0000,0.0000,0.0000,-0.0000,-0.0388,0.0261,0.0048,0.0000,0.0000,-0.5728,0.0025,0.0025,0.0025,0.0025,4
110,213,307889540217,-10.5310,-0.1298,0.0813,0.0510,0.0810,0.0110,1.1644,23.4375,23.4375,23.4375,23.4375,12.2208,0.0000,0.0000,0.0000,-0.0000,-0.1913,-0.2038,-10.6527,0.0129,-0.0134,-0.0017,0.0000,0.0000,0.0000,0.0000,0.0000,0.0000,0.0000,0.0000,0.0000,0.0000,0.0000,0.0000,0.0000,0.0000,1.0000,0.0000,0.0000,0.0000,-0.1298,0.0813,0.0000,0.0000,0.0000,0.0000,0.0000,0.0000,-0.0000,-0.0388,0.0260,0.0048,0.0000,0.0000,-0.5728,0.0025,0.0025,0.0025,0.0025,4
111,214,307894883515,-10.5310,-0.1298,0.0813,0.0510,0.0810,0.0110,1.1644,23.4375,23.4375,23.4375,23.4375,12.2203,0.0000,-0.1831,-0.0610,0.1221,-0.1793,-0.2134,-10.5715,0.0129,-0.0134,-0.0017,0.0000,0.0000,0.0000,0.0000,0.0000,0.0000,0.0000,0.0000,0.0000,0.0000,0.0000,0.0000,0.0000,0.0000,1.0000,0.0000,0.0000,0.0000,-0.1298,0.0813,0.0000,0.0000,0.0000,0.0000,0.0000,0.0000,-0.0000,-0.0388,0.0260,0.0047,0.0000,0.0000,-0.5728,0.0025,0.0025,0.0025,0.0025,4
112,215,307899573443,-10.5310,-0.1298,0.0813,0.0510,0.0810,0.0110,1.1644,23.4375,23.4375,23.4375,23.4375,12.2205,0.0000,0.0000,0.0000,0.1221,-0.1363,-0.1966,-10.6026,0.0129,-0.0134,-0.0017,0.0000,0.0000,0.0000,0.0000,0.0000,0.0000,0.0000,0.0000,0.0000,0.0000,0.0000,0.0000,0.0000,0.0000,1.0000,0.0000,0.0000,0.0000,-0.1298,0.0813,0.0000,0.0000,0.0000,0.0000,0.0000,0.0000,-0.0000,-0.0389,0.0259,0.0046,0.0000,0.0000,-0.5728,0.0025,0.0025,0.0025,0.0025,4
113,216,307904602412,-10.5310,-0.1298,0.0813,0.0110,0.0710,0.0210,1.1644,23.4375,23.4375,23.4375,23.4375,12.2203,0.0000,0.0000,0.1221,-0.0610,-0.1530,-0.2277,-10.5763,0.0129,-0.0134,-0.0017,0.0000,0.0000,0.0000,0.0000,0.0000,0.0000,0.0000,0.0000,0.0000,0.0000,0.0000,0.0000,0.0000,0.0000,1.0000,0.0000,0.0000,0.0000,-0.1298,0.0813,0.0000,0.0000,0.0000,0.0000,0.0000,0.0000,-0.0000,-0.0390,0.0258,0.0047,0.0000,0.0000,-0.5728,0.0025,0.0025,0.0025,0.0025,4
114,217,307909564081,-10.5310,-0.1298,0.0813,0.0110,0.0710,0.0210,1.1644,23.4375,23.4375,23.4375,23.4375,12.2200,0.0000,0.0610,0.0000,0.1831,-0.1530,-0.1750,-10.6813,0.0129,-0.0134,-0.0017,0.0000,0.0000,0.0000,0.0000,0.0000,0.0000,0.0000,0.0000,0.0000,0.0000,0.0000,0.0000,0.0000,0.0000,1.0000,0.0000,0.0000,0.0000,-0.1298,0.0813,0.0000,0.0000,0.0000,0.0000,0.0000,0.0000,-0.0000,-0.0391,0.0258,0.0046,0.0000,0.0000,-0.5728,0.0025,0.0025,0.0025,0.0025,4
115,218,307940584202,-10.4707,-0.1844,0.0284,0.0110,0.0710,0.0210,1.1644,23.4375,23.4375,23.4375,23.4375,12.2200,0.0000,-0.0610,-0.1221,0.1831,-0.1698,-0.1654,-10.6121,0.0129,-0.0134,-0.0017,0.0000,0.0000,0.0000,0.0000,0.0000,0.0000,0.0000,0.0000,0.0000,0.0000,0.0000,0.0000,0.0000,0.0000,1.0000,0.0000,0.0000,0.0000,-0.1844,0.0284,0.0000,0.0000,0.0000,0.0000,0.0000,0.0000,-0.0000,-0.2280,-0.2280,0.0045,0.0000,0.0000,-0.5704,0.0025,0.0025,0.0025,0.0025,4
116,219,307945004724,-10.4707,-0.1844,0.0284,0.0110,0.0710,0.0210,1.1644,23.4375,23.4375,23.4375,23.4375,12.2191,0.0000,-0.1831,-0.0610,0.1221,-0.1721,-0.1798,-10.6575,0.0129,-0.0134,-0.0017,0.0000,0.0000,0.0000,0.0000,0.0000,0.0000,0.0000,0.0000,0.0000,0.0000,0.0000,0.0000,0.0000,0.0000,1.0000,0.0000,0.0000,0.0000,-0.1844,0.0284,0.0000,0.0000,0.0000,0.0000,0.0000,0.0000,-0.0000,-0.1733,-0.1527,0.0046,0.0000,0.0000,-0.5704,0.0025,0.0025,0.0025,0.0025,4
117,220,307980930090,-10.4707,-0.1844,0.0284,0.0110,0.0710,0.0210,1.1644,23.4375,23.4375,23.4375,23.4375,12.2193,0.0000,-0.0610,-0.1221,-0.0000,-0.1674,-0.2062,-10.6503,0.0129,-0.0134,-0.0017,0.0000,0.0000,0.0000,0.0000,0.0000,0.0000,0.0000,0.0000,0.0000,0.0000,0.0000,0.0000,0.0000,0.0000,1.0000,0.0000,0.0000,0.0000,-0.1844,0.0284,0.0000,0.0000,0.0000,0.0000,0.0000,0.0000,-0.0000,-0.1358,-0.1012,0.0047,0.0000,0.0000,-0.5704,0.0025,0.0025,0.0025,0.0025,4
118,221,308035752396,-10.4707,-0.1844,0.0284,0.0110,0.0710,0.0210,1.1644,23.4375,23.4375,23.4375,23.4375,12.2208,0.0000,-0.0610,-0.2441,-0.0000,-0.1482,-0.2134,-10.6503,0.0130,-0.0135,-0.0017,0.0000,0.0000,0.0000,0.0000,0.0000,0.0000,0.0000,0.0000,0.0000,0.0000,0.0000,0.0000,0.0000,0.0000,1.0000,0.0000,0.0000,0.0000,-0.1844,0.0284,0.0000,0.0000,0.0000,0.0000,0.0000,0.0000,-0.0000,-0.1103,-0.0655,0.0047,0.0000,0.0000,-0.5704,0.0025,0.0025,0.0025,0.0025,4
119,222,308039564304,-10.4707,-0.1844,0.0284,0.0110,0.0710,0.0210,1.1644,23.4375,23.4375,23.4375,23.4375,12.2222,0.0000,0.0000,0.0000,-0.0000,-0.1769,-0.1942,-10.5668,0.0130,-0.0135,-0.0017,0.0000,0.0000,0.0000,0.0000,0.0000,0.0000,0.0000,0.0000,0.0000,0.0000,0.0000,0.0000,0.0000,0.0000,1.0000,0.0000,0.0000,0.0000,-0.1844,0.0284,0.0000,0.0000,0.0000,0.0000,0.0000,0.0000,-0.0000,-0.0926,-0.0414,0.0047,0.0000,0.0000,-0.5704,0.0025,0.0025,0.0025,0.0025,4
120,223,308044641696,-10.4707,-0.1844,0.0284,0.0110,0.0710,0.0210,1.1644,23.4375,23.4375,23.4375,23.4375,12.2234,0.0000,0.0000,0.0000,-0.0000,-0.1339,-0.1822,-10.6026,0.0130,-0.0135,-0.0017,0.0000,0.0000,0.0000,0.0000,0.0000,0.0000,0.0000,0.0000,0.0000,0.0000,0.0000,0.0000,0.0000,0.0000,1.0000,0.0000,0.0000,0.0000,-0.1844,0.0284,0.0000,0.0000,0.0000,0.0000,0.0000,0.0000,-0.0000,-0.0805,-0.0248,0.0047,0.0000,0.0000,-0.5704,0.0025,0.0025,0.0025,0.0025,4
121,224,308049920902,-10.4707,-0.1844,0.0284,0.0110,0.0710,0.0210,1.1644,23.4375,23.4375,23.4375,23.4375,12.2249,0.0000,0.0000,0.0610,0.1221,-0.1817,-0.1606,-10.6670,0.0130,-0.0135,-0.0017,0.0000,0.0000,0.0000,0.0000,0.0000,0.0000,0.0000,0.0000,0.0000,0.0000,0.0000,0.0000,0.0000,0.0000,1.0000,0.0000,0.0000,0.0000,-0.1844,0.0284,0.0000,0.0000,0.0000,0.0000,0.0000,0.0000,-0.0000,-0.0721,-0.0135,0.0046,0.0000,0.0000,-0.5704,0.0025,0.0025,0.0025,0.0025,4
122,225,308054504443,-10.4707,-0.1844,0.0284,0.0110,0.0710,0.0210,1.1644,23.4375,23.4375,23.4375,23.4375,12.2261,0.0000,-0.1831,-0.1221,-0.0000,-0.1339,-0.1990,-10.6575,0.0130,-0.0135,-0.0017,0.0000,0.0000,0.0000,0.0000,0.0000,0.0000,0.0000,0.0000,0.0000,0.0000,0.0000,0.0000,0.0000,0.0000,1.0000,0.0000,0.0000,0.0000,-0.1844,0.0284,0.0000,0.0000,0.0000,0.0000,0.0000,0.0000,-0.0000,-0.0663,-0.0056,0.0046,0.0000,0.0000,-0.5704,0.0025,0.0025,0.0025,0.0025,4
123,226,308059528453,-10.4707,-0.1844,0.0284,0.0110,0.0710,0.0210,1.1644,23.4375,23.4375,23.4375,23.4375,12.2266,0.0000,0.0000,0.0000,-0.0000,-0.1219,-0.1558,-10.6408,0.0130,-0.0135,-0.0017,0.0000,0.0000,0.0000,0.0000,0.0000,0.0000,0.0000,0.0000,0.0000,0.0000,0.0000,0.0000,0.0000,0.0000,1.0000,0.0000,0.0000,0.0000,-0.1844,0.0284,0.0000,0.0000,0.0000,0.0000,0.0000,0.0000,-0.0000,-0.0625,-0.0003,0.0047,0.0000,0.0000,-0.5704,0.0025,0.0025,0.0025,0.0025,4
124,227,308064689312,-10.4707,-0.1844,0.0284,0.0110,0.0710,0.0210,1.1644,23.4375,23.4375,23.4375,23.4375,12.2273,0.0000,0.0000,0.0000,-0.0000,-0.1650,-0.2325,-10.6169,0.0130,-0.0135,-0.0017,0.0000,0.0000,0.0000,0.0000,0.0000,0.0000,0.0000,0.0000,0.0000,0.0000,0.0000,0.0000,0.0000,0.0000,1.0000,0.0000,0.0000,0.0000,-0.1844,0.0284,0.0000,0.0000,0.0000,0.0000,0.0000,0.0000,-0.0000,-0.0597,0.0034,0.0047,0.0000,0.0000,-0.5704,0.0025,0.0025,0.0025,0.0025,4
125,228,308069971061,-10.4707,-0.1844,0.0284,0.0110,0.0710,0.0210,1.1644,23.4375,23.4375,23.4375,23.4375,12.2290,0.0000,-0.2441,-0.0610,0.1221,-0.1626,-0.1822,-10.6575,0.0130,-0.0135,-0.0017,0.0000,0.0000,0.0000,0.0000,0.0000,0.0000,0.0000,0.0000,0.0000,0.0000,0.0000,0.0000,0.0000,0.0000,1.0000,0.0000,0.0000,0.0000,-0.1844,0.0284,0.0000,0.0000,0.0000,0.0000,0.0000,0.0000,-0.0000,-0.0578,0.0059,0.0046,0.0000,0.0000,-0.5704,0.0025,0.0025,0.0025,0.0025,4
126,229,308074540059,-10.4707,-0.1844,0.0284,0.0110,0.0710,0.0210,1.1644,23.4375,23.4375,23.4375,23.4375,12.2292,0.0000,-0.2441,-0.1221,0.1831,-0.1745,-0.1990,-10.5548,0.0130,-0.0135,-0.0017,0.0000,0.0000,0.0000,0.0000,0.0000,0.0000,0.0000,0.0000,0.0000,0.0000,0.0000,0.0000,0.0000,0.0000,1.0000,0.0000,0.0000,0.0000,-0.1844,0.0284,0.0000,0.0000,0.0000,0.0000,0.0000,0.0000,-0.0000,-0.0565,0.0077,0.0045,0.0000,0.0000,-0.5704,0.0025,0.0025,0.0025,0.0025,4
127,230,308079522689,-10.4707,-0.1844,0.0284,0.0110,0.0710,0.0210,1.1644,23.4375,23.4375,23.4375,23.4375,12.2307,0.0000,-0.0610,-0.1221,0.1221,-0.1913,-0.1918,-10.6002,0.0130,-0.0135,-0.0017,0.0000,0.0000,0.0000,0.0000,0.0000,0.0000,0.0000,0.0000,0.0000,0.0000,0.0000,0.0000,0.0000,0.0000,1.0000,0.0000,0.0000,0.0000,-0.1844,0.0284,0.0000,0.0000,0.0000,0.0000,0.0000,0.0000,-0.0000,-0.0557,0.0089,0.0045,0.0000,0.0000,-0.5704,0.0025,0.0025,0.0025,0.0025,4
128,231,308084952913,-10.4707,-0.1844,0.0284,0.0110,0.0710,0.0210,1.1644,23.4375,23.4375,23.4375,23.4375,12.2319,0.0000,0.0000,0.0000,-0.0000,-0.1937,-0.2038,-10.6551,0.0130,-0.0135,-0.0017,0.0000,0.0000,0.0000,0.0000,0.0000,0.0000,0.0000,0.0000,0.0000,0.0000,0.0000,0.0000,0.0000,0.0000,1.0000,0.0000,0.0000,0.0000,-0.1844,0.0284,0.0000,0.0000,0.0000,0.0000,0.0000,0.0000,-0.0000,-0.0551,0.0097,0.0045,0.0000,0.0000,-0.5704,0.0025,0.0025,0.0025,0.0025,4
129,232,308089482990,-10.4707,-0.1844,0.0284,0.0110,0.0710,0.0210,1.1644,23.4375,23.4375,23.4375,23.4375,12.2336,0.0000,-0.1221,-0.0610,0.1221,-0.1482,-0.1630,-10.6050,0.0130,-0.0135,-0.0017,0.0000,0.0000,0.0000,0.0000,0.0000,0.0000,0.0000,0.0000,0.0000,0.0000,0.0000,0.0000,0.0000,0.0000,1.0000,0.0000,0.0000,0.0000,-0.1844,0.0284,0.0000,0.0000,0.0000,0.0000,0.0000,0.0000,-0.0000,-0.0547,0.0103,0.0045,0.0000,0.0000,-0.5704,0.0025,0.0025,0.0025,0.0025,4
130,233,308094492915,-10.4707,-0.1844,0.0284,0.0110,0.0710,0.0210,1.1644,23.4375,23.4375,23.4375,23.4375,12.2343,0.0000,-0.2441,-0.1831,0.1831,-0.1841,-0.1942,-10.6026,0.0130,-0.0135,-0.0017,0.0000,0.0000,0.0000,0.0000,0.0000,0.0000,0.0000,0.0000,0.0000,0.0000,0.0000,0.0000,0.0000,0.0000,1.0000,0.0000,0.0000,0.0000,-0.1844,0.0284,0.0000,0.0000,0.0000,0.0000,0.0000,0.0000,-0.0000,-0.0543,0.0107,0.0044,0.0000,0.0000,-0.5704,0.0025,0.0025,0.0025,0.0025,4
